Company_Name,Category,Address,Url,Latitude,Longitude,State
KD Fitness,Gym,"Mahatma Gandhi Road, Tezu, Arunachal Pradesh 792001, India",https://www.google.co.kr/maps/place/KD+Fitness/data=!4m5!3m4!1s0x373e659fe4c98e2b:0xba550d123ba18871!8m2!3d27.927483!4d96.1638726?authuser=0&hl=en&rclk=1,27.927483000000002,96.16387259999999,Arunachal Pradesh
PandP unisex gym,Gym,"Tani colony, C- Sector, Naharlagun, Arunachal Pradesh 791110",https://www.google.co.kr/maps/place/PandP+unisex+gym/data=!4m5!3m4!1s0x374401ffbed55d31:0xea9123f0253ce3e6!8m2!3d27.1040339!4d93.6870462?authuser=0&hl=en&rclk=1,27.104033899999997,93.68704620000001,Arunachal Pradesh
Fitness freak gym,Gym,"Near national highway 415, gohpurtinali Gohpur, tinali, Itanagar, Arunachal Pradesh 791113",https://www.google.co.kr/maps/place/Fitness+freak+gym/data=!4m5!3m4!1s0x374407744fc171ed:0xfbc15cdc736bc1a5!8m2!3d27.0751838!4d93.5927678?authuser=0&hl=en&rclk=1,27.075183799999998,93.59276779999999,Arunachal Pradesh
KPK VILLA,Gym,"Kingya Charali,, Namsai, Arunachal Pradesh 792103, India",https://www.google.co.kr/maps/place/KPK+VILLA/data=!4m5!3m4!1s0x373efaf37b608ca1:0xea0fcd0a544b89c5!8m2!3d27.6537495!4d95.8755297?authuser=0&hl=en&rclk=1,27.6537495,95.8755297,Arunachal Pradesh
JBN GYM,Gym,"Lama camp road opposite, government.secondary. school, Telluliang, Tezu, Arunachal Pradesh 792001, India",https://www.google.co.kr/maps/place/JBN+GYM/data=!4m5!3m4!1s0x373e671e42d6882d:0x2379c992b4e31f3!8m2!3d27.9271255!4d96.1416922?authuser=0&hl=en&rclk=1,27.9271255,96.14169220000001,Arunachal Pradesh
I National GYM,Fitness center,"near sani mandir, E-SECTOR, Cona County, Naharlagun, Arunachal Pradesh 791110",https://www.google.co.kr/maps/place/I+National+GYM/data=!4m5!3m4!1s0x3744013bc43e1821:0xc674d70c8050163a!8m2!3d27.1056378!4d93.6943765?authuser=0&hl=en&rclk=1,27.105637800000004,93.6943765,Arunachal Pradesh
Vivekananda Centre of Excellence,Gym,"A - Sector, Naharlagun, Arunachal Pradesh",https://www.google.co.kr/maps/place/Vivekananda+Centre+of+Excellence/data=!4m5!3m4!1s0x3744006227966bab:0x471f76b44183a416!8m2!3d27.1073284!4d93.7046996?authuser=0&hl=en&rclk=1,27.1073284,93.7046996,Arunachal Pradesh
Gym center,Gym,"4R9F+42W, Roing, Arunachal Pradesh 792110, India",https://www.google.co.kr/maps/place/Gym+center/data=!4m5!3m4!1s0x373e494ed25cac3b:0x9ba220586e49f87d!8m2!3d28.1178597!4d95.8225911?authuser=0&hl=en&rclk=1,28.1178597,95.8225911,Arunachal Pradesh
Victorias Gym,Gym,"Vivek Vihar Government Colony, Aalo, Itanagar, Arunachal Pradesh 791113",https://www.google.co.kr/maps/place/Victorias+Gym/data=!4m5!3m4!1s0x374407b54f1b47c1:0xb8deae92dee21c02!8m2!3d27.0810955!4d93.6023542?authuser=0&hl=en&rclk=1,27.0810955,93.60235420000001,Arunachal Pradesh
Topu Tagin Gym,Gym,"Chimpu Jollang Road, near TT Construction, Itanagar, Arunachal Pradesh 791113",https://www.google.co.kr/maps/place/Topu+Tagin+Gym/data=!4m5!3m4!1s0x374407f49479fbaf:0xb416d986bdf21911!8m2!3d27.0707571!4d93.6154877?authuser=0&hl=en&rclk=1,27.070757099999998,93.6154877,Arunachal Pradesh
The Art of Living Yoga Centre Oyan,Fitness center,"V8M8+MHH, Sile, Arunachal Pradesh 791102, India",https://www.google.co.kr/maps/place/The+Art+of+Living+Yoga+Centre+Oyan/data=!4m5!3m4!1s0x373f9f5d7a076f5f:0xee4ddf858c5ed998!8m2!3d27.8841984!4d95.3164823?authuser=0&hl=en&rclk=1,27.8841984,95.3164823,Arunachal Pradesh
WAII International fitness centre,Gym,"Near VIP Road, Cona County, Shannan, 791111",https://www.google.co.kr/maps/place/WAII+International+fitness+centre/data=!4m5!3m4!1s0x37440783ed87c6fb:0x3aa2801f8a14c532!8m2!3d27.0946056!4d93.6153204?authuser=0&hl=en&rclk=1,27.094605600000005,93.6153204,Arunachal Pradesh
"VIGEN India Centre, Itanagar",Gym,"3JX8+WFC, Niti Vihar, Sultanpuri, Deli, Delhi 791111","https://www.google.co.kr/maps/place/VIGEN+India+Centre,+Itanagar/data=!4m5!3m4!1s0x374407a3dadf059f:0xb3da508a985d5c12!8m2!3d27.0998191!4d93.6161488?authuser=0&hl=en&rclk=1",27.099819099999998,93.6161488,Arunachal Pradesh
CK Bliss,Yoga studio,"F sector, near Green Mount School, Itanagar, Arunachal Pradesh 791113",https://www.google.co.kr/maps/place/CK+Bliss/data=!4m5!3m4!1s0x374407b04c7296db:0xeda59996e11039f4!8m2!3d27.0893874!4d93.6100135?authuser=0&hl=en&rclk=1,27.0893874,93.61001350000001,Arunachal Pradesh
The Red Lion's Gym,Gym,"MV9J+2F9, 2nd Mile, Arunachal Pradesh 792103, India",https://www.google.co.kr/maps/place/The+Red+Lion's+Gym/data=!4m5!3m4!1s0x373efbe7368aab0f:0x92e5671dcbb6d1c6!8m2!3d27.6675319!4d95.881223?authuser=0&hl=en&rclk=1,27.667531899999997,95.88122299999999,Arunachal Pradesh
hasmukh Play Ground,Gym,"C2FH+QCQ, Oil India Housing Complex, Arunachal Pradesh 792122, India",https://www.google.co.kr/maps/place/hasmukh+Play+Ground/data=!4m5!3m4!1s0x373eebb5c44553a7:0xbce42f7fdad51d19!8m2!3d27.4244719!4d96.0286232?authuser=0&hl=en&rclk=1,27.424471899999997,96.02862320000001,Arunachal Pradesh
Dhamala Gym Centre,Gym,"Phillobari, bijulibon, Mailapung No.1, Assam 786160, India",https://www.google.co.kr/maps/place/Dhamala+Gym+Centre/data=!4m5!3m4!1s0x373ee14ea183d4f5:0x23671fe8d0842138!8m2!3d27.5164552!4d95.7391606?authuser=0&hl=en&rclk=1,27.516455199999996,95.73916059999999,Arunachal Pradesh
Dhama Aruna vipasanna center,Gym,"HX57+Q3P, Piyong, Arunachal Pradesh 792103, India",https://www.google.co.kr/maps/place/Dhama+Aruna+vipasanna+center/data=!4m5!3m4!1s0x373eef6d0157d59f:0xedf8776b9676fb9d!8m2!3d27.559457!4d95.9627025?authuser=0&hl=en&rclk=1,27.559457000000002,95.9627025,Arunachal Pradesh
Shape up aerobic studio,Gym,"NH415, 791111",https://www.google.co.kr/maps/place/Shape+up+aerobic+studio/data=!4m5!3m4!1s0x37440717602088ab:0x4459fb6dd801b552!8m2!3d27.0747107!4d93.5929735?authuser=0&hl=en&rclk=1,27.0747107,93.5929735,Arunachal Pradesh
"RANGFRAA MANDIR, Longkom Ponthai",Gym,"P.o-Bordumsa, Dist, Chsnglang, Arunachal Pradesh 792056, India","https://www.google.co.kr/maps/place/RANGFRAA+MANDIR,+Longkom+Ponthai/data=!4m5!3m4!1s0x373ee9c02cea0681:0x733e4ed61e4f319a!8m2!3d27.4588878!4d95.9238433?authuser=0&hl=en&rclk=1",27.458887800000003,95.9238433,Arunachal Pradesh
SAI SAG Center,Gym,"Youth Hostel Road, Naharlagun",https://www.google.co.kr/maps/place/SAI+SAG+Center/data=!4m5!3m4!1s0x3744008ba1d19591:0xa72633005fbbd2b!8m2!3d27.104664!4d93.6991287?authuser=0&hl=en&rclk=1,27.104664,93.6991287,Arunachal Pradesh
Fitness Gym,Gym,"near uco bank, Udalguri, India",https://www.google.co.kr/maps/place/Fitness+Gym/data=!4m5!3m4!1s0x375b14e59eb743a3:0xd956706e44c209af!8m2!3d26.7492764!4d92.0969484?authuser=0&hl=en&rclk=1,26.749276399999996,92.0969484,Arunachal Pradesh
Satin credit care network Ltd,Gym,"Balipara-Old Missamari Rd, Missamari, Assam 784506, India",https://www.google.co.kr/maps/place/Satin+credit+care+network+Ltd/data=!4m5!3m4!1s0x3744b78484ec5a51:0xa1e960b6d18647fe!8m2!3d26.8114511!4d92.6031214?authuser=0&hl=en&rclk=1,26.8114511,92.6031214,Arunachal Pradesh
"Daroon Gym, Rowta",Gym,"Maibra Gym, Rowta, Assam 784508, India","https://www.google.co.kr/maps/place/Daroon+Gym,+Rowta/data=!4m5!3m4!1s0x375b3f2648fccf37:0x8946137348d68b60!8m2!3d26.7141154!4d92.2001275?authuser=0&hl=en&rclk=1",26.714115399999997,92.20012750000001,Arunachal Pradesh
Duliajan Powerhouse Gym,Gym,"Station Road, behind Duarah Medicine Centre, Bordubi No.1, Assam 786602, India",https://www.google.co.kr/maps/place/Duliajan+Powerhouse+Gym/data=!4m5!3m4!1s0x373f4157ce82075d:0xb15a68184dcedbd5!8m2!3d27.3596254!4d95.3067579?authuser=0&hl=en&rclk=1,27.359625399999995,95.30675790000001,Arunachal Pradesh
Ananta Multi Gym,Gym,"MHVH+H43, Teachers Colony, Thelamara, Assam 784149, India",https://www.google.co.kr/maps/place/Ananta+Multi+Gym/data=!4m5!3m4!1s0x3744c9f9f38bd8ef:0x34fd7bb672e7eed4!8m2!3d26.6938765!4d92.5777869?authuser=0&hl=en&rclk=1,26.693876500000002,92.5777869,Arunachal Pradesh
Krisno Gym Multi Iron,Gym,"M8XJ+CFP, Garubandha Khankhala B, Assam 784114, India",https://www.google.co.kr/maps/place/Krisno+Gym+Multi+Iron/data=!4m5!3m4!1s0x375b377adea1f4b9:0x44859c9e51c4dd82!8m2!3d26.698578!4d92.3312094?authuser=0&hl=en&rclk=1,26.698578,92.3312094,Arunachal Pradesh
Bechimari Gym,Gym,"J5GG+6XF, Besimari, Assam 784514, India",https://www.google.co.kr/maps/place/Bechimari+Gym/data=!4m5!3m4!1s0x375b3d1b228c7fef:0xdce7b6a951e23580!8m2!3d26.6255662!4d92.1774365?authuser=0&hl=en&rclk=1,26.6255662,92.1774365,Arunachal Pradesh
Nimas Water Sports,Sports complex,"Chariduar - Tawang Rd, Cona, Shannan, Arunachal Pradesh 790101",https://www.google.co.kr/maps/place/Nimas+Water+Sports/data=!4m5!3m4!1s0x375cbb6fc63a480d:0x71949db7dcdade6e!8m2!3d27.3778553!4d92.2352993?authuser=0&hl=en&rclk=1,27.3778553,92.23529930000001,Arunachal Pradesh
Bodohood Fitness Centre,Gym,"PXPP+CVJ, Niz Harisinga, Assam 784510, India",https://www.google.co.kr/maps/place/Bodohood+Fitness+Centre/data=!4m5!3m4!1s0x375b0d7ff4695f69:0x4bfb5f4cbacebac5!8m2!3d26.7360892!4d91.9871394?authuser=0&hl=en&rclk=1,26.7360892,91.9871394,Arunachal Pradesh
SK Fitness centre,Gym,"1, Udalguri-Tamulpur Rd, Dimakuchigaon, Assam 784526, India",https://www.google.co.kr/maps/place/SK+Fitness+centre/data=!4m5!3m4!1s0x375b0bb4a1bc8f57:0x2c404215a09416aa!8m2!3d26.7474146!4d91.8385014?authuser=0&hl=en&rclk=1,26.7474146,91.83850140000001,Arunachal Pradesh
JDB'S FUNCTIONAL GYM,Gym,"Pub Jangalpara Path, Milanpur, Tangla, Assam 784525, India",https://www.google.co.kr/maps/place/JDB'S+FUNCTIONAL+GYM/data=!4m5!3m4!1s0x375b0fffa87b131d:0x3508410e1594ae55!8m2!3d26.6537904!4d91.9191192?authuser=0&hl=en&rclk=1,26.6537904,91.9191192,Arunachal Pradesh
Més Que Football Arena,Sports complex,"Rooftop O.T. Building, Niti Vihar, Itanagar, Arunachal Pradesh 791111",https://www.google.co.kr/maps/place/M%C3%A9s+Que+Football+Arena/data=!4m5!3m4!1s0x374407cdebaeea25:0xc7f02f0615f6ab8!8m2!3d27.1003294!4d93.6171356?authuser=0&hl=en&rclk=1,27.1003294,93.6171356,Arunachal Pradesh
National Institute of Mountaineering and Allied Sports (NIMAS),Adventure sports,"c/o 99 APO, Dirang Village, Arunachal Pradesh 790101",https://www.google.co.kr/maps/place/National+Institute+of+Mountaineering+and+Allied+Sports+(NIMAS)/data=!4m5!3m4!1s0x375cbb4706bbdb73:0x9a0a79657e05c2!8m2!3d27.3703197!4d92.2306927?authuser=0&hl=en&rclk=1,27.3703197,92.2306927,Arunachal Pradesh
"Shristi Yoga Institute, Udalguri",Yoga studio,"near Hanuman mill, Udalguri, Assam 784509, India","https://www.google.co.kr/maps/place/Shristi+Yoga+Institute,+Udalguri/data=!4m5!3m4!1s0x375b158457f6d139:0x5de0803e333ddcc4!8m2!3d26.7436208!4d92.0982883?authuser=0&hl=en&rclk=1",26.7436208,92.0982883,Arunachal Pradesh
NIMAS Adventure Base Camp,Adventure sports center,"27°22'13. 92°13'50 8, Puerto Rico 2, Ponce, Arunachal Pradesh 00716",https://www.google.co.kr/maps/place/NIMAS+Adventure+Base+Camp/data=!4m5!3m4!1s0x375cbb6701fcb66f:0x20d90ad1ee9ba96a!8m2!3d27.370331!4d92.230776?authuser=0&hl=en&rclk=1,27.370331,92.230776,Arunachal Pradesh
FIT INDIA GYM,Gym,"Bhaskar Nagar, Gopinath Nagar, Binowa Nagar, Kala Pahar, Guwahati, Assam 781001, India",https://www.google.co.kr/maps/place/FIT+INDIA+GYM/data=!4m5!3m4!1s0x375a5bc40c669d69:0xe60a8603fb4f178c!8m2!3d26.1493082!4d91.7407453?authuser=0&hl=en&rclk=1,26.1493082,91.7407453,Assam
Gym Point - Guwahati,Gym,"2nd floor, Baliram sarala Niwas, Gotanagar, Guwahati, Assam 781033, India",https://www.google.co.kr/maps/place/Gym+Point+-+Guwahati/data=!4m5!3m4!1s0x375a5b4d0998bf7b:0x5b502d7b65c2f5c7!8m2!3d26.1399609!4d91.6783806?authuser=0&hl=en&rclk=1,26.1399609,91.6783806,Assam
Fitness World (Ladies Only),Gym,"near Bharath Seva Ashram, Kala Pahad, Bishnu Rava Path, Fatasil Ambari, Guwahati, Assam 781018, India",https://www.google.co.kr/maps/place/Fitness+World+(Ladies+Only)/data=!4m5!3m4!1s0x375a5bc0ca770fe3:0xa9f0bc1915416279!8m2!3d26.1548403!4d91.7356437?authuser=0&hl=en&rclk=1,26.154840300000004,91.7356437,Assam
Studio Fitness,Gym,"5Q3M+VFJ, Manik Nagar, Guwahati, Assam 781006, India",https://www.google.co.kr/maps/place/Studio+Fitness/data=!4m5!3m4!1s0x375a591a03188141:0x3e42f42bbc9affc8!8m2!3d26.1547142!4d91.7836291?authuser=0&hl=en&rclk=1,26.1547142,91.7836291,Assam
stayfit fitness studio,Fitness center,"Das complex, Lokhra Rd, Lal Ganesh, Guwahati, Assam 781034, India",https://www.google.co.kr/maps/place/stayfit+fitness+studio/data=!4m5!3m4!1s0x375a5d7423f7e929:0x5d91682ba27f539b!8m2!3d26.1412941!4d91.7419971?authuser=0&hl=en&rclk=1,26.141294100000003,91.74199709999999,Assam
9M GYM,Gym,"Solapara Road Opp Hotel Siroy Lily, Piyali Phukan Rd, near Bank Of India, Complex, Guwahati, Assam 781007, India",https://www.google.co.kr/maps/place/9M+GYM/data=!4m5!3m4!1s0x375a5bd675682ae9:0x6055b87a122475c1!8m2!3d26.1784346!4d91.7533332?authuser=0&hl=en&rclk=1,26.178434600000003,91.7533332,Assam
Venus Fitness Planet Guwahati,Gym,"Jatia, Kahilipara Main Rd, Kahilipara, Guwahati, Assam 781019, India",https://www.google.co.kr/maps/place/Venus+Fitness+Planet+Guwahati/data=!4m5!3m4!1s0x375a593c1f9caead:0x7eedec0f6311c782!8m2!3d26.1441101!4d91.7826163?authuser=0&hl=en&rclk=1,26.144110100000002,91.7826163,Assam
K Fitness Gym +,Gym,"Na-Ali, Dohabora Chowk, Near Jorhat Law College Jorhat Law College Chariali, Assam 785001, India",https://www.google.co.kr/maps/place/K+Fitness+Gym+%2B/data=!4m5!3m4!1s0x3746c28d396125b5:0x5bc37f8926caf59!8m2!3d26.7490975!4d94.2127157?authuser=0&hl=en&rclk=1,26.749097499999998,94.2127157,Assam
Fitzone Gym & Physical Training,Gym,"Near, Jain Gali, Rehabari, Guwahati, Assam 781008, India",https://www.google.co.kr/maps/place/Fitzone+Gym+%26+Physical+Training/data=!4m5!3m4!1s0x375a5a2cc1d02fd7:0x3b6b006c56bfe3b!8m2!3d26.1740288!4d91.7477009?authuser=0&hl=en&rclk=1,26.1740288,91.74770090000001,Assam
Gym Nation,Gym,"AMC Road, Magpins Tower. 4th Floor. Opp Jyotshna Cinema Hall, Dibrugarh, Assam 786005, India",https://www.google.co.kr/maps/place/Gym+Nation/data=!4m5!3m4!1s0x3740985951a5687b:0xd2023f93b65192f8!8m2!3d27.4921658!4d94.9303517?authuser=0&hl=en&rclk=1,27.4921658,94.9303517,Assam
"New Fitness India, Sports & Fitness Equiptments",Gym,"Kamarchuburi, Tezpur, Assam 784001, India","https://www.google.co.kr/maps/place/New+Fitness+India,+Sports+%26+Fitness+Equiptments/data=!4m5!3m4!1s0x3744e97bea3af277:0xc43593c4b05d22e6!8m2!3d26.6293045!4d92.7892235?authuser=0&hl=en&rclk=1",26.6293045,92.7892235,Assam
"SK-27 Gym, Guwahati",Fitness center,"Choudhury Complex, 2nd Floor, Achyut &, above Kalyan Jewellers, Bora Service, Guwahati, Assam 781007, India","https://www.google.co.kr/maps/place/SK-27+Gym,+Guwahati/data=!4m5!3m4!1s0x375a59fd9bd68c7f:0xfb51fd013c3fec4d!8m2!3d26.1717282!4d91.7610459?authuser=0&hl=en&rclk=1",26.1717282,91.7610459,Assam
Fitness Empire,Gym,"In And Out Building, 3rd, RG Baruah Rd, Guwahati, 781024, India",https://www.google.co.kr/maps/place/Fitness+Empire/data=!4m5!3m4!1s0x375a59b12817f535:0xb24d452fa6d80ace!8m2!3d26.1721528!4d91.7777948?authuser=0&hl=en&rclk=1,26.172152800000003,91.7777948,Assam
HARDCORE FITNESS,Gym,"Public Health, near Ananta path, GMC Ward Number 44, Hengrabari, Guwahati, Assam 781036, India",https://www.google.co.kr/maps/place/HARDCORE+FITNESS/data=!4m5!3m4!1s0x375a59beba057441:0x3043ed6a573c31c1!8m2!3d26.1530329!4d91.7915625?authuser=0&hl=en&rclk=1,26.1530329,91.7915625,Assam
Change 4 Life,Fitness center,"Guwahati-Shillong Rd, Rajbari Path, Ganeshguri, Guwahati, Assam 781005, India",https://www.google.co.kr/maps/place/Change+4+Life/data=!4m5!3m4!1s0x375a5917779dc889:0xb3d34d1f1d0c26b8!8m2!3d26.1517335!4d91.7824355?authuser=0&hl=en&rclk=1,26.1517335,91.78243549999999,Assam
Unisex Gym,Gym,"4QPW+3RV, Bali Baat, Rukmini Gaon, Guwahati, Assam 781036, India",https://www.google.co.kr/maps/place/Unisex+Gym/data=!4m5!3m4!1s0x375a58d747a1eb71:0x26662a6e42370fb0!8m2!3d26.1352295!4d91.7970615?authuser=0&hl=en&rclk=1,26.1352295,91.7970615,Assam
SARAIGHAT FITNESS CENTRE,Gym,"MG Road, Rangia, Assam 781354, India",https://www.google.co.kr/maps/place/SARAIGHAT+FITNESS+CENTRE/data=!4m5!3m4!1s0x375bb3abaf65a51f:0x7fb5da0029f76fcd!8m2!3d26.4372518!4d91.6201102?authuser=0&hl=en&rclk=1,26.4372518,91.62011020000001,Assam
Stay Fit Live Pure Fitness Academy,Fitness center,"2nd Floor, House No. 87, Rajgarh Main Rd Opposite Guwahati Eye Center, adjacent to Canon Servicing Center, Guwahati, Assam 781003, India",https://www.google.co.kr/maps/place/Stay+Fit+Live+Pure+Fitness+Academy/data=!4m5!3m4!1s0x375a59f751e3dcb3:0x889f570d82948f85!8m2!3d26.1731639!4d91.7721659?authuser=0&hl=en&rclk=1,26.1731639,91.7721659,Assam
Saikia gym,Gym,"Borpukhuri Rd, Biswanath Charali, Assam 784176, India",https://www.google.co.kr/maps/place/Saikia+gym/data=!4m5!3m4!1s0x37445f275fd35183:0xdfdc4e81bf995f2a!8m2!3d26.7443057!4d93.144615?authuser=0&hl=en&rclk=1,26.744305699999998,93.144615,Assam
Viva Health And Fitness - Gym for Women,Gym,"5QC7+FCG, South Sarania, Lachit Nagar, Guwahati, Assam 781003, India",https://www.google.co.kr/maps/place/Viva+Health+And+Fitness+-+Gym+for+Women/data=!4m5!3m4!1s0x375a59781e33a3d9:0x5bb5567b8386396a!8m2!3d26.1711808!4d91.7635665?authuser=0&hl=en&rclk=1,26.171180800000002,91.76356650000001,Assam
Body Flex,Gym,"2nd Floor, RG Baruah Rd, Near Punjab National Bank, Sunderpur, Guwahati, Assam 781005, India",https://www.google.co.kr/maps/place/Body+Flex/data=!4m5!3m4!1s0x375a5919be7de983:0x3d7f4135955d20ae!8m2!3d26.1533183!4d91.7841957?authuser=0&hl=en&rclk=1,26.153318300000002,91.78419570000001,Assam
K Fitness Gym,Gym,"1st Floor, Upasana Building, Jail Road, near KG Nursing Home, Nandanpur, Jorhat, Assam 785001, India",https://www.google.co.kr/maps/place/K+Fitness+Gym/data=!4m5!3m4!1s0x3746c297d458663f:0xc399ea8fa7a301f7!8m2!3d26.748378!4d94.202601?authuser=0&hl=en&rclk=1,26.748378000000002,94.202601,Assam
APM HEALTH GYM,Gym,"Charigaon-Nimati Rd, Koibortta Gaon, Assam 785101, India",https://www.google.co.kr/maps/place/APM+HEALTH+GYM/data=!4m5!3m4!1s0x3746dd59b73e874d:0xde873fc9e4e2dec0!8m2!3d26.8207409!4d94.2415441?authuser=0&hl=en&rclk=1,26.820740899999997,94.2415441,Assam
FIT FACTOR,Gym,"Tulasi Narayan Sharma Path, Malow Ali, Jorhat, Assam 785001, India",https://www.google.co.kr/maps/place/FIT+FACTOR/data=!4m5!3m4!1s0x3746c36e78fd1051:0x302d5f6f60498645!8m2!3d26.7633386!4d94.2042662?authuser=0&hl=en&rclk=1,26.7633386,94.2042662,Assam
Fitness Gold Gym,Gym,"Hatigaon Bhetapara Rd, Beltola Tiniali, Guwahati, Assam 781028, India",https://www.google.co.kr/maps/place/Fitness+Gold+Gym/data=!4m5!3m4!1s0x375a5ed39cc80b23:0x2ae6e2233d43a27f!8m2!3d26.121702!4d91.7872122?authuser=0&hl=en&rclk=1,26.121702,91.7872122,Assam
Real Builders Gym,Gym,"Sawkuchi Tiniali, Lokhra, Guwahati, Assam 781034, India",https://www.google.co.kr/maps/place/Real+Builders+Gym/data=!4m5!3m4!1s0x375a5c06ad84a583:0x41584b8d98ab384a!8m2!3d26.1201764!4d91.7488415?authuser=0&hl=en&rclk=1,26.1201764,91.7488415,Assam
Avita Gym,Gym,"Mithapukhuri Rd, Babupatty, Jorhat, Assam 785001, India",https://www.google.co.kr/maps/place/Avita+Gym/data=!4m5!3m4!1s0x3746c2c00c798ca3:0x3d3aca4d4043bb14!8m2!3d26.7582853!4d94.2139314?authuser=0&hl=en&rclk=1,26.7582853,94.2139314,Assam
Fitness Freak,Gym,"Jwhwlao Dwimalu Rd, Kokrajhar, Assam 783370, India",https://www.google.co.kr/maps/place/Fitness+Freak/data=!4m5!3m4!1s0x375860304b978db5:0x81837541526f1e2d!8m2!3d26.4054822!4d90.2692367?authuser=0&hl=en&rclk=1,26.405482199999998,90.26923670000001,Assam
GYM & Fitness,Fitness center,"4QPF+58C, JANAKPUR, Kahilipara, Guwahati, Assam 781019, India",https://www.google.co.kr/maps/place/GYM+%26+Fitness/data=!4m5!3m4!1s0x375a59481f891c53:0x19947f3fc05be4a6!8m2!3d26.1354433!4d91.7732526?authuser=0&hl=en&rclk=1,26.135443300000002,91.77325259999999,Assam
Arun Universal Gym,Fitness center,"Mother Teresa Rd, Geetanagar, Guwahati, Assam 781021, India",https://www.google.co.kr/maps/place/Arun+Universal+Gym/data=!4m5!3m4!1s0x375a59a9eed8eabb:0xc12eee91b692fe50!8m2!3d26.1687642!4d91.7831128?authuser=0&hl=en&rclk=1,26.1687642,91.7831128,Assam
S.M FITNESS,Gym,"7QV5+74Q, Ledo, Assam 786182, India",https://www.google.co.kr/maps/place/S.M+FITNESS/data=!4m5!3m4!1s0x373ed8f65f15b241:0x65b1d88119b9ec61!8m2!3d27.2932131!4d95.7578696?authuser=0&hl=en&rclk=1,27.2932131,95.7578696,Assam
S. Fitness zone,Gym,"Jwhwlao Dwimalu Rd, Kokrajhar, Assam 783370, India",https://www.google.co.kr/maps/place/S.+Fitness+zone/data=!4m5!3m4!1s0x375861d35d6c5c17:0xddf8f8623d29ace1!8m2!3d26.4052391!4d90.2698064?authuser=0&hl=en&rclk=1,26.4052391,90.26980640000001,Assam
G Gym,Gymnastics center,"98, MS Rd, Machkhowa, Guwahati, Assam 781001, India",https://www.google.co.kr/maps/place/G+Gym/data=!4m5!3m4!1s0x375a5a314b41f6e7:0x34983a58efd2fcf6!8m2!3d26.179836!4d91.7393542?authuser=0&hl=en&rclk=1,26.179835999999998,91.73935420000001,Assam
Mirza Gym,Gym,"Mirza, Santola, Assam 781015, India",https://www.google.co.kr/maps/place/Mirza+Gym/data=!4m5!3m4!1s0x375a408c2ead3c4b:0xd3c5b8835c7ee3c1!8m2!3d26.0889585!4d91.5355137?authuser=0&hl=en&rclk=1,26.0889585,91.5355137,Assam
OLYMPIA GYM,Gym,"AMBIKAGIRI CHAK AMTOL, near AMBIKAGIRI STATUE, Barpeta Road, Assam 781315, India",https://www.google.co.kr/maps/place/OLYMPIA+GYM/data=!4m5!3m4!1s0x37597541170ca3d3:0x6604000054ac30b9!8m2!3d26.4954231!4d90.9680457?authuser=0&hl=en&rclk=1,26.495423100000004,90.9680457,Assam
Rival Fitness Studio,Gym,"House no 206, NS Ave, Tarapur, Silchar, Assam 788005, India",https://www.google.co.kr/maps/place/Rival+Fitness+Studio/data=!4m5!3m4!1s0x374e4bfbafec0331:0xc2c35b3a48c16748!8m2!3d24.8136496!4d92.7979638?authuser=0&hl=en&rclk=1,24.8136496,92.79796379999999,Assam
Kingdom Of Fitness,Gym,"8PVH+R74, Niz-Madartola, Assam 781121, India",https://www.google.co.kr/maps/place/Kingdom+Of+Fitness/data=!4m5!3m4!1s0x375a536647fe6f8f:0xaf5cbba9310bcdad!8m2!3d26.3445174!4d91.7281942?authuser=0&hl=en&rclk=1,26.3445174,91.7281942,Assam
APM Health Combat Gym,Gym,"RG Baruah Rd, Zoo Road Tiniali, Zoo Tiniali, Guwahati, Assam 781024, India",https://www.google.co.kr/maps/place/APM+Health+Combat+Gym/data=!4m5!3m4!1s0x375a59a0e10b1937:0xfc56f37056b0cc03!8m2!3d26.1750531!4d91.7767864?authuser=0&hl=en&rclk=1,26.175053100000003,91.7767864,Assam
"HEALTH ZONE GYM, Biswanath Chariali",Gym,"NH 15, opposite Hotel Pradyut, Biswanath Charali, Assam 784176, India","https://www.google.co.kr/maps/place/HEALTH+ZONE+GYM,+Biswanath+Chariali/data=!4m5!3m4!1s0x37445e35388a3e0d:0x1d2a6a9485f520fa!8m2!3d26.7402371!4d93.138638?authuser=0&hl=en&rclk=1",26.740237100000005,93.138638,Assam
Diphu Gym,Gymnastics center,"RCRQ+PCJ, Diphu, Assam 782462, India",https://www.google.co.kr/maps/place/Diphu+Gym/data=!4m5!3m4!1s0x3745ed3dd94c19d7:0xe200208688f5e85b!8m2!3d25.8418487!4d93.4385171?authuser=0&hl=en&rclk=1,25.8418487,93.4385171,Assam
Do The Gym,Gym,"Panigaon Chariyali, Nagaon, Assam 782003, India",https://www.google.co.kr/maps/place/Do+The+Gym/data=!4m5!3m4!1s0x374520d32cc29743:0x534b8d1bb9cde2a2!8m2!3d26.3551573!4d92.6984226?authuser=0&hl=en&rclk=1,26.355157300000002,92.69842259999999,Assam
Body Art,Gym,"K.B. Road,Opposite Sbi Gar Ali Branch, Jorhat, Assam 785001, India",https://www.google.co.kr/maps/place/Body+Art/data=!4m5!3m4!1s0x3746c28541faef5f:0x8ce019337dd74ac6!8m2!3d26.7454158!4d94.2013376?authuser=0&hl=en&rclk=1,26.7454158,94.20133759999999,Assam
YOUR GYM,Gym,"Assam Trunk Rd, Haibargaon, Nagaon, Assam 782002, India",https://www.google.co.kr/maps/place/YOUR+GYM/data=!4m5!3m4!1s0x374527711ad108af:0xad25988d2e246a1c!8m2!3d26.3495823!4d92.6796315?authuser=0&hl=en&rclk=1,26.3495823,92.6796315,Assam
Rahul Dutta Fitness,Gym,"7QV4+R3X, Ledo, Assam 786182, India",https://www.google.co.kr/maps/place/Rahul+Dutta+Fitness/data=!4m5!3m4!1s0x373ed9b8391bedf5:0x568ae2e65c05bd4f!8m2!3d27.2946111!4d95.7552427?authuser=0&hl=en&rclk=1,27.294611100000004,95.7552427,Assam
morigaon fitness centre(MFC),Gym,"793C+W8G, Ghasbari, Assam 782105, India",https://www.google.co.kr/maps/place/morigaon+fitness+centre(MFC)/data=!4m5!3m4!1s0x375ad19cda6cf293:0xec93dde1729a2032!8m2!3d26.254814!4d92.3708206?authuser=0&hl=en&rclk=1,26.254814,92.37082059999999,Assam
Health Land GYM (Unisex),Fitness center,"H/N -17, Pragati Path, Rupnagar, Guwahati, Assam 781007, India",https://www.google.co.kr/maps/place/Health+Land+GYM+(Unisex)/data=!4m5!3m4!1s0x375a5948cac21f81:0xee1d786d9fc078b2!8m2!3d26.1589904!4d91.7601569?authuser=0&hl=en&rclk=1,26.158990399999997,91.7601569,Assam
Body Fuel,Gym,"JB Rd, Mahabhairab, Tezpur, Assam 784001, India",https://www.google.co.kr/maps/place/Body+Fuel/data=!4m5!3m4!1s0x3744e84a16507bd3:0xdc84ce02e55a1d5a!8m2!3d26.6230755!4d92.7989924?authuser=0&hl=en&rclk=1,26.6230755,92.79899240000002,Assam
Fitness Yoga Centre,Yoga studio,"5QPR+GV3, Jyoti Nagar, Bamunimaidan, Guwahati, Assam 781021, India",https://www.google.co.kr/maps/place/Fitness+Yoga+Centre/data=!4m5!3m4!1s0x375a59b2da8e1c83:0xa3fe54b8af39f4b3!8m2!3d26.1862735!4d91.792177?authuser=0&hl=en&rclk=1,26.1862735,91.792177,Assam
Studio Crossfit,Gym,"Guwahati,, Manik Nagar, Guwahati, Assam 781006, India",https://www.google.co.kr/maps/place/Studio+Crossfit/data=!4m5!3m4!1s0x375a591a048420db:0x1441ebd19d0ed80b!8m2!3d26.1549161!4d91.7835643?authuser=0&hl=en&rclk=1,26.1549161,91.7835643,Assam
Six mile Real Builders Gym,Gymnasium Cz,"Above Central Bank of India, GS Road, near GNRC hospital, Six Mile, Guwahati, Assam 781002, India",https://www.google.co.kr/maps/place/Six+mile+Real+Builders+Gym/data=!4m5!3m4!1s0x375a5931a6097d8f:0x5e46a6e381bdccf7!8m2!3d26.1316519!4d91.8074129?authuser=0&hl=en&rclk=1,26.131651899999998,91.8074129,Assam
Aeroga fitness studio,Fitness center,"JB Rd, Nagaon, Assam 782001, India",https://www.google.co.kr/maps/place/Aeroga+fitness+studio/data=!4m5!3m4!1s0x37452761bfebf591:0x7849d7c525cdb65f!8m2!3d26.3611567!4d92.6881357?authuser=0&hl=en&rclk=1,26.3611567,92.6881357,Assam
"K2 GYM, Bezera",Gym,"Bezera, North Guwahati, Guwahati, Assam 781121, India","https://www.google.co.kr/maps/place/K2+GYM,+Bezera/data=!4m5!3m4!1s0x375a55cbc28ddb6d:0x18986791b9285a1d!8m2!3d26.3469343!4d91.7794214?authuser=0&hl=en&rclk=1",26.3469343,91.7794214,Assam
Mahabeer Gym,Gym,"NH215, Digboi, Assam 786171, India",https://www.google.co.kr/maps/place/Mahabeer+Gym/data=!4m5!3m4!1s0x373f234da512edc5:0xcf0d2c33cca3b257!8m2!3d27.3775802!4d95.6163908?authuser=0&hl=en&rclk=1,27.377580199999997,95.61639079999999,Assam
Fitness Palace- Raise the Iron,Gym,"HAZARIKA COMPLEX Lachit Bazar A.T, Assam Trunk Rd, Jorhat, Assam 785001, India",https://www.google.co.kr/maps/place/Fitness+Palace-+Raise+the+Iron/data=!4m5!3m4!1s0x3746c390eccd4bef:0x5a5e44d8317e5458!8m2!3d26.7603077!4d94.2104643?authuser=0&hl=en&rclk=1,26.7603077,94.2104643,Assam
Papu Gym,Gym,"Namdang Bahbari, Assam 786182, India",https://www.google.co.kr/maps/place/Papu+Gym/data=!4m5!3m4!1s0x373f279eac84c32d:0xe40b56919d45dd1e!8m2!3d27.2865596!4d95.7138005?authuser=0&hl=en&rclk=1,27.2865596,95.7138005,Assam
Jagiroad College Gym Centre,Gym,"4693+J3V, Natun Gaon, Jagiroad, Assam 782410, India",https://www.google.co.kr/maps/place/Jagiroad+College+Gym+Centre/data=!4m5!3m4!1s0x375ac1602069df43:0x7ac5ab30cf30e542!8m2!3d26.1191071!4d92.2026622?authuser=0&hl=en&rclk=1,26.1191071,92.20266219999999,Assam
Muscle & fitness Gym,Gym,"Na Ali, Barbheta, Jorhat, Assam 785001, India",https://www.google.co.kr/maps/place/Muscle+%26+fitness+Gym/data=!4m5!3m4!1s0x3746c37a27f20861:0x5fd85903ed1e0392!8m2!3d26.7452271!4d94.212876?authuser=0&hl=en&rclk=1,26.7452271,94.212876,Assam
ROCK the GYM,Fitness center,"Nagaon - Morigaon Rd, Nabheti, Niz Dandua, Assam 782104, India",https://www.google.co.kr/maps/place/ROCK+the+GYM/data=!4m5!3m4!1s0x375ad3d527893117:0x2672c4c9bd5fa884!8m2!3d26.2528853!4d92.336955?authuser=0&hl=en&rclk=1,26.2528853,92.336955,Assam
D.R. College Gymnasium,Gym,"GXFG+2WR, Golaghat, Assam 785621, India",https://www.google.co.kr/maps/place/D.R.+College+Gymnasium/data=!4m5!3m4!1s0x37468e6e1b69bd53:0xd83862c540c8300c!8m2!3d26.5226009!4d93.9772654?authuser=0&hl=en&rclk=1,26.522600899999997,93.97726540000001,Assam
S. D. Fitness Center,Gym,"Nirmal Chari Ali, Assam Trunk Rd, Jorhat, Assam 785001, India",https://www.google.co.kr/maps/place/S.+D.+Fitness+Center/data=!4m5!3m4!1s0x3746c3fcec2ab1b5:0xd45b0c0f63b65ed!8m2!3d26.7610446!4d94.2135026?authuser=0&hl=en&rclk=1,26.761044599999998,94.2135026,Assam
AMBITION GYM,Gym,"B. K. Boruah Road, Saha Patty Rd, Hojai, Assam 782435, India",https://www.google.co.kr/maps/place/AMBITION+GYM/data=!4m5!3m4!1s0x37456ba8b2972e41:0xdfca127ec961f300!8m2!3d26.0054103!4d92.8540225?authuser=0&hl=en&rclk=1,26.0054103,92.8540225,Assam
Fit7 By MS Dhoni,Gym,"KK Tower, 2nd Floor, GS Rd, near SB Deorah College Borah Service, Guwahati, Assam 781007, India",https://www.google.co.kr/maps/place/Fit7+By+MS+Dhoni/data=!4m5!3m4!1s0x375a59771380690d:0x32ae80fda6b26cd4!8m2!3d26.1684026!4d91.7650017?authuser=0&hl=en&rclk=1,26.1684026,91.7650017,Assam
APM,Fitness center,"AT Rd, Kotoki Pukhuri, Sonali Jayanti Nagar, Tarajan, Jorhat, Assam 785001, India",https://www.google.co.kr/maps/place/APM/data=!4m5!3m4!1s0x3746c294ee518ba1:0x10df2754d1c20032!8m2!3d26.751464!4d94.183564?authuser=0&hl=en&rclk=1,26.751464000000002,94.183564,Assam
F3 FITNESS,Gym,"main road upper airtel store and bandhan bank 4th floor, SURVEY BELTOLA,AG TOWER, Beltola - Basistha Rd, Chandan Nagar, Guwahati, Assam 781028, India",https://www.google.co.kr/maps/place/F3+FITNESS/data=!4m5!3m4!1s0x375a58d45fd02157:0xbda31b8822d337aa!8m2!3d26.1267473!4d91.7969051?authuser=0&hl=en&rclk=1,26.126747299999998,91.7969051,Assam
Power Factory,Gym,"4th floor, Crystal SR Plaza, Gar-Ali, Jorhat, Assam 785001, India",https://www.google.co.kr/maps/place/Power+Factory/data=!4m5!3m4!1s0x3746c3b1b1f7f287:0x65efb02a55152fb4!8m2!3d26.7566!4d94.2152864?authuser=0&hl=en&rclk=1,26.7566,94.21528640000001,Assam
RAISE THE BAR (A Unisex Fitness Centre),Gym,"Radha Gobinda Rd, near Masjid, near Tinali, Purnima Nagar, Digboi, Assam 786171, India",https://www.google.co.kr/maps/place/RAISE+THE+BAR+(A+Unisex+Fitness+Centre)/data=!4m5!3m4!1s0x373f23283c1b9379:0xe0354624339e5bf1!8m2!3d27.3974363!4d95.6226554?authuser=0&hl=en&rclk=1,27.397436300000003,95.6226554,Assam
RAW Fitness Gym,Gym,"Q5HX+383, Sarbaibondha, Jorhat, Assam 785001, India",https://www.google.co.kr/maps/place/RAW+Fitness+Gym/data=!4m5!3m4!1s0x3746c3335c7caf55:0xf8790f603b64db3b!8m2!3d26.7776444!4d94.1982998?authuser=0&hl=en&rclk=1,26.777644399999996,94.1982998,Assam
Fitness Planet,Gym,"Maniram Dewan Rd, Krishna Nagar, Silphukuri, Guwahati, Assam 781003, India",https://www.google.co.kr/maps/place/Fitness+Planet/data=!4m5!3m4!1s0x375a59901b5644df:0x1577b1fb44be6a80!8m2!3d26.1851458!4d91.7638049?authuser=0&hl=en&rclk=1,26.1851458,91.76380490000001,Assam
S&S fitness,Gym,"Assam Trunk Rd, Bhagamukh, Teok, Assam 785112, India",https://www.google.co.kr/maps/place/S%26S+fitness/data=!4m5!3m4!1s0x37472776504dc29f:0x1bc10bd21549db5e!8m2!3d26.8327663!4d94.4186911?authuser=0&hl=en&rclk=1,26.8327663,94.41869109999999,Assam
NXT GYM,Gym,"Bus Stop, NXT GYM, 9th Floor, ABC, GS Rd, Bhangagarh, Guwahati, Assam 781005, India",https://www.google.co.kr/maps/place/NXT+GYM/data=!4m5!3m4!1s0x375a59728a190e7b:0xb49d16228c8511a9!8m2!3d26.1616971!4d91.7709849?authuser=0&hl=en&rclk=1,26.1616971,91.7709849,Assam
Gymaholic Guwahati,Gym,"Gogoi Towers, Above Sony Centre, Silphukuri, Guwahati, Assam 781003, India",https://www.google.co.kr/maps/place/Gymaholic+Guwahati/data=!4m5!3m4!1s0x375a59f463969037:0x27ed46f0fb8a44fc!8m2!3d26.184831!4d91.758596?authuser=0&hl=en&rclk=1,26.184831,91.758596,Assam
devsangkor,Gym,"Unnamed Road, Bata Bari, Assam 782123, India",https://www.google.co.kr/maps/place/devsangkor/data=!4m5!3m4!1s0x3744d5f858f10b93:0xbcf628bed747ebc0!8m2!3d26.4083347!4d92.4834595?authuser=0&hl=en&rclk=1,26.4083347,92.4834595,Assam
Fitness 24*7 GYM,Gym,"C2MC+W72, Rajapam, Kowar Para, Assam 784529, India",https://www.google.co.kr/maps/place/Fitness+24*7+GYM/data=!4m5!3m4!1s0x375b1d0e9d416e17:0x3f1844449ff74b41!8m2!3d26.4347593!4d92.0206492?authuser=0&hl=en&rclk=1,26.4347593,92.02064920000001,Assam
VISION FITNESS,Gym,"College Rd, Islamsupa, Nalbari, Assam 781335, India",https://www.google.co.kr/maps/place/VISION+FITNESS/data=!4m5!3m4!1s0x375bcdf5202f1f99:0xe9aca5138cecea4c!8m2!3d26.4433274!4d91.4422965?authuser=0&hl=en&rclk=1,26.443327399999998,91.4422965,Assam
Body Building Centre,Gym,"Ghungoor, SMC. Road, Hailakandi Road, Silchar, Assam 788014, India",https://www.google.co.kr/maps/place/Body+Building+Centre/data=!4m5!3m4!1s0x374e49f43c9e9b41:0x418f8823b7215ab3!8m2!3d24.7792366!4d92.7936387?authuser=0&hl=en&rclk=1,24.7792366,92.7936387,Assam
Gym,Gym,"0, Bhetapara Hatigaon Rd, Bhetapara, Guwahati, Assam 781028, India",https://www.google.co.kr/maps/place/Gym/data=!4m5!3m4!1s0x375a5ed370ed9df9:0x600d81c1a15b51d2!8m2!3d26.1224689!4d91.7872677?authuser=0&hl=en&rclk=1,26.122468899999998,91.7872677,Assam
Fitness Gym,Gym,"4QR7+FRQ, Kalyani Nagar, Kahilipara, Guwahati, Assam 781019, India",https://www.google.co.kr/maps/place/Fitness+Gym/data=!4m5!3m4!1s0x375a59de02530e89:0x3b397c7d21ff7834!8m2!3d26.1412069!4d91.7646179?authuser=0&hl=en&rclk=1,26.1412069,91.7646179,Assam
Muscle Builder gym,Gym,"near police reserve, Barsarkuchi, Assam 781341, India",https://www.google.co.kr/maps/place/Muscle+Builder+gym/data=!4m5!3m4!1s0x375bcdbe93b17561:0xc3d1da112348faf8!8m2!3d26.4586928!4d91.4359474?authuser=0&hl=en&rclk=1,26.4586928,91.4359474,Assam
Mfit Gym,Fitness center,"Kahilipara Rd, opposite SBI Jatia Branch, Jatia, Kahilipara, Guwahati, Assam 781006, India",https://www.google.co.kr/maps/place/Mfit+Gym/data=!4m5!3m4!1s0x375a59a1e3568137:0xd5f272a209d45489!8m2!3d26.1440708!4d91.7810152?authuser=0&hl=en&rclk=1,26.1440708,91.7810152,Assam
Open Air Gym,Gym,"Fancy Bazaar, Guwahati, Assam 781030, India",https://www.google.co.kr/maps/place/Open+Air+Gym/data=!4m5!3m4!1s0x375a5b09f36e1a1f:0xc380e14432e40022!8m2!3d26.183569!4d91.7377677?authuser=0&hl=en&rclk=1,26.183569,91.7377677,Assam
BULL'S GYM,Gym,"RRR5+GXM, Malugram, Silchar, Assam 788002, India",https://www.google.co.kr/maps/place/BULL'S+GYM/data=!4m5!3m4!1s0x374e4bb14c863143:0x3f47b695228d1818!8m2!3d24.8413277!4d92.8099117?authuser=0&hl=en&rclk=1,24.8413277,92.80991170000001,Assam
Epicentre Body Studio,Gym,"AK Azad Rd, above Dominos, Rehabari, Guwahati, Assam 781008, India",https://www.google.co.kr/maps/place/Epicentre+Body+Studio/data=!4m5!3m4!1s0x375a5a2b6406a63f:0xf0dbc869bb11eb96!8m2!3d26.1746507!4d91.7495301?authuser=0&hl=en&rclk=1,26.174650699999997,91.7495301,Assam
Dynamic Gold GYM.,Gym,"Haibargaon, Daccapatty, Nagaon, Assam 782003, India",https://www.google.co.kr/maps/place/Dynamic+Gold+GYM./data=!4m5!3m4!1s0x374526d8f661ce77:0x13cddc0c7865e6ff!8m2!3d26.344883!4d92.68658?authuser=0&hl=en&rclk=1,26.344883000000003,92.68658,Assam
Bhaskar Transformation,Gym,"Zoo Road Tiniali, Zoo Tiniali, Guwahati, Assam 781024, India",https://www.google.co.kr/maps/place/Bhaskar+Transformation/data=!4m5!3m4!1s0x375a597ada9d96d3:0x59457e0b70f1e9b1!8m2!3d26.1745718!4d91.7775281?authuser=0&hl=en&rclk=1,26.1745718,91.7775281,Assam
"D. Fitness Gym Assam Guwahati, Basistha Chariali, Hamlata Market, 2nd Floor",Gym,"2nd Floor, Hemlata Market, Basistha Chariali, Guwahati, Assam 781029, India","https://www.google.co.kr/maps/place/D.+Fitness+Gym+Assam+Guwahati,+Basistha+Chariali,+Hamlata+Market,+2nd+Floor/data=!4m5!3m4!1s0x375a5fd90ff8760d:0x2a3c0c7cd74d502c!8m2!3d26.1125398!4d91.7975411?authuser=0&hl=en&rclk=1",26.1125398,91.79754109999999,Assam
Biofit Gym Ganeshguri,Gym,"Nayanpur Road, Swati Square, Ganeshguri, Guwahati, Assam 781005, India",https://www.google.co.kr/maps/place/Biofit+Gym+Ganeshguri/data=!4m5!3m4!1s0x375a5918f41539fb:0xce8ea8fe167a347c!8m2!3d26.1508388!4d91.7864434?authuser=0&hl=en&rclk=1,26.1508388,91.7864434,Assam
IRON FITNESS GYM,Gym,"Ganapati Nagar, Lal Ganesh, Guwahati, Assam 781032, India",https://www.google.co.kr/maps/place/IRON+FITNESS+GYM/data=!4m5!3m4!1s0x375a5be921892635:0x5cc8bf8982aca757!8m2!3d26.1445478!4d91.7413903?authuser=0&hl=en&rclk=1,26.1445478,91.74139029999999,Assam
Fitness Culture Unisex Gym,Gym,"VIP Airport Rd, Ganakpara, Guwahati, Assam 781015, India",https://www.google.co.kr/maps/place/Fitness+Culture+Unisex+Gym/data=!4m5!3m4!1s0x375a414aff835af9:0x16f2272acb72536e!8m2!3d26.1011844!4d91.5970979?authuser=0&hl=en&rclk=1,26.101184399999998,91.59709790000001,Assam
Galaxy Body Gym,Gym,"SH 3, Haibargaon, Nagaon, Assam 782002, India",https://www.google.co.kr/maps/place/Galaxy+Body+Gym/data=!4m5!3m4!1s0x3745271dc1fbbef5:0xc12f673622104078!8m2!3d26.3489288!4d92.6730984?authuser=0&hl=en&rclk=1,26.3489288,92.6730984,Assam
Gym Center,Gymnastics center,"XH89+VCG, Kalain, Assam 788815, India",https://www.google.co.kr/maps/place/Gym+Center/data=!4m5!3m4!1s0x374fd3da90dfd3ad:0x23bfa2b879889cab!8m2!3d24.9671809!4d92.5685682?authuser=0&hl=en&rclk=1,24.9671809,92.5685682,Assam
universal Gym,Gym,"Bongshar, Gopinath Nagar, Jonaknagar, Kahilipara, Guwahati, Assam 781034, India",https://www.google.co.kr/maps/place/universal+Gym/data=!4m5!3m4!1s0x375a5958dededf89:0xf8a3bd5d85f3c774!8m2!3d26.1418375!4d91.7561539?authuser=0&hl=en&rclk=1,26.1418375,91.75615390000002,Assam
Ramdhenu Fitness Studio and Gym,Gym,"Ramdhenu Fitness Gym, Maniari, Assam 781101, India",https://www.google.co.kr/maps/place/Ramdhenu+Fitness+Studio+and+Gym/data=!4m5!3m4!1s0x375a4fe6c60c76d5:0x774fcc1e5f787a63!8m2!3d26.2824119!4d91.6687073?authuser=0&hl=en&rclk=1,26.2824119,91.6687073,Assam
X-Pro Fitness Gym,Fitness center,"House No. 64, Rukmininagar, near Laxmi Mandir, Dispur, Rukmini Gaon, Guwahati, Assam 781006, India",https://www.google.co.kr/maps/place/X-Pro+Fitness+Gym/data=!4m5!3m4!1s0x375a58d0b09b9365:0x7134eb85d61a1ad4!8m2!3d26.13561!4d91.798299?authuser=0&hl=en&rclk=1,26.13561,91.798299,Assam
POWERHOUSE gym,Gym,"Rupanagar Rd, Birubari, Guwahati, Assam 781007, India",https://www.google.co.kr/maps/place/POWERHOUSE+gym/data=!4m5!3m4!1s0x375a596565d5f0a5:0x842d11b071804ed!8m2!3d26.1587145!4d91.7631532?authuser=0&hl=en&rclk=1,26.1587145,91.7631532,Assam
"Aesthetics ,gym & fitness centre",Gym,"Bilasipara Main Rd, Hatipota Pt.II, Assam 783348, India","https://www.google.co.kr/maps/place/Aesthetics+,gym+%26+fitness+centre/data=!4m5!3m4!1s0x3758677972bbce7f:0x1de5b90dacda8d85!8m2!3d26.2313009!4d90.2409309?authuser=0&hl=en&rclk=1",26.231300899999997,90.2409309,Assam
PERFECT FITNESS ZONE,Gym,"Nimati road, Bahona, Assam 785101, India",https://www.google.co.kr/maps/place/PERFECT+FITNESS+ZONE/data=!4m5!3m4!1s0x3746dd480d156329:0xbb49423a98edd39d!8m2!3d26.8099038!4d94.2410415?authuser=0&hl=en&rclk=1,26.8099038,94.24104150000001,Assam
BE STRONG GYM,Gym,"Masjid, Assam Trunk Rd, Adabari, Guwahati, Assam 781012, India",https://www.google.co.kr/maps/place/BE+STRONG+GYM/data=!4m5!3m4!1s0x375a5b03ffaf4efb:0x766556d27043af59!8m2!3d26.1578233!4d91.6777519?authuser=0&hl=en&rclk=1,26.1578233,91.6777519,Assam
Fitness Island Gym,Gym,"Geeta Nagar Rd, Forest Gate, Narengi Tinali, Guwahati, Assam 781171, India",https://www.google.co.kr/maps/place/Fitness+Island+Gym/data=!4m5!3m4!1s0x375a5879595ca31f:0x41ddf3c3a0007061!8m2!3d26.1786108!4d91.8272281?authuser=0&hl=en&rclk=1,26.1786108,91.8272281,Assam
"SFL GYM, ABC",Gym,"Dona Planet, G S Road Gayatri Plaza ABC, GS Rd, Opposite, Guwahati, Assam 781005, India","https://www.google.co.kr/maps/place/SFL+GYM,+ABC/data=!4m5!3m4!1s0x375a5972b21fc481:0xa7dc45d0c502dfb2!8m2!3d26.1613541!4d91.7729663?authuser=0&hl=en&rclk=1",26.161354100000004,91.7729663,Assam
Iron Kingdom Gym,Gym,"Nalapara, Sarusajai, Guwahati, Assam 781040, India",https://www.google.co.kr/maps/place/Iron+Kingdom+Gym/data=!4m5!3m4!1s0x375a5faa760ae925:0xeb9863d85dda8a93!8m2!3d26.111733!4d91.7628899?authuser=0&hl=en&rclk=1,26.111732999999997,91.7628899,Assam
Strength & Fitness GYM,Gym,"Jayanagar Chariali, Resham Nagar, Beltola Tiniali, Guwahati, Assam 781022, India",https://www.google.co.kr/maps/place/Strength+%26+Fitness+GYM/data=!4m5!3m4!1s0x375a5f336c59235b:0x3780e68b2d5a56d8!8m2!3d26.1222861!4d91.8060879?authuser=0&hl=en&rclk=1,26.1222861,91.80608790000001,Assam
Unit 6 Fitness Gym,Gym,"Zoo-Narengi Rd, B.L. Plaza, Zoo Tiniali, Guwahati, Assam 781021, India",https://www.google.co.kr/maps/place/Unit+6+Fitness+Gym/data=!4m5!3m4!1s0x375a5912a6e5aa67:0xae344bba00e04eb4!8m2!3d26.1749821!4d91.7768897?authuser=0&hl=en&rclk=1,26.1749821,91.7768897,Assam
SSK Gym,Fitness center,"Lakhimi Path, Nandanpur Path, Beltola Tiniali, Guwahati, Assam 781028, India",https://www.google.co.kr/maps/place/SSK+Gym/data=!4m5!3m4!1s0x375a5f2ca9f4eb2d:0x7079f4f3e8e7e1!8m2!3d26.1243282!4d91.7977582?authuser=0&hl=en&rclk=1,26.1243282,91.7977582,Assam
Madhurjya Hazarika,Gym,"Unnamed Road, Ghiladhari Mukh, Assam 784175, India",https://www.google.co.kr/maps/place/Madhurjya+Hazarika/data=!4m5!3m4!1s0x3744f5a56d2d9847:0x6f84e9cd914318cb!8m2!3d26.7292267!4d93.0290033?authuser=0&hl=en&rclk=1,26.729226699999998,93.0290033,Assam
BS FITNESS,Gym,"Zoo- tianali, Zoo-Narengi Rd, Hatigarh Chariali, Geetanagar, Guwahati, Assam 781021, India",https://www.google.co.kr/maps/place/BS+FITNESS/data=!4m5!3m4!1s0x375a598fa860f955:0x45a6290f4aa67745!8m2!3d26.1727572!4d91.7844588?authuser=0&hl=en&rclk=1,26.1727572,91.7844588,Assam
Fitness Freaks,Fitness center,"KRB Rd, near post office, Bharalumukh, Guwahati, Assam 781009, India",https://www.google.co.kr/maps/place/Fitness+Freaks/data=!4m5!3m4!1s0x375a5a4b249e0c37:0x577091dda017863f!8m2!3d26.1715308!4d91.7327818?authuser=0&hl=en&rclk=1,26.171530800000003,91.7327818,Assam
Delight Fitness,Gym,"Kalpabhatta Chowk, Nepali Chowk, 20, Noonmati, Guwahati, Assam 781020, India",https://www.google.co.kr/maps/place/Delight+Fitness/data=!4m5!3m4!1s0x375a58493bd54bc9:0xa51db9e84148c890!8m2!3d26.1906487!4d91.7993629?authuser=0&hl=en&rclk=1,26.1906487,91.7993629,Assam
Saraighat Gym,Gym,"Assam Trunk Rd, Nursery, Guwahati, Assam 781009, India",https://www.google.co.kr/maps/place/Saraighat+Gym/data=!4m5!3m4!1s0x375a5b07c090e519:0xb49e87100e2cef5!8m2!3d26.1623818!4d91.7131336?authuser=0&hl=en&rclk=1,26.1623818,91.71313359999999,Assam
PFC Fitness & Health Care Centre (GYM),Gym,"Zoo Road, Sendurali Path, Junali, Guwahati, Assam 781024, India",https://www.google.co.kr/maps/place/PFC+Fitness+%26+Health+Care+Centre+(GYM)/data=!4m5!3m4!1s0x375a5909460c1a67:0x5bec9ef0bf284811!8m2!3d26.1671476!4d91.7788392?authuser=0&hl=en&rclk=1,26.167147600000003,91.7788392,Assam
BS Fitness/ Gymnasium,Fitness center,"Vrindavan Complex Near Karnataka Bank, House Fed Bus Stop ,Dispur, Last Gate, Guwahati, Assam 781006, India",https://www.google.co.kr/maps/place/BS+Fitness%2F+Gymnasium/data=!4m5!3m4!1s0x375a59280bff7e09:0xabbdd102e916b56a!8m2!3d26.136306!4d91.791916?authuser=0&hl=en&rclk=1,26.136306,91.791916,Assam
Fitness Mania Gym,Gym,"5Q2H+76W, Lichubagan, Hengrabari, Guwahati, Assam 781036, India",https://www.google.co.kr/maps/place/Fitness+Mania+Gym/data=!4m5!3m4!1s0x375a58e709028879:0x8aeb42dddc81c5dc!8m2!3d26.1507315!4d91.778067?authuser=0&hl=en&rclk=1,26.1507315,91.77806700000001,Assam
THE MESOMORPH Unisex GYM,Gym,"railway station, Narngi, Guwahati, Assam 781026, India",https://www.google.co.kr/maps/place/THE+MESOMORPH+Unisex+GYM/data=!4m5!3m4!1s0x375af7fbc93ec923:0x2ebdf967566cb2a3!8m2!3d26.1816143!4d91.83447?authuser=0&hl=en&rclk=1,26.1816143,91.83447,Assam
The Imperium Gym,Gym,"Taxi Ali, Jengonikatia, Sivasagar, Assam 785640, India",https://www.google.co.kr/maps/place/The+Imperium+Gym/data=!4m5!3m4!1s0x374731d3f54d2c31:0x43c2d1d7c47b836a!8m2!3d26.9956138!4d94.6200842?authuser=0&hl=en&rclk=1,26.995613800000005,94.62008420000001,Assam
The Iron Gym,Gym,"Jajori, Jajari, Assam 782413, India",https://www.google.co.kr/maps/place/The+Iron+Gym/data=!4m5!3m4!1s0x3745293bf892eb6f:0x1b6921b2464b08a!8m2!3d26.3197414!4d92.564798?authuser=0&hl=en&rclk=1,26.319741399999998,92.564798,Assam
Body Tech Gym,Gym,"Tezpur, Kacharigaon, Kamarchuburi, Tezpur, Assam 784001, India",https://www.google.co.kr/maps/place/Body+Tech+Gym/data=!4m5!3m4!1s0x3744e832d7f5d77d:0x930cd641a7fc76a7!8m2!3d26.6273633!4d92.7903711?authuser=0&hl=en&rclk=1,26.627363300000003,92.79037109999999,Assam
Tiens Nagaon Office,Gym,"Amolapatty Natya Mandir, Nagaon, Assam, India",https://www.google.co.kr/maps/place/Tiens+Nagaon+Office/data=!4m5!3m4!1s0x3745272e23ba725b:0x34f78f29d39a2462!8m2!3d26.3583096!4d92.691978?authuser=0&hl=en&rclk=1,26.358309600000002,92.691978,Assam
FIT 7 GYM & fitness centre,Gym,"Lachit Nagar, Guwahati, Assam 781007, India",https://www.google.co.kr/maps/place/FIT+7+GYM+%26+fitness+centre/data=!4m5!3m4!1s0x375a59859c0c6bd5:0x1b902bc4994841b2!8m2!3d26.1685079!4d91.7650261?authuser=0&hl=en&rclk=1,26.168507899999998,91.7650261,Assam
Flexy Gym,Gym,"Rajgarh Rd, Bihutoli, Lachit Nagar, Guwahati, Assam 781003, India",https://www.google.co.kr/maps/place/Flexy+Gym/data=!4m5!3m4!1s0x375a59757860c777:0x1361b1943fcaeb40!8m2!3d26.1717868!4d91.7709903?authuser=0&hl=en&rclk=1,26.171786800000003,91.7709903,Assam
Aryans,Gym,"4P2R+4XR, Sonaighuli, Guwahati, Assam 781029, India",https://www.google.co.kr/maps/place/Aryans/data=!4m5!3m4!1s0x375a5d228570aa3f:0x8a3c37b699719ce!8m2!3d26.1003678!4d91.7423828?authuser=0&hl=en&rclk=1,26.1003678,91.7423828,Assam
Pk Fitness factory,Gym,"Lal Ganesh, Lokhra Rd, Barsapara, Guwahati, Assam 781034, India",https://www.google.co.kr/maps/place/Pk+Fitness+factory/data=!4m5!3m4!1s0x375a5bbf9fcf6939:0xa0b43a9024e9d798!8m2!3d26.1418892!4d91.7415661?authuser=0&hl=en&rclk=1,26.141889199999998,91.7415661,Assam
Shape up fitness,Gym,"SH 2, Amingaon, Guwahati, Assam 781039, India",https://www.google.co.kr/maps/place/Shape+up+fitness/data=!4m5!3m4!1s0x375a452458dc50b9:0xcb2963845ba6d913!8m2!3d26.1846605!4d91.6671106?authuser=0&hl=en&rclk=1,26.1846605,91.66711059999999,Assam
FITNESS PEOPLE,Gym,"Kahikuchi Rd, VIP Chowk, Ganakpara, Guwahati, Assam 781017, India",https://www.google.co.kr/maps/place/FITNESS+PEOPLE/data=!4m5!3m4!1s0x375a43df84a9b47f:0x7eb6d7062e03057b!8m2!3d26.1009125!4d91.5989744?authuser=0&hl=en&rclk=1,26.1009125,91.5989744,Assam
BIOFIT SHANTIPUR,Gym,"1st Floor, Opus Pinnacle, Above TI Ford Showroom, Opposite Sonaram Field, Bharalumukh, Guwahati, Assam 781009, India",https://www.google.co.kr/maps/place/BIOFIT+SHANTIPUR/data=!4m5!3m4!1s0x375a5b86ec85727d:0x1d8252465b7b289d!8m2!3d26.174057!4d91.733422?authuser=0&hl=en&rclk=1,26.174057,91.73342199999999,Assam
IB Fitness Center,Gym,"near BVFCL Guest House, Sector D, Namrup, Assam 786623, India",https://www.google.co.kr/maps/place/IB+Fitness+Center/data=!4m5!3m4!1s0x373f4974404cc603:0x39cc6ad69af00b0!8m2!3d27.1851806!4d95.3476959?authuser=0&hl=en&rclk=1,27.185180600000002,95.3476959,Assam
Health Land Gym,Gym,"17, Pragati Path, Birubari, Guwahati, Assam 781007, India",https://www.google.co.kr/maps/place/Health+Land+Gym/data=!4m5!3m4!1s0x375a5be57e935845:0x6816ee3056385ca7!8m2!3d26.1399274!4d91.7443728?authuser=0&hl=en&rclk=1,26.139927399999998,91.7443728,Assam
TITAN GYM,Gym,"Dangoria ali, Kopora Dhora Gaon, Assam 785700, India",https://www.google.co.kr/maps/place/TITAN+GYM/data=!4m5!3m4!1s0x3746dc364a110643:0xa38d6100cc5a81c!8m2!3d26.7819148!4d94.2974547?authuser=0&hl=en&rclk=1,26.7819148,94.2974547,Assam
FITNESS ZONE,Fitness center,"Tamulbari Field, Near, Assam Trunk Rd, Tinsukia, Assam 786125, India",https://www.google.co.kr/maps/place/FITNESS+ZONE/data=!4m5!3m4!1s0x373f6a5654fb6a7d:0x49d9b565985aa2c0!8m2!3d27.4853497!4d95.3496602?authuser=0&hl=en&rclk=1,27.485349699999997,95.3496602,Assam
Super Flex Gym,Gym,"5Q6J+W52, Borah Market, Sree Nagar, Guwahati, Assam 781006, India",https://www.google.co.kr/maps/place/Super+Flex+Gym/data=!4m5!3m4!1s0x375a590e4bf918c9:0x9ef8d07f6fd624de!8m2!3d26.1622746!4d91.7803816?authuser=0&hl=en&rclk=1,26.1622746,91.7803816,Assam
Saim fitness,Gym,"opposite Hanuman Mandir, South Sarania, Lachit Nagar, Guwahati, Assam 781007, India",https://www.google.co.kr/maps/place/Saim+fitness/data=!4m5!3m4!1s0x375a59134357400b:0xa08d31ae424fff6!8m2!3d26.1716807!4d91.7606045?authuser=0&hl=en&rclk=1,26.1716807,91.7606045,Assam
Jharobari Multi Gym,Gym,"Jharobari Block Rd, Jharobari, Parakuchi, Assam 781125, India",https://www.google.co.kr/maps/place/Jharobari+Multi+Gym/data=!4m5!3m4!1s0x375a3fb9403ec9cd:0xd17882b5c058db22!8m2!3d26.0618719!4d91.4955139?authuser=0&hl=en&rclk=1,26.0618719,91.4955139,Assam
HUMAN SHIELD MMA AND FITNESS GYM,Gym,":, near I.T.I College, Bhehpara, Dhemaji, Assam 787057, India",https://www.google.co.kr/maps/place/HUMAN+SHIELD+MMA+AND+FITNESS+GYM/data=!4m5!3m4!1s0x3740c39049b641df:0x4d13c2aaba79fa3a!8m2!3d27.4720688!4d94.5650217?authuser=0&hl=en&rclk=1,27.472068800000002,94.5650217,Assam
MR BODY SOLUTION,Gym,"Bhati Para, Saualkuchi, Assam 781103, India",https://www.google.co.kr/maps/place/MR+BODY+SOLUTION/data=!4m5!3m4!1s0x375a46fba6c2539b:0x26cf5be91a527114!8m2!3d26.1661358!4d91.5660842?authuser=0&hl=en&rclk=1,26.1661358,91.5660842,Assam
ITKHOLA GYM,Gym,"QXX9+WV8, Itakhola, Assam 784182, India",https://www.google.co.kr/maps/place/ITKHOLA+GYM/data=!4m5!3m4!1s0x37448d1bd03b44c3:0x7e06a875852c7f77!8m2!3d26.7997958!4d92.96971?authuser=0&hl=en&rclk=1,26.7997958,92.96970999999999,Assam
Aerofit GYM,Gym,"Goalpara - Guwahati Rd, Azara, Guwahati, Assam 781017, India",https://www.google.co.kr/maps/place/Aerofit+GYM/data=!4m5!3m4!1s0x375a45d7ba79ed01:0x608d6c58d10a85ee!8m2!3d26.1311703!4d91.6223985?authuser=0&hl=en&rclk=1,26.1311703,91.6223985,Assam
Bhabajeet Choudhury : Train With Bhabajeet,Fitness center,"Sundarpur, RG Baruah Road DD Complex 2, Second Floor, Guwahati, Assam 781006, India",https://www.google.co.kr/maps/place/Bhabajeet+Choudhury+:+Train+With+Bhabajeet/data=!4m5!3m4!1s0x375a598f9c6bbeb1:0xbc9925bdbe3b0979!8m2!3d26.1610333!4d91.7810805?authuser=0&hl=en&rclk=1,26.1610333,91.7810805,Assam
Dadu's Fitness Studio,Gym,"Ttiloi Bari, Dibrugarh, Assam 786001, India",https://www.google.co.kr/maps/place/Dadu's+Fitness+Studio/data=!4m5!3m4!1s0x37409873333ee637:0xce957254a1c5df44!8m2!3d27.4708608!4d94.9142109?authuser=0&hl=en&rclk=1,27.4708608,94.9142109,Assam
Bodybuilding,Gym,"Tiwa Path, Birkuchi, Narengi Tinali, Guwahati, Assam 781026, India",https://www.google.co.kr/maps/place/Bodybuilding/data=!4m5!3m4!1s0x375af72cb3c2627b:0x9cd521f847fcf8b0!8m2!3d26.1862839!4d91.8502248?authuser=0&hl=en&rclk=1,26.1862839,91.8502248,Assam
Renuka Health Care Gym,Gym,"CCRP+6JX, Khat, Nalbari, Assam 781335, India",https://www.google.co.kr/maps/place/Renuka+Health+Care+Gym/data=!4m5!3m4!1s0x375bcc9973d8b61d:0x6bc1af67bf666a1c!8m2!3d26.4406011!4d91.4366183?authuser=0&hl=en&rclk=1,26.4406011,91.43661829999999,Assam
Fit Up Fitness Center,Gym,"4PXH+G9Q, Dhirenpara, Guwahati, Assam 781009, India",https://www.google.co.kr/maps/place/Fit+Up+Fitness+Center/data=!4m5!3m4!1s0x375a5b9618d7c253:0xf777845534630130!8m2!3d26.14885!4d91.728483?authuser=0&hl=en&rclk=1,26.14885,91.728483,Assam
The Iron City Gym-silchar,Gym,"RR96+6P7, Chamragudam, Madhurbond, Uttar Krishnapur Pt II, Assam 788001, India",https://www.google.co.kr/maps/place/The+Iron+City+Gym-silchar/data=!4m5!3m4!1s0x374e4b11ccf3447b:0xb6fefb49f68c8c24!8m2!3d24.8180364!4d92.8118066?authuser=0&hl=en&rclk=1,24.818036399999997,92.8118066,Assam
Tularam Fitness Centre,Gym,"Lake, near HANGING BRIDGE, Halflong East, Haflong, Assam 788819, India",https://www.google.co.kr/maps/place/Tularam+Fitness+Centre/data=!4m5!3m4!1s0x374fa3f440ca5161:0x8897b7e4428adb24!8m2!3d25.1657523!4d93.0162258?authuser=0&hl=en&rclk=1,25.1657523,93.01622579999999,Assam
Deh Vikash The Gym,Gym,"Junaki path, Rupai Siding, Assam 786153, India",https://www.google.co.kr/maps/place/Deh+Vikash+The+Gym/data=!4m5!3m4!1s0x373f11ed84fe46a3:0x97d45f4c2e11a666!8m2!3d27.6018066!4d95.5563573?authuser=0&hl=en&rclk=1,27.6018066,95.5563573,Assam
BRAHMAPUTRA GYM,Gym,"Madrasa Sodilapur Rd, Gopinath Bordoloi Nagar, Jalukbari, Guwahati, Assam 781014, India",https://www.google.co.kr/maps/place/BRAHMAPUTRA+GYM/data=!4m5!3m4!1s0x375a45a7570f7343:0x69497f1ec534ba22!8m2!3d26.16928!4d91.667981?authuser=0&hl=en&rclk=1,26.16928,91.66798100000001,Assam
PRO FIT,Gym,"1st floor, BB Complex, Basistha Rd, Bakarapara, Guwahati, Assam 781029, India",https://www.google.co.kr/maps/place/PRO+FIT/data=!4m5!3m4!1s0x375a5facd6531b1b:0x5a12247a7bcac22c!8m2!3d26.1082262!4d91.7996163?authuser=0&hl=en&rclk=1,26.108226199999997,91.7996163,Assam
DEEP FITNESS STUDIO,Gym,"Pakiza Samsun Plaza, Maniram Dewan Rd, Bamunimaidan, Guwahati, Assam 781021, India",https://www.google.co.kr/maps/place/DEEP+FITNESS+STUDIO/data=!4m5!3m4!1s0x375a59547994c733:0x6b672294f0625093!8m2!3d26.1833763!4d91.7800911?authuser=0&hl=en&rclk=1,26.1833763,91.78009109999999,Assam
Bhagabatipara Gym,Gym,"Assam 781122, India",https://www.google.co.kr/maps/place/Bhagabatipara+Gym/data=!4m5!3m4!1s0x375a3efe744501fd:0x40352628da49d5f4!8m2!3d26.0867612!4d91.4807162?authuser=0&hl=en&rclk=1,26.086761199999998,91.4807162,Assam
Pace Aerobics,Gym,"4, By Lane Number 2, Tarun Nagar, Guwahati, Assam 781006, India",https://www.google.co.kr/maps/place/Pace+Aerobics/data=!4m5!3m4!1s0x375a5972d1b97103:0xd4cb032b56e0155a!8m2!3d26.1628598!4d91.7729493?authuser=0&hl=en&rclk=1,26.1628598,91.77294930000001,Assam
Udit Gym,Gym,"Mirza, Maliata, Assam 781125, India",https://www.google.co.kr/maps/place/Udit+Gym/data=!4m5!3m4!1s0x375a408fe7cc1d6f:0xa5610544d68ca661!8m2!3d26.0917287!4d91.5316245?authuser=0&hl=en&rclk=1,26.091728699999997,91.5316245,Assam
GROUP FITNESS,Fitness center,"VIP Ln, Tarun Nagar, Guwahati, Assam 781001, India",https://www.google.co.kr/maps/place/GROUP+FITNESS/data=!4m5!3m4!1s0x375a597af4e17805:0x256f3577fcf79f51!8m2!3d26.1629443!4d91.7758362?authuser=0&hl=en&rclk=1,26.1629443,91.77583620000001,Assam
Universal Iron Unisex Fitness Centre,Gym,"Kalapahar, Cycle Factory Tiniali, Guwahati, Assam 781016, India",https://www.google.co.kr/maps/place/Universal+Iron+Unisex+Fitness+Centre/data=!4m5!3m4!1s0x375a5bc59880f871:0x216a9a42d291c788!8m2!3d26.1594531!4d91.7412656?authuser=0&hl=en&rclk=1,26.1594531,91.74126559999999,Assam
ELITE GYM,Gym,"Station Rd, Karimganj, Assam 788710, India",https://www.google.co.kr/maps/place/ELITE+GYM/data=!4m5!3m4!1s0x3751d343ef9732bb:0x67248088154a33a5!8m2!3d24.8668585!4d92.367227?authuser=0&hl=en&rclk=1,24.8668585,92.367227,Assam
SARAIGHAT GYM,Gym,"Assam forest School, Assam 782441, India",https://www.google.co.kr/maps/place/SARAIGHAT+GYM/data=!4m5!3m4!1s0x3745114ca2ddbb49:0x9f5f87b37927effd!8m2!3d26.2006042!4d92.9375738?authuser=0&hl=en&rclk=1,26.200604199999997,92.9375738,Assam
L R FITNESS,Gym,"4QQ3+RC9, Odalbakra, Kahilipara, Guwahati, Assam 781034, India",https://www.google.co.kr/maps/place/L+R+FITNESS/data=!4m5!3m4!1s0x375a5b59379cc569:0xfc10fcb2a7baeef3!8m2!3d26.1395418!4d91.7536234?authuser=0&hl=en&rclk=1,26.1395418,91.75362340000001,Assam
HEALTH GYM,Gym,"B-11/2, Jagiroad, Assam 782413, India",https://www.google.co.kr/maps/place/HEALTH+GYM/data=!4m5!3m4!1s0x375ac41c7db7ff0d:0xab752011b7b212da!8m2!3d26.1242379!4d92.2363495?authuser=0&hl=en&rclk=1,26.124237899999997,92.2363495,Assam
LIVESTRONG FITNESS WORLD UNISEX GYM,Gym,"Radha nagar path, Village, Radha Nagar, Borbari, Guwahati, Assam 781023, India",https://www.google.co.kr/maps/place/LIVESTRONG+FITNESS+WORLD+UNISEX+GYM/data=!4m5!3m4!1s0x375a58be945ca989:0xc2a7ddd32cbed6ec!8m2!3d26.14401!4d91.8161774?authuser=0&hl=en&rclk=1,26.14401,91.81617740000002,Assam
Evolution Gym,Gym,"Digholi Pukhuri East, Dighalipukhuri, Guwahati, Assam 781001, India",https://www.google.co.kr/maps/place/Evolution+Gym/data=!4m5!3m4!1s0x375a5a27edf04847:0xd442d9fdc0f3b9c6!8m2!3d26.185543!4d91.7532944?authuser=0&hl=en&rclk=1,26.185543,91.7532944,Assam
Optimum Fitness,Gym,"GNB Rd, Dhanua Nagar, Tezpur, Assam 784001, India",https://www.google.co.kr/maps/place/Optimum+Fitness/data=!4m5!3m4!1s0x3744e9b7722deee5:0x834a610396e34831!8m2!3d26.6448004!4d92.7985968?authuser=0&hl=en&rclk=1,26.644800399999994,92.7985968,Assam
Attitude Unisex Parlour,Gym,"4th floor, Oasis Building, Dr. B Borooah Road, opposite Landmark Hotel, Guwahati, Assam, India",https://www.google.co.kr/maps/place/Attitude+Unisex+Parlour/data=!4m5!3m4!1s0x375a5beb6d879e0f:0x9bfcae05e846856f!8m2!3d26.1445169!4d91.7362364?authuser=0&hl=en&rclk=1,26.1445169,91.73623640000001,Assam
Marshall Gym,Gym,"House No 10, Arunodoi Path, Christian Basti, Guwahati, Assam 781005, India",https://www.google.co.kr/maps/place/Marshall+Gym/data=!4m5!3m4!1s0x375a5912dfe6d04d:0xf49ea70dce17245!8m2!3d26.1556556!4d91.7769883?authuser=0&hl=en&rclk=1,26.155655600000003,91.77698829999999,Assam
Fitness Centre,Gym,"NH 15, Singimari Kuch Gaon, Assam 784112, India",https://www.google.co.kr/maps/place/Fitness+Centre/data=!4m5!3m4!1s0x375b35a7dd898d89:0xce67469598525fe3!8m2!3d26.6978526!4d92.3925948?authuser=0&hl=en&rclk=1,26.6978526,92.3925948,Assam
Maa Fitness GYM,Fitness center,"C4FX+PVH, Kawaimarikaragari Reserve, Assam 781352, India",https://www.google.co.kr/maps/place/Maa+Fitness+GYM/data=!4m5!3m4!1s0x37597fe7093ee7e7:0x2de68bb36f3c0cda!8m2!3d26.4243115!4d91.1497319?authuser=0&hl=en&rclk=1,26.424311499999998,91.1497319,Assam
MAX FITNESS UNISEX GYM,Gym,"RNB Rd, opposite Ruchika Restaurant, Bagansali, Tengapara, Kokrajhar, Assam 783370, India",https://www.google.co.kr/maps/place/MAX+FITNESS+UNISEX+GYM/data=!4m5!3m4!1s0x375861ca1be8cc71:0x25448578ab26255f!8m2!3d26.4004069!4d90.2748543?authuser=0&hl=en&rclk=1,26.400406899999997,90.2748543,Assam
Gym Holic,Gym,"2, Assam Trunk Rd, Adabari Tiniali, Adabari, Guwahati, Assam 781012, India",https://www.google.co.kr/maps/place/Gym+Holic/data=!4m5!3m4!1s0x375a5b308802a863:0x3f4d3aa2b71f19d0!8m2!3d26.1586466!4d91.6842838?authuser=0&hl=en&rclk=1,26.1586466,91.6842838,Assam
Perfect Fitness,Gym,"Maniram Dewan Rd, Bamunimaidan, Guwahati, Assam 781003, India",https://www.google.co.kr/maps/place/Perfect+Fitness/data=!4m5!3m4!1s0x375a59c2ac714e1d:0x8c08e142c7dcafef!8m2!3d26.1832335!4d91.7828536?authuser=0&hl=en&rclk=1,26.1832335,91.7828536,Assam
Bordoua soruhisha,Gym,"8MWM+GJV, Haibargaon, Daccapatty, Nagaon, Assam 782003, India",https://www.google.co.kr/maps/place/Bordoua+soruhisha/data=!4m5!3m4!1s0x374526d8b01a1a4b:0xb443a6936d1c55b0!8m2!3d26.3463713!4d92.6840426?authuser=0&hl=en&rclk=1,26.346371299999998,92.6840426,Assam
GymX Fitness Studio Bihpuria,Gym,"Bihpuria ward no 2 Near North East Small Finance Bank, near North East Small Finance Bank, Bihpuria, Assam 784161, India",https://www.google.co.kr/maps/place/GymX+Fitness+Studio+Bihpuria/data=!4m5!3m4!1s0x3746b1573b2aa8ff:0x39b9b17299a12de4!8m2!3d27.0202797!4d93.9189343?authuser=0&hl=en&rclk=1,27.020279700000003,93.9189343,Assam
THE FIT HUB,Gym,"Basanaghat, Forest Gate, Aujari Pathar, Assam 782105, India",https://www.google.co.kr/maps/place/THE+FIT+HUB/data=!4m5!3m4!1s0x375ad168728853ed:0xc4d24afebd34b11!8m2!3d26.2426936!4d92.3085776?authuser=0&hl=en&rclk=1,26.2426936,92.30857759999999,Assam
Glorious Gym,Gym,"DRDA Rd, Mangaldoi, Assam 784125, India",https://www.google.co.kr/maps/place/Glorious+Gym/data=!4m5!3m4!1s0x375b1dbd2506f6c7:0x90b963d2605845c4!8m2!3d26.431068!4d92.0287284?authuser=0&hl=en&rclk=1,26.431068,92.0287284,Assam
Aero fitness,Gym,"Mahapurush Madhabdev Path, Bormotoria, Guwahati, Assam 781036, India",https://www.google.co.kr/maps/place/Aero+fitness/data=!4m5!3m4!1s0x375a590062b1355f:0x1b06b065fae7bd04!8m2!3d26.1414211!4d91.8117107?authuser=0&hl=en&rclk=1,26.141421100000002,91.8117107,Assam
Morigaon H S Feild,Gym,"Bakarigaon, Assam 782105, India",https://www.google.co.kr/maps/place/Morigaon+H+S+Feild/data=!4m5!3m4!1s0x375ad1aae57299bb:0xa2533d53afc9ffcd!8m2!3d26.2563806!4d92.343619?authuser=0&hl=en&rclk=1,26.256380600000004,92.34361899999999,Assam
Ssweat Gym Silchar / Ssweat Fitness Centre/ Best Gym/ Top Gym/Gym Near Me In Silchar,Gym,"House No.1, Lane, No. 29, Vivekananda Rd, opposite Sreema Bibah Bhawan, Silchar, Assam 788007, India",https://www.google.co.kr/maps/place/Ssweat+Gym+Silchar+%2F+Ssweat+Fitness+Centre%2F+Best+Gym%2F+Top+Gym%2FGym+Near+Me+In+Silchar/data=!4m5!3m4!1s0x374e4a700d2e9677:0x3443a88893cb33cd!8m2!3d24.8184366!4d92.7864666?authuser=0&hl=en&rclk=1,24.818436600000002,92.7864666,Assam
Dolphin Gym,Gym,"Kaliani Pathar, Assam 785101, India",https://www.google.co.kr/maps/place/Dolphin+Gym/data=!4m5!3m4!1s0x3746c3745737af03:0xf688dce5dda8d305!8m2!3d26.8156118!4d94.2177807?authuser=0&hl=en&rclk=1,26.815611800000003,94.2177807,Assam
Police Reserve GYM,Gym,"JRF4+PJJ, Mahabhairab, Tezpur, Assam 784001, India",https://www.google.co.kr/maps/place/Police+Reserve+GYM/data=!4m5!3m4!1s0x3744e93903ce4f63:0x9fe647ca815111df!8m2!3d26.6243277!4d92.8065294?authuser=0&hl=en&rclk=1,26.6243277,92.80652940000002,Assam
Glorious Gym & Fitness Centre,Gym,"Bus Stand, Ward No 9 Bhebarghat Near, Mangaldoi, Assam 784125, India",https://www.google.co.kr/maps/place/Glorious+Gym+%26+Fitness+Centre/data=!4m5!3m4!1s0x375b1dc47f473995:0x65d97d1c61a82ee5!8m2!3d26.4350487!4d92.0232563?authuser=0&hl=en&rclk=1,26.435048699999996,92.0232563,Assam
Pankhuri House,Gym,"9M7H+CF5, Ranga Gara Huzz, Assam 782002, India",https://www.google.co.kr/maps/place/Pankhuri+House/data=!4m5!3m4!1s0x374527f6c9c060ed:0x1935dfd32215fef!8m2!3d26.363523!4d92.678745?authuser=0&hl=en&rclk=1,26.363522999999997,92.67874499999999,Assam
Fitness Zone,Gym,"2no, Kiran Nagar, phool bari, Silapathar, Moranhat Town, Assam 787058, India",https://www.google.co.kr/maps/place/Fitness+Zone/data=!4m5!3m4!1s0x3740adbd21d54905:0x21fdb80615d1b88d!8m2!3d27.1684345!4d94.8974106?authuser=0&hl=en&rclk=1,27.168434499999996,94.89741059999999,Assam
NK Universe Gym,Gym,"5M6P+2WF, Pandav Nagar, Pandu, Guwahati, Assam 781012, India",https://www.google.co.kr/maps/place/NK+Universe+Gym/data=!4m5!3m4!1s0x375a5b3ac1dbd6af:0x8915d930512c92f5!8m2!3d26.1600577!4d91.6872945?authuser=0&hl=en&rclk=1,26.1600577,91.6872945,Assam
Bodybuilding,Gym,"Tiwa path, Dayal Nagar, Birkuchi, Narengi Tinali, Guwahati, Assam 781026, India",https://www.google.co.kr/maps/place/Bodybuilding/data=!4m5!3m4!1s0x375af72ce2024233:0xaece6acc733afbb5!8m2!3d26.1868865!4d91.8521582?authuser=0&hl=en&rclk=1,26.1868865,91.8521582,Assam
Rough Fitness Gym,Gym,"Q648+5J7, Gar-Ali, Jorhat, Assam 785001, India",https://www.google.co.kr/maps/place/Rough+Fitness+Gym/data=!4m5!3m4!1s0x3746c2bf18a22f53:0x263eb8094f6e482b!8m2!3d26.7554005!4d94.2165432?authuser=0&hl=en&rclk=1,26.7554005,94.2165432,Assam
Fitness Station,Fitness center,"Ambikagiri nagar path, Guwahati, Assam 781024, India",https://www.google.co.kr/maps/place/Fitness+Station/data=!4m5!3m4!1s0x375a59a827335ac1:0xb25585dc7b0c6249!8m2!3d26.172248!4d91.784809?authuser=0&hl=en&rclk=1,26.172248,91.784809,Assam
U FIT GYM,Fitness center,"Chandan Nagar ,survey, opposite - chandaan nagar namghar, Beltola Tiniali, Guwahati, Assam 781028, India",https://www.google.co.kr/maps/place/U+FIT+GYM/data=!4m5!3m4!1s0x375a58d476a5612f:0x6485a2d209147426!8m2!3d26.1288294!4d91.797542?authuser=0&hl=en&rclk=1,26.1288294,91.797542,Assam
HARDCORE GYM,Fitness center,"Ramdia Nampara chowk road, Guwahati, Assam 781102, India",https://www.google.co.kr/maps/place/HARDCORE+GYM/data=!4m5!3m4!1s0x375a37fbb77cdca3:0xcd8e31ce598dfb22!8m2!3d26.2281854!4d91.4970311?authuser=0&hl=en&rclk=1,26.2281854,91.4970311,Assam
Berinton's Apartment,Gym,"Dhekerigaon, Assam 784116, India",https://www.google.co.kr/maps/place/Berinton's+Apartment/data=!4m5!3m4!1s0x375b257913cc809b:0x55a4e0034521a60!8m2!3d26.5699089!4d92.2458096?authuser=0&hl=en&rclk=1,26.569908899999998,92.24580959999999,Assam
BULLS GYM,Gym,"NH 15, North Lakhimpur, Assam 787031, India",https://www.google.co.kr/maps/place/BULLS+GYM/data=!4m5!3m4!1s0x374137fe49597aab:0x449efddfbf548847!8m2!3d27.2288603!4d94.0946174?authuser=0&hl=en&rclk=1,27.2288603,94.09461740000002,Assam
Fitness Point,Gym,"ward no 11, alternative road, near maternity hospital, Khat, Nalbari, Assam 781335, India",https://www.google.co.kr/maps/place/Fitness+Point/data=!4m5!3m4!1s0x375bcd1b48195fa3:0xc9578cfa9ff62979!8m2!3d26.4406182!4d91.4358897?authuser=0&hl=en&rclk=1,26.440618199999996,91.4358897,Assam
24 fitness,Gym,"Jyoti Nagar, Bamunimaidan, Guwahati, Assam 781021, India",https://www.google.co.kr/maps/place/24+fitness/data=!4m5!3m4!1s0x375a5beb6d879e09:0x37515e6ed1ad468f!8m2!3d26.1853722!4d91.7940582?authuser=0&hl=en&rclk=1,26.185372199999996,91.79405820000001,Assam
Multi Gym,Gym,"3GQP+G8M, Mirza, Santola, Assam 781015, India",https://www.google.co.kr/maps/place/Multi+Gym/data=!4m5!3m4!1s0x375a408c2f1deea3:0x9de3a0f8b87479b7!8m2!3d26.0888453!4d91.53579?authuser=0&hl=en&rclk=1,26.0888453,91.53579,Assam
IRON Fitness centre,Gym,"Thana Road, Babupatty, Jorhat, Assam 785001, India",https://www.google.co.kr/maps/place/IRON+Fitness+centre/data=!4m5!3m4!1s0x3746c341f0cf5661:0xe23bd29024d0645e!8m2!3d26.7554595!4d94.2141193?authuser=0&hl=en&rclk=1,26.755459499999997,94.2141193,Assam
OLYMPUS GYM Azara,Gym,"OLYMPUS GYM, opposite Pooja Apartment, Azara, Guwahati, Assam 781017, India",https://www.google.co.kr/maps/place/OLYMPUS+GYM+Azara/data=!4m5!3m4!1s0x375a430db1b50c89:0x9bf2f50ee4bc5cab!8m2!3d26.1238778!4d91.6173496?authuser=0&hl=en&rclk=1,26.123877800000002,91.6173496,Assam
Health Living Cafe .,Gym,"Kacharigaon, Kamarchuburi, Tezpur, Assam 784001, India",https://www.google.co.kr/maps/place/Health+Living+Cafe+./data=!4m5!3m4!1s0x3744e8328f6b2a33:0x18a376b874fd155a!8m2!3d26.6256516!4d92.7886394?authuser=0&hl=en&rclk=1,26.6256516,92.78863940000001,Assam
International Industries Gym Shop,Gym,"Gar Ali Rd, Babupatty, Jorhat, Assam 785001, India",https://www.google.co.kr/maps/place/International+Industries+Gym+Shop/data=!4m5!3m4!1s0x3746c2bf9e83bb85:0x392bdc76e3764c78!8m2!3d26.7567923!4d94.2152091?authuser=0&hl=en&rclk=1,26.7567923,94.2152091,Assam
New Edge Fitness,Gym,"2, Masjid Path, Katahbari, Dhirenpara, Guwahati, Assam 781009, India",https://www.google.co.kr/maps/place/New+Edge+Fitness/data=!4m5!3m4!1s0x375a5da634cc9775:0x3d3ed484c84339e!8m2!3d26.1255383!4d91.7208855?authuser=0&hl=en&rclk=1,26.1255383,91.7208855,Assam
The Stay Fitness,Fitness center,"1st Floor, House No. 1, Jhilmil Path, Beltola Tiniali, Guwahati, Assam 781038, India",https://www.google.co.kr/maps/place/The+Stay+Fitness/data=!4m5!3m4!1s0x375a5908502adb6b:0x96588e78047ada64!8m2!3d26.1964796!4d91.7672431?authuser=0&hl=en&rclk=1,26.1964796,91.7672431,Assam
UPS Fitness Gym,Gym,"4PHP+PVR, Jyotikuchi, Guwahati, Assam 781034, India",https://www.google.co.kr/maps/place/UPS+Fitness+Gym/data=!4m5!3m4!1s0x375a5ba4e0cb16e7:0x299713f39210eba9!8m2!3d26.1293697!4d91.7371434?authuser=0&hl=en&rclk=1,26.129369699999998,91.73714340000001,Assam
Team Heroes,Gym,"Divine Annexe, (Behind Divine Plaza, GS Rd, Dispur, Guwahati, Assam 781006, India",https://www.google.co.kr/maps/place/Team+Heroes/data=!4m5!3m4!1s0x375a5957777dac3f:0x400f293e76e938c4!8m2!3d26.1448263!4d91.7915316?authuser=0&hl=en&rclk=1,26.144826300000002,91.7915316,Assam
24 Fitness Gym,Gym,"9QVF+9XJ, Barkharikata, Assam 781121, India",https://www.google.co.kr/maps/place/24+Fitness+Gym/data=!4m5!3m4!1s0x375a55c552c69eeb:0x5bdceeb1945d752b!8m2!3d26.3934635!4d91.7748861?authuser=0&hl=en&rclk=1,26.3934635,91.77488609999999,Assam
Azara Gym,Gym,"NH 37, Azara, Guwahati, Assam 781017, India",https://www.google.co.kr/maps/place/Azara+Gym/data=!4m5!3m4!1s0x375a43f391ea86dd:0x6760417f4cf5d632!8m2!3d26.120217!4d91.6145463?authuser=0&hl=en&rclk=1,26.120217,91.6145463,Assam
Sportholics-Fitness Studio,Gym,"Assam Trunk Rd, Jakhalabandha, Assam 782136, India",https://www.google.co.kr/maps/place/Sportholics-Fitness+Studio/data=!4m5!3m4!1s0x3744f12e8512f871:0x88ebc75fd62bb2e9!8m2!3d26.584308!4d92.9894817?authuser=0&hl=en&rclk=1,26.584308,92.9894817,Assam
ENRICH TAEKWONDO ACCADEMY,Physical fitness program,"G.B.ROAD, near NAMGHAR, Nagaon, Assam 782003, India",https://www.google.co.kr/maps/place/ENRICH+TAEKWONDO+ACCADEMY/data=!4m5!3m4!1s0x3745273c3d75fa8b:0x621a49740dd0a659!8m2!3d26.348009!4d92.6838111?authuser=0&hl=en&rclk=1,26.348009,92.68381109999999,Assam
Medicos GYM,Gym,"4G34+J8F, Bijoynagar, Assam 781122, India",https://www.google.co.kr/maps/place/Medicos+GYM/data=!4m5!3m4!1s0x375a3f6a05e8d833:0x6a1c82892444b56b!8m2!3d26.1040615!4d91.5057948?authuser=0&hl=en&rclk=1,26.1040615,91.5057948,Assam
FIT TECH GYM.,Gym,"Baihata Chariali, Assam 781381, India",https://www.google.co.kr/maps/place/FIT+TECH+GYM./data=!4m5!3m4!1s0x375a53bb0452dbaf:0x812130d33099552c!8m2!3d26.3475691!4d91.7275709?authuser=0&hl=en&rclk=1,26.347569099999998,91.7275709,Assam
"(Cycle Market)Gear Up , Scott...",Gym,"Ulubari Flyover, South Sarania, Ulubari, Guwahati, Assam 781007, India","https://www.google.co.kr/maps/place/(Cycle+Market)Gear+Up+,+Scott.../data=!4m5!3m4!1s0x375a5981097242dd:0xac27f5d243e37218!8m2!3d26.1757147!4d91.7571644?authuser=0&hl=en&rclk=1",26.1757147,91.75716440000001,Assam
Gym Star & Fitness Center,Gym,"madhayam khanda, Assam 781030, India",https://www.google.co.kr/maps/place/Gym+Star+%26+Fitness+Center/data=!4m5!3m4!1s0x375a5bcc23bfa463:0x35250b8d85c93181!8m2!3d26.2039585!4d91.7270348?authuser=0&hl=en&rclk=1,26.2039585,91.7270348,Assam
Shg Hut Donkamukam,Gym,"WPJ2+WRV, Dongkamukam, Assam 782485, India",https://www.google.co.kr/maps/place/Shg+Hut+Donkamukam/data=!4m5!3m4!1s0x374541526b0c640b:0x64121d8e187f6892!8m2!3d25.932355!4d92.7020387?authuser=0&hl=en&rclk=1,25.932354999999998,92.7020387,Assam
Fitness & Health Gym,Gym,"Unnamed Road, Niz-Gumutha Gaon, Assam 782003, India",https://www.google.co.kr/maps/place/Fitness+%26+Health+Gym/data=!4m5!3m4!1s0x3745204b32e06c63:0x4323301ee1d98ba5!8m2!3d26.3459103!4d92.7548097?authuser=0&hl=en&rclk=1,26.3459103,92.75480970000001,Assam
Siang Villa,Gym,"Kumargaon Rd, Kamarchuburi, Tezpur, Assam 784001, India",https://www.google.co.kr/maps/place/Siang+Villa/data=!4m5!3m4!1s0x3744e8320962d957:0x5628aa302ffcd286!8m2!3d26.6233381!4d92.788123?authuser=0&hl=en&rclk=1,26.623338099999998,92.788123,Assam
NAZ SLIMMING CENTER,Fitness center,"Azara, Guwahati, Assam 781017, India",https://www.google.co.kr/maps/place/NAZ+SLIMMING+CENTER/data=!4m5!3m4!1s0x375a45baf3d29875:0x9f5ce2ccc45d5d95!8m2!3d26.1319105!4d91.6231153?authuser=0&hl=en&rclk=1,26.1319105,91.6231153,Assam
আৰ. বি. FITNESS CENTER,Gym,"RGRQ+7QF, ব্ৰহ্মাজান, Assam 784172, India",https://www.google.co.kr/maps/place/%E0%A6%86%E0%A7%B0.+%E0%A6%AC%E0%A6%BF.+FITNESS+CENTER/data=!4m5!3m4!1s0x3744177d94bf1bfd:0xfa5fce196a2de7b5!8m2!3d26.8406978!4d93.5394334?authuser=0&hl=en&rclk=1,26.8406978,93.53943340000001,Assam
CHC GYM,Fitness center,"Jail Rd, near KG Nursing home, Kushal Nagar, Atilagaon, Jorhat, Assam 785001, India",https://www.google.co.kr/maps/place/CHC+GYM/data=!4m5!3m4!1s0x3746c38273c35ca9:0xc2fcab80007905d6!8m2!3d26.7471625!4d94.2018621?authuser=0&hl=en&rclk=1,26.7471625,94.2018621,Assam
Six Brothers,Gym,"82J4+RGG, Muslimpatty, Barpeta, Assam 781301, India",https://www.google.co.kr/maps/place/Six+Brothers/data=!4m5!3m4!1s0x37599c71f47aec21:0x5ed5fce837331ce3!8m2!3d26.3320558!4d91.0063176?authuser=0&hl=en&rclk=1,26.332055800000003,91.0063176,Assam
NEW FLEXY GYM,Gym,"near Pioneer academy, Bezera, Assam 781121, India",https://www.google.co.kr/maps/place/NEW+FLEXY+GYM/data=!4m5!3m4!1s0x375a55c963c462df:0x9c021980ddc20db0!8m2!3d26.3459765!4d91.7760017?authuser=0&hl=en&rclk=1,26.345976500000003,91.7760017,Assam
"NES-Yoga Centre, DYC Maligaon",Yoga studio,"3rd Floor, A T Maligaon, Opp. LCB College, Kamakhya, Assam Trunk Rd, Guwahati, Assam 781012, India","https://www.google.co.kr/maps/place/NES-Yoga+Centre,+DYC+Maligaon/data=!4m5!3m4!1s0x375a5b08a7eeb707:0xb943b775d9d377a5!8m2!3d26.1612379!4d91.7107759?authuser=0&hl=en&rclk=1",26.1612379,91.7107759,Assam
Gym India,Gymnasium Cz,"AT Road 3rd floor, SBI Bhootnath Kalipur Branch Building, Guwahati, Assam 781009, India",https://www.google.co.kr/maps/place/Gym+India/data=!4m5!3m4!1s0x375a5bf87a188709:0x8bf12395d380f6b2!8m2!3d26.1675451!4d91.7200112?authuser=0&hl=en&rclk=1,26.1675451,91.7200112,Assam
Ultimate Fitness Gym,Gym,"Convent Rd, Halflong East, Haflong, Assam 788819, India",https://www.google.co.kr/maps/place/Ultimate+Fitness+Gym/data=!4m5!3m4!1s0x374fa3fc833380bf:0xccaad75a3addf226!8m2!3d25.1676252!4d93.0136479?authuser=0&hl=en&rclk=1,25.167625199999996,93.01364790000001,Assam
H & F GYM,Gym,"near Assam Gramin Vikash Bank, Jharobari, Baranti Maniari, Assam 781122, India",https://www.google.co.kr/maps/place/H+%26+F+GYM/data=!4m5!3m4!1s0x375a3fadc440d509:0xf01ca73a443b1a17!8m2!3d26.0617593!4d91.4954523?authuser=0&hl=en&rclk=1,26.0617593,91.4954523,Assam
JERAI FITNESS PVT LTD,Gym,"2nd Floor , Mac Tower Lalmati, NH37, Lalmati, Guwahati, Assam 781029, India",https://www.google.co.kr/maps/place/JERAI+FITNESS+PVT+LTD/data=!4m5!3m4!1s0x375a5f57c45666bb:0x1a34385ceeb3b921!8m2!3d26.1102929!4d91.775782?authuser=0&hl=en&rclk=1,26.110292899999997,91.77578199999999,Assam
HERBALIFE INDIA,Weight loss service,"G.N.B road silpukhuri House No.31 near aganbadi club backside of, Silpukhuri, Guwahati, Assam 781003, India",https://www.google.co.kr/maps/place/HERBALIFE+INDIA/data=!4m5!3m4!1s0x375a598554df3cc3:0x7649d9408a2efc46!8m2!3d26.183912!4d91.763161?authuser=0&hl=en&rclk=1,26.183912,91.763161,Assam
MemberX,Gym,"3H4F+6FC, Jangali Para, Assam 781015, India",https://www.google.co.kr/maps/place/MemberX/data=!4m5!3m4!1s0x375a412fb962086d:0x2cdd09ee94050d29!8m2!3d26.0555736!4d91.5736473?authuser=0&hl=en&rclk=1,26.0555736,91.5736473,Assam
sant nirankari satsang bhawan land,Gym,"Beseria, Kataki Chuburi, Assam 784501, India",https://www.google.co.kr/maps/place/sant+nirankari+satsang+bhawan+land/data=!4m5!3m4!1s0x3744c2162118e785:0xb08cb67bcc801081!8m2!3d26.65991!4d92.75825?authuser=0&hl=en&rclk=1,26.659909999999996,92.75825,Assam
Lifestyle Yoga and Sports,Yoga studio,"Mamasjid road, Tenali, Salonibari, Tezpur, Assam 784104, India",https://www.google.co.kr/maps/place/Lifestyle+Yoga+and+Sports/data=!4m5!3m4!1s0x3744c12c71c7d2e9:0xd4638e8207be57f9!8m2!3d26.7197082!4d92.7660414?authuser=0&hl=en&rclk=1,26.7197082,92.7660414,Assam
Yoga Coliseum,Yoga studio,"Diphalu-Namghar Rd, Diphalu, Nagaon, Assam 782003, India",https://www.google.co.kr/maps/place/Yoga+Coliseum/data=!4m5!3m4!1s0x374521bef9efc8a5:0xf6536d14f29b7b2!8m2!3d26.3627701!4d92.7081608?authuser=0&hl=en&rclk=1,26.3627701,92.7081608,Assam
FAST FITNESS GYM,Fitness center,"Ambicapatty, Silchar, Assam 788004, India",https://www.google.co.kr/maps/place/FAST+FITNESS+GYM/data=!4m5!3m4!1s0x374e4bed476bc0a3:0xfbce49bfafdb7494!8m2!3d24.8168912!4d92.7950613?authuser=0&hl=en&rclk=1,24.816891199999997,92.7950613,Assam
"Sarva Yoga Studio - Guwahati, Assam",Yoga studio,"1st Floor, F Fort, Kachari Basti, G S Road, Ulubari,, near KFC, Guwahati, Assam 781007, India","https://www.google.co.kr/maps/place/Sarva+Yoga+Studio+-+Guwahati,+Assam/data=!4m5!3m4!1s0x375a592522b85889:0xcb402d8fb61f7eb0!8m2!3d26.172586!4d91.759667?authuser=0&hl=en&rclk=1",26.172586,91.75966700000001,Assam
Arunima Dutta'sThe yoga Studio,Yoga studio,"Chandmari U Turn, Chandmari Flyover, above Panasonic Showroom, Chandmari, Guwahati, Assam 781004, India",https://www.google.co.kr/maps/place/Arunima+Dutta'sThe+yoga+Studio/data=!4m5!3m4!1s0x375a59bd3084d929:0x4bf0a495583cd35f!8m2!3d26.1848353!4d91.774996?authuser=0&hl=en&rclk=1,26.1848353,91.774996,Assam
Himalayan Yoga and Meditation,Yoga studio,"GS Rd, Bormotoria, Guwahati, Assam 781036, India",https://www.google.co.kr/maps/place/Himalayan+Yoga+and+Meditation/data=!4m5!3m4!1s0x375a5977390670f9:0xfd6e76f2d5ce9af9!8m2!3d26.1320555!4d91.807615?authuser=0&hl=en&rclk=1,26.1320555,91.807615,Assam
Urban Dharma,Yoga studio,"House No 7, Damoderdev Path, Mother Teresa Rd, Ambikagirinagar, Guwahati, Assam 781024, India",https://www.google.co.kr/maps/place/Urban+Dharma/data=!4m5!3m4!1s0x375a5907fba26ec7:0xb46e81d460dcab2!8m2!3d26.1717096!4d91.7834836?authuser=0&hl=en&rclk=1,26.171709600000003,91.78348359999998,Assam
Apunba Fitness Center,Gym,"Ayangpalli Rd, Khurai Thangjam Leikai, Imphal, Manipur 795001, India",https://www.google.co.kr/maps/place/Apunba+Fitness+Center/data=!4m5!3m4!1s0x374927f71f3bd931:0x6e3438039ab17bf6!8m2!3d24.8150538!4d93.9597351?authuser=0&hl=en&rclk=1,24.8150538,93.95973509999999,Manipur
"Mountain Gym Fitness Center,",Gym,"Thangmeiband Hijam Dewan Leikai Rd, Thangmeiband, Imphal, Manipur 795004, India","https://www.google.co.kr/maps/place/Mountain+Gym+Fitness+Center,/data=!4m5!3m4!1s0x374927ba67a150ab:0xe6b53bd721bf1875!8m2!3d24.8184146!4d93.9340133?authuser=0&hl=en&rclk=1",24.8184146,93.93401329999999,Manipur
PS Nutrition Point & Gym,Gym,"Imphal-Jessami Rd, New Checkon Mamang Leikai, Soibam Leikai, Imphal, Manipur 795001, India",https://www.google.co.kr/maps/place/PS+Nutrition+Point+%26+Gym/data=!4m5!3m4!1s0x37492701307e0c61:0xcd7d18e726016ea1!8m2!3d24.8100111!4d93.9503812?authuser=0&hl=en&rclk=1,24.8100111,93.95038120000001,Manipur
"Kangleipak Fitness Centre (KFC), Manipur",Gym,"Indo-Myanmar Rd, Canchipur, Imphal, Manipur 795003, India","https://www.google.co.kr/maps/place/Kangleipak+Fitness+Centre+(KFC),+Manipur/data=!4m5!3m4!1s0x374925d8516e24af:0x783883bc911db632!8m2!3d24.755384!4d93.934754?authuser=0&hl=en&rclk=1",24.755384,93.934754,Manipur
APUNBA FITNESS CENTER,Fitness center,"RIMS Rd, Nagamapal, Thangmeiband, Imphal, Manipur 795001, India",https://www.google.co.kr/maps/place/APUNBA+FITNESS+CENTER/data=!4m5!3m4!1s0x374927b3d0afd203:0x4f4a83583dbb3617!8m2!3d24.8105881!4d93.9338676?authuser=0&hl=en&rclk=1,24.810588100000004,93.9338676,Manipur
Shiva Nutrition and Fitness Centre,Gym,"Local Crossway, Paona Bazar, Imphal, Manipur 795001, India",https://www.google.co.kr/maps/place/Shiva+Nutrition+and+Fitness+Centre/data=!4m5!3m4!1s0x37492717b7edc917:0xcd0e0317eda359b4!8m2!3d24.8029614!4d93.9347795?authuser=0&hl=en&rclk=1,24.802961399999997,93.9347795,Manipur
NEFSA Fitness Point,Gym,"RX2F+4JM, Kshetrigao, Imphal, Manipur 795005, India",https://www.google.co.kr/maps/place/NEFSA+Fitness+Point/data=!4m5!3m4!1s0x374926d9173d37f5:0x4dc08c9372686d7f!8m2!3d24.8003412!4d93.9740574?authuser=0&hl=en&rclk=1,24.8003412,93.9740574,Manipur
Emoinu Gym,Gym,"Mayai Lambi Rd, Imphal, Manipur 795003, India",https://www.google.co.kr/maps/place/Emoinu+Gym/data=!4m5!3m4!1s0x374927b725ff7069:0x2b810204eca830eb!8m2!3d24.7677118!4d93.924212?authuser=0&hl=en&rclk=1,24.7677118,93.924212,Manipur
GOLD’S GYM,Gym,"Indo-Myanmar Road, Singjamei Chingamathak, Near SBI Bank, Imphal, Manipur 795001, India",https://www.google.co.kr/maps/place/GOLD%E2%80%99S+GYM/data=!4m5!3m4!1s0x3749265d21ed6aeb:0xff07cddcd81527c9!8m2!3d24.7840708!4d93.9380439?authuser=0&hl=en&rclk=1,24.784070800000002,93.9380439,Manipur
Sangaifit7clan fitness centre,Fitness center,"89, Thangal Bazar, Imphal, Manipur 795001, India",https://www.google.co.kr/maps/place/Sangaifit7clan+fitness+centre/data=!4m5!3m4!1s0x374927eabb89467b:0x214f98c04fe0dc6c!8m2!3d24.8096218!4d93.9345589?authuser=0&hl=en&rclk=1,24.8096218,93.9345589,Manipur
Star Gym,Gym,"Kwakeithel, leimakhejam Leikai, Imphal West, Imphal, Manipur 795001, India",https://www.google.co.kr/maps/place/Star+Gym/data=!4m5!3m4!1s0x374926385d71af17:0x1fc7f5df3f7244a1!8m2!3d24.79124!4d93.9253243?authuser=0&hl=en&rclk=1,24.79124,93.9253243,Manipur
YPISM Gym,Gym,"RW5C+QPP, Phurailatpam Colony, Uripok, Imphal, Manipur 795004, India",https://www.google.co.kr/maps/place/YPISM+Gym/data=!4m5!3m4!1s0x374927cb88d47603:0xe26654cfe260bb89!8m2!3d24.8094502!4d93.9218344?authuser=0&hl=en&rclk=1,24.809450199999997,93.92183440000001,Manipur
Valentina Fitness,Fitness center,"795001, Thiyam Leikai, Keishampat, Sagolband, Imphal, Manipur 795004, India",https://www.google.co.kr/maps/place/Valentina+Fitness/data=!4m5!3m4!1s0x3749279437065ac9:0x49195270ae346222!8m2!3d24.7986751!4d93.9337294?authuser=0&hl=en&rclk=1,24.7986751,93.9337294,Manipur
The Gym Fitness Studio,Gym,"RW7M+2WQ, Nagamapal, Thangmeiband, Imphal, Manipur 795001, India",https://www.google.co.kr/maps/place/The+Gym+Fitness+Studio/data=!4m5!3m4!1s0x374927b1981fbc11:0xd2a035472373657b!8m2!3d24.8125759!4d93.9348636?authuser=0&hl=en&rclk=1,24.8125759,93.9348636,Manipur
"Gymkhana, RIMS",Gym,"RW89+4RR, Lamphelpat, Imphal, Manipur 795004, India","https://www.google.co.kr/maps/place/Gymkhana,+RIMS/data=!4m5!3m4!1s0x374927cf0f814629:0x21d6225d74e26ea8!8m2!3d24.8153519!4d93.9195143?authuser=0&hl=en&rclk=1",24.815351899999996,93.91951429999999,Manipur
Ladies Fitness World,Gym,"795001, Thiyam Leikai, Keishampat, Sagolband, Imphal, Manipur 795004, India",https://www.google.co.kr/maps/place/Ladies+Fitness+World/data=!4m5!3m4!1s0x3749264e853fa3b7:0xe9f0b8225e493368!8m2!3d24.7986751!4d93.9337294?authuser=0&hl=en&rclk=1,24.7986751,93.9337294,Manipur
Chanura Fitness Centre (Only For Ladies),Fitness center,"Keishampat Sega Road, Konjeng Hazari, Thangjam Leikai, Manipur 795001, India",https://www.google.co.kr/maps/place/Chanura+Fitness+Centre+(Only+For+Ladies)/data=!4m5!3m4!1s0x37492761894c8761:0xcb883d34fdb1edc4!8m2!3d24.795462!4d93.9300669?authuser=0&hl=en&rclk=1,24.795462,93.93006690000001,Manipur
U-FITNESS CENTRE,Gym,"Akampat, Singjamei - Kongba Rd, Imphal, Manipur 795008, India",https://www.google.co.kr/maps/place/U-FITNESS+CENTRE/data=!4m5!3m4!1s0x3749265fa29458b3:0xa54176fd2bf2d0fc!8m2!3d24.7839284!4d93.9463526?authuser=0&hl=en&rclk=1,24.783928399999997,93.9463526,Manipur
T Fit Manipur Gym,Fitness center,"Khurai kongpal chingangbam leikai, Lamlong-Tinsid Rd, Imphal, Manipur 795010, India",https://www.google.co.kr/maps/place/T+Fit+Manipur+Gym/data=!4m5!3m4!1s0x374927cc0133664b:0xcd33b3785200ed53!8m2!3d24.822815!4d93.970963?authuser=0&hl=en&rclk=1,24.822815,93.970963,Manipur
Apunba Fitness Clan,Gym,"Singjamei Rd, Chingamakha, Imphal, Manipur 795001, India",https://www.google.co.kr/maps/place/Apunba+Fitness+Clan/data=!4m5!3m4!1s0x3749278510918bb5:0x50db56371035b9f7!8m2!3d24.7798412!4d93.9343423?authuser=0&hl=en&rclk=1,24.7798412,93.9343423,Manipur
United Gym,Gym,"MM Menson, Uripok, Imphal, Manipur 795004, India",https://www.google.co.kr/maps/place/United+Gym/data=!4m5!3m4!1s0x374927fdfe226b0d:0xc6233304093d7a3c!8m2!3d24.8109167!4d93.9109083?authuser=0&hl=en&rclk=1,24.8109167,93.9109083,Manipur
Sangai Gym,Gym,"QWJJ+M2G, Paonam Kollup, Imphal, Manipur 795003, India",https://www.google.co.kr/maps/place/Sangai+Gym/data=!4m5!3m4!1s0x374927f32140e3b1:0xd1e98b943e7a9f73!8m2!3d24.7816779!4d93.9300712?authuser=0&hl=en&rclk=1,24.7816779,93.9300712,Manipur
Majid's Gym House,Gym,"Santhel Awang Leikai, Uchiwa Makha Thokchom Leirak - Khongnang Makhong Rd, near Santhel Awang Salam, Maibam Konjil, Manipur 795132, India",https://www.google.co.kr/maps/place/Majid's+Gym+House/data=!4m5!3m4!1s0x37493a05f43b7179:0xf6558a1ed08d5763!8m2!3d24.5803097!4d93.9123666?authuser=0&hl=en&rclk=1,24.580309699999997,93.9123666,Manipur
Patriots Gym,Gym,"QWVG+422, Sagolband, Imphal, Manipur 795001, India",https://www.google.co.kr/maps/place/Patriots+Gym/data=!4m5!3m4!1s0x374926383b8ca7eb:0xb67210aa6ae10c51!8m2!3d24.7927631!4d93.9250186?authuser=0&hl=en&rclk=1,24.792763100000002,93.9250186,Manipur
khagemba gym,Gym,"Unnamed Road, Imphal, Manipur 795003, India",https://www.google.co.kr/maps/place/khagemba+gym/data=!4m5!3m4!1s0x374925ce8308f507:0x840d03418dc7ed72!8m2!3d24.7422423!4d93.9417368?authuser=0&hl=en&rclk=1,24.7422423,93.9417368,Manipur
"ASK Gym, Kakching",Gym,"Kha Manipur College, Kakching, Manipur 795103, India","https://www.google.co.kr/maps/place/ASK+Gym,+Kakching/data=!4m5!3m4!1s0x37493f35800b9363:0xaf5a6f5354d4f594!8m2!3d24.5097827!4d93.9677137?authuser=0&hl=en&rclk=1",24.5097827,93.9677137,Manipur
Fitness centre,Gym,"QXJ8+7X7, Imphal, Manipur 795008, India",https://www.google.co.kr/maps/place/Fitness+centre/data=!4m5!3m4!1s0x374927cb1994b581:0xf4cdae67c32cb2fe!8m2!3d24.7806536!4d93.9674371?authuser=0&hl=en&rclk=1,24.7806536,93.9674371,Manipur
Lungmon gym,Gym,"Manipur Road, Sagolband, Imphal, Manipur 795146, India",https://www.google.co.kr/maps/place/Lungmon+gym/data=!4m5!3m4!1s0x374929923980632f:0x536a78a007f3c178!8m2!3d24.8353675!4d93.9026761?authuser=0&hl=en&rclk=1,24.8353675,93.9026761,Manipur
Perfect Fitness Centre,Gym,"Ahongei Leikai, Soibam Leikai, Imphal, Manipur 795010, India",https://www.google.co.kr/maps/place/Perfect+Fitness+Centre/data=!4m5!3m4!1s0x374927618c8f1ea9:0xc1d38487d3951a6c!8m2!3d24.8129591!4d93.9575391?authuser=0&hl=en&rclk=1,24.8129591,93.95753909999999,Manipur
Royal Gym,Gym,"QW7W+785, Ningombam Colony, Kitna Panung, Manipur 795003, India",https://www.google.co.kr/maps/place/Royal+Gym/data=!4m5!3m4!1s0x3749267e0b6bd767:0xa57b985914e14c79!8m2!3d24.763144!4d93.945857?authuser=0&hl=en&rclk=1,24.763144,93.94585699999999,Manipur
"NAMBOL FITNESS CENTRE, NFC",Gym,"PR9Q+F78, Nambol, Manipur 795134, India","https://www.google.co.kr/maps/place/NAMBOL+FITNESS+CENTRE,+NFC/data=!4m5!3m4!1s0x37492e8932f057f5:0x52d6b27d85607f8c!8m2!3d24.718653!4d93.8382136?authuser=0&hl=en&rclk=1",24.718653,93.83821359999999,Manipur
Force Gym Imphal,Gym,"NH2, Lamjaotongba, Manipur 795140, India",https://www.google.co.kr/maps/place/Force+Gym+Imphal/data=!4m5!3m4!1s0x374928a8abefb2e1:0x7a54f9633e677e35!8m2!3d24.7701308!4d93.9014007?authuser=0&hl=en&rclk=1,24.7701308,93.9014007,Manipur
YBB Gym,Gym,"Pishumthong Oinam Leika, Imphal, Manipur 795004, India",https://www.google.co.kr/maps/place/YBB+Gym/data=!4m5!3m4!1s0x37492641731d907b:0x7eda87a6ce121966!8m2!3d24.7851246!4d93.9306227?authuser=0&hl=en&rclk=1,24.7851246,93.9306227,Manipur
Panthoibi fitness centre,Gym,"Khongman Moirang Pandit Leikai, Top Naoria, Manipur 795001, India",https://www.google.co.kr/maps/place/Panthoibi+fitness+centre/data=!4m5!3m4!1s0x37492795edab1ad1:0xb3d27b3c145c27d6!8m2!3d24.7672707!4d93.9502815?authuser=0&hl=en&rclk=1,24.7672707,93.95028149999999,Manipur
"Cleopatra fitness Centre,Nambol,Manipur",Gym,"Nambol, Manipur 795134, India","https://www.google.co.kr/maps/place/Cleopatra+fitness+Centre,Nambol,Manipur/data=!4m5!3m4!1s0x37492e8932f057f5:0x3b9d095552e5e6b6!8m2!3d24.718643!4d93.8382427?authuser=0&hl=en&rclk=1",24.718643,93.83824270000001,Manipur
Shivfit 7 Clan,Gym,"Nagamapal Rd, Nagamapal Phougeishangbam Leikai, Thangmeiband, Imphal, Manipur 795001, India",https://www.google.co.kr/maps/place/Shivfit+7+Clan/data=!4m5!3m4!1s0x3749277bc965d9e7:0xa26d71718deb73ce!8m2!3d24.8144646!4d93.936571?authuser=0&hl=en&rclk=1,24.8144646,93.936571,Manipur
PY GYM,Gym,"Singjamei, Imphal, Manipur 795001, India",https://www.google.co.kr/maps/place/PY+GYM/data=!4m5!3m4!1s0x3749278c9cb8af91:0x9719a162245853f2!8m2!3d24.7806092!4d93.9434947?authuser=0&hl=en&rclk=1,24.7806092,93.9434947,Manipur
Humanity Plus Fitness Center,Fitness center,"Uripok Achom Leikai Rd, Shijagurumayum Colony, Uripok, Imphal, Manipur 795001, India",https://www.google.co.kr/maps/place/Humanity+Plus+Fitness+Center/data=!4m5!3m4!1s0x374927e6a3ac1fc1:0x25bfddf1e02d87ae!8m2!3d24.8074436!4d93.9208233?authuser=0&hl=en&rclk=1,24.807443600000003,93.9208233,Manipur
Ultimate Fitness Centre,Gym,"Imphal, Manipur 795140, India",https://www.google.co.kr/maps/place/Ultimate+Fitness+Centre/data=!4m5!3m4!1s0x3749289bfb2d9bbf:0x574159f303168573!8m2!3d24.7888372!4d93.9005404?authuser=0&hl=en&rclk=1,24.7888372,93.90054040000001,Manipur
The Figure gym,Gym,"Kwakeithel - Khagempalli Rd, Malom Tulihal, Haobam Marak Lourembam Leikai, Imphal, Manipur 795004, India",https://www.google.co.kr/maps/place/The+Figure+gym/data=!4m5!3m4!1s0x37492788f6ae000f:0x2bf19e189136065b!8m2!3d24.7894472!4d93.923133?authuser=0&hl=en&rclk=1,24.789447199999998,93.92313299999999,Manipur
Animal Gym,Gym,"RW8M+9JG, Thangmeiband, Imphal, Manipur 795001, India",https://www.google.co.kr/maps/place/Animal+Gym/data=!4m5!3m4!1s0x374927b08bc2e07f:0x31cf0e6d3dd5b772!8m2!3d24.8159421!4d93.9340683?authuser=0&hl=en&rclk=1,24.8159421,93.93406829999999,Manipur
Kangleipak Independent Gym,Gym,"kwakeithel laishram Leikai, Imphal, Manipur, India",https://www.google.co.kr/maps/place/Kangleipak+Independent+Gym/data=!4m5!3m4!1s0x3749279ef146ffe3:0x9646c1a1efffc029!8m2!3d24.7829826!4d93.923652?authuser=0&hl=en&rclk=1,24.7829826,93.923652,Manipur
G.T fitness,Fitness center,"near, uripok, laikhurembi leikai, flyover, near flyover, Uripok, Manipur 795001, India",https://www.google.co.kr/maps/place/G.T+fitness/data=!4m5!3m4!1s0x374927ff813669c7:0x6f087168fcef848d!8m2!3d24.8073947!4d93.9293772?authuser=0&hl=en&rclk=1,24.8073947,93.9293772,Manipur
South Eastern Bar Union Gym,Gym,"Pallel Thongwangma Forest Gate,, Indo-Myanmar Rd, Manipur 795135, India",https://www.google.co.kr/maps/place/South+Eastern+Bar+Union+Gym/data=!4m5!3m4!1s0x3749408ead1ee093:0x5939212946fb3939!8m2!3d24.4537199!4d94.023497?authuser=0&hl=en&rclk=1,24.4537199,94.02349699999999,Manipur
The FIT (Zumba and Fitness Centre),Gym,"Athokpam, Sorok, India",https://www.google.co.kr/maps/place/The+FIT+(Zumba+and+Fitness+Centre)/data=!4m5!3m4!1s0x37493d673351408d:0x8a067604437e931d!8m2!3d24.6349736!4d94.0057722?authuser=0&hl=en&rclk=1,24.634973600000002,94.00577220000001,Manipur
Friends Fitness Centre,Gym,"Nagamapal RIMS Road, Imphal-West, Imphal, Manipur 795001, India",https://www.google.co.kr/maps/place/Friends+Fitness+Centre/data=!4m5!3m4!1s0x374927b6ab153cab:0xcff6e22f415824c9!8m2!3d24.811495!4d93.9316597?authuser=0&hl=en&rclk=1,24.811495,93.93165970000001,Manipur
SANAKEITHEL VOLLEYBALL GROUND,Gym,"RWFJ+CQM, Thangmeiband, Imphal, Manipur 795001, India",https://www.google.co.kr/maps/place/SANAKEITHEL+VOLLEYBALL+GROUND/data=!4m5!3m4!1s0x374927bc03ac8869:0xa1cd9be9104b09db!8m2!3d24.8235945!4d93.9319156?authuser=0&hl=en&rclk=1,24.823594500000002,93.9319156,Manipur
Aero Zumba Fitness,Fitness center,"JNIMS Rd, Ahongei Leikai, Soibam Leikai, Imphal, Manipur 795001, India",https://www.google.co.kr/maps/place/Aero+Zumba+Fitness/data=!4m5!3m4!1s0x3749272495d63dbf:0x64c0cd11b7d6fa8f!8m2!3d24.8124477!4d93.9583321?authuser=0&hl=en&rclk=1,24.8124477,93.95833209999999,Manipur
Gym24,Fitness center,"New Checkon Rd, New Lambulane, Soibam Leikai, Imphal, Manipur 795001, India",https://www.google.co.kr/maps/place/Gym24/data=!4m5!3m4!1s0x374927d92985a7c1:0xa4b94476146eead1!8m2!3d24.8074589!4d93.9504101?authuser=0&hl=en&rclk=1,24.807458899999997,93.95041009999998,Manipur
"Fitness Centre, Pravabati College, Mayang Imphal",Fitness center,"Mayai Lambi Rd, Mayang Imphal, Manipur 795132, India","https://www.google.co.kr/maps/place/Fitness+Centre,+Pravabati+College,+Mayang+Imphal/data=!4m5!3m4!1s0x37493184df722117:0x3ed859fe66364ec!8m2!3d24.6239652!4d93.892186?authuser=0&hl=en&rclk=1",24.6239652,93.892186,Manipur
BISHNU GYM,Gym,"JQF7+485, Ward No. 7, Bishnupur, Manipur 795126, India",https://www.google.co.kr/maps/place/BISHNU+GYM/data=!4m5!3m4!1s0x374932dc33bf1d87:0x1837e54a01a0a649!8m2!3d24.6227734!4d93.7633707?authuser=0&hl=en&rclk=1,24.6227734,93.76337070000001,Manipur
B FIT GYM KANGLEIPAK,Gym,"Chingamakha MU Rd, Kakwa, Imphal, Manipur 795158, India",https://www.google.co.kr/maps/place/B+FIT+GYM+KANGLEIPAK/data=!4m5!3m4!1s0x3749279911062b1d:0xff0a2846d2b71650!8m2!3d24.770742!4d93.928608?authuser=0&hl=en&rclk=1,24.770742000000002,93.928608,Manipur
BodyBuilding Centre,Gym,"Yonglan Leirak Rd, Wangkhei, Imphal, Manipur 795005, India",https://www.google.co.kr/maps/place/BodyBuilding+Centre/data=!4m5!3m4!1s0x3749270318516f9b:0x375706593a0e28f6!8m2!3d24.797223!4d93.9581425?authuser=0&hl=en&rclk=1,24.797223000000002,93.95814250000001,Manipur
Imoinu Gym,Gym,"Wabagai - Terapishak Rd, Samurou, Manipur 795009, India",https://www.google.co.kr/maps/place/Imoinu+Gym/data=!4m5!3m4!1s0x37492f015c912fdf:0x68a91b50bca4ebdc!8m2!3d24.6757173!4d93.9009119?authuser=0&hl=en&rclk=1,24.675717300000002,93.90091190000001,Manipur
LY Gym,Gym,"UYAC ground, Kongba uchekon, Imphal, Manipur 795008, India",https://www.google.co.kr/maps/place/LY+Gym/data=!4m5!3m4!1s0x37492792eda466f3:0x65d75fffda8da559!8m2!3d24.7755715!4d93.9587953?authuser=0&hl=en&rclk=1,24.775571499999998,93.95879529999999,Manipur
JBC Gym,Gym,"Singjamei Mayengbam Leikai, Lairembi Lampak, Singjamei, Imphal, Manipur 795008, India",https://www.google.co.kr/maps/place/JBC+Gym/data=!4m5!3m4!1s0x374927e803c70acd:0x23254e2dd048366e!8m2!3d24.7760334!4d93.9389147?authuser=0&hl=en&rclk=1,24.776033399999996,93.9389147,Manipur
EASTERN NUTRITION AND FITNESS CENTER,Gym,"Imphal, Manipur 795008, India",https://www.google.co.kr/maps/place/EASTERN+NUTRITION+AND+FITNESS+CENTER/data=!4m5!3m4!1s0x374926f25ec0c06d:0xf9f8ed948e16e202!8m2!3d24.7841792!4d93.9556836?authuser=0&hl=en&rclk=1,24.784179199999997,93.95568359999999,Manipur
O2 GYM,Gym,"Luwangsangbam, NH2, near Liberal College, Achanbigei, Imphal, Manipur 795002, India",https://www.google.co.kr/maps/place/O2+GYM/data=!4m5!3m4!1s0x3748d913c8a4c409:0xfa14b22dc73d027c!8m2!3d24.8625875!4d93.9297175?authuser=0&hl=en&rclk=1,24.8625875,93.92971750000001,Manipur
Huidrom Tomthil,Gym,"sapam Leikai, Okram Colony, Lairembi Lampak, Singjamei, Imphal, Manipur 795008, India",https://www.google.co.kr/maps/place/Huidrom+Tomthil/data=!4m5!3m4!1s0x374926616acdfe2f:0xd941ae3769d332da!8m2!3d24.7799745!4d93.9407675?authuser=0&hl=en&rclk=1,24.779974499999998,93.9407675,Manipur
Meitram Gym,Gym,"Chingphu Rd, Meitram Makha, Changangei, Manipur 795009, India",https://www.google.co.kr/maps/place/Meitram+Gym/data=!4m5!3m4!1s0x37492feff9a95cb7:0x58b13cfad9ca07d6!8m2!3d24.7400475!4d93.8757608?authuser=0&hl=en&rclk=1,24.7400475,93.8757608,Manipur
LION'S GYM,Gym,"QWJC+J5P, Lourembam Leikai, Imphal, Manipur 795140, India",https://www.google.co.kr/maps/place/LION'S+GYM/data=!4m5!3m4!1s0x3749275d805ab4eb:0xfc45695bb1459c8f!8m2!3d24.7815975!4d93.9204484?authuser=0&hl=en&rclk=1,24.7815975,93.92044840000001,Manipur
Laishram Nutrition Centre,Fitness center,"Wangkhem, Manipur 795149, India",https://www.google.co.kr/maps/place/Laishram+Nutrition+Centre/data=!4m5!3m4!1s0x37492374bab855b3:0xc545cf129c3af6cd!8m2!3d24.6703068!4d94.0427558?authuser=0&hl=en&rclk=1,24.6703068,94.0427558,Manipur
"The FIT, Zumba And Fitness",Gym,"Athokpam Sorok Patchou, Manipur 795138, India","https://www.google.co.kr/maps/place/The+FIT,+Zumba+And+Fitness/data=!4m5!3m4!1s0x37493d75a31ba487:0x6bd8dc3d104e6b80!8m2!3d24.6353424!4d94.0056971?authuser=0&hl=en&rclk=1",24.6353424,94.00569709999999,Manipur
JBC Gym,Gym,"Indo-Myanmar Rd, Imphal, Manipur 795003, India",https://www.google.co.kr/maps/place/JBC+Gym/data=!4m5!3m4!1s0x3749266594548a37:0x70576895e05dd662!8m2!3d24.773818!4d93.9379495?authuser=0&hl=en&rclk=1,24.773818,93.9379495,Manipur
Sky Fitness,Gym,"JXWW+39J, Ward Number 1, Wangmataba, Thoubal, Manipur 795138, India",https://www.google.co.kr/maps/place/Sky+Fitness/data=!4m5!3m4!1s0x37493d3c18a874dd:0x3e6b273d00507eaa!8m2!3d24.6452046!4d93.9958903?authuser=0&hl=en&rclk=1,24.6452046,93.9958903,Manipur
Fitness World,Gym,"chingamathak, India",https://www.google.co.kr/maps/place/Fitness+World/data=!4m5!3m4!1s0x37492642c71dc8f1:0xa1896e1744875dbf!8m2!3d24.7826532!4d93.9377973?authuser=0&hl=en&rclk=1,24.782653200000002,93.9377973,Manipur
Azad Fitness,Gym,"Lilong Tairen Makhong, Lilong Chajing, Manipur 795130, India",https://www.google.co.kr/maps/place/Azad+Fitness/data=!4m5!3m4!1s0x3749255233db289b:0xee4edca0cccfbb5c!8m2!3d24.7018976!4d93.9468076?authuser=0&hl=en&rclk=1,24.701897600000002,93.94680759999999,Manipur
Utlou Makha Gym,Gym,"Phadibi Road, Thiyam, Manipur 795134, India",https://www.google.co.kr/maps/place/Utlou+Makha+Gym/data=!4m5!3m4!1s0x37492fec74795565:0x4cfdb819c4efe3e1!8m2!3d24.7173374!4d93.8616846?authuser=0&hl=en&rclk=1,24.717337399999998,93.86168459999999,Manipur
Gym 24,Gym,"New Checkon Mamang Leikai, Soibam Leikai, Laipham Siphai, Manipur 795001, India",https://www.google.co.kr/maps/place/Gym+24/data=!4m5!3m4!1s0x3749279573707905:0x26a014b6ece76b8e!8m2!3d24.8075256!4d93.9505707?authuser=0&hl=en&rclk=1,24.8075256,93.9505707,Manipur
Gym 24,Gym,"RWXQ+66G, Mantripukhri, Achanbigei, Imphal, Manipur 795002, India",https://www.google.co.kr/maps/place/Gym+24/data=!4m5!3m4!1s0x37492781bc61a795:0xff9960ef42525c2a!8m2!3d24.8480537!4d93.9380729?authuser=0&hl=en&rclk=1,24.848053699999998,93.93807290000001,Manipur
Leimapok Fitness,Gym,"J2FV+8XG, Thoubal, Manipur 795138, India",https://www.google.co.kr/maps/place/Leimapok+Fitness/data=!4m5!3m4!1s0x37493db598180c1f:0x4c93b3263b7cf98b!8m2!3d24.6233075!4d94.0449549?authuser=0&hl=en&rclk=1,24.623307500000003,94.04495490000001,Manipur
Asthetic Fitness Pro GYM,Gym,"Khoiru Leikai, Moirang, Manipur 795133, India",https://www.google.co.kr/maps/place/Asthetic+Fitness+Pro+GYM/data=!4m5!3m4!1s0x3749356a153a4b7f:0x5d5e316326a0fc83!8m2!3d24.4967692!4d93.7649903?authuser=0&hl=en&rclk=1,24.4967692,93.7649903,Manipur
KANGLEI BODY GYM,Gym,"Sagolband Tera Sapam Leirak, Sagolband, Imphal, Manipur 795004, India",https://www.google.co.kr/maps/place/KANGLEI+BODY+GYM/data=!4m5!3m4!1s0x374927bcbaecdb23:0xc6413c1e0f77b047!8m2!3d24.7971268!4d93.9190369?authuser=0&hl=en&rclk=1,24.7971268,93.91903690000001,Manipur
IDEAL NUTRITION CENTRE,Gym,"Lilong Bazar, Imphal West 1st Floor, Post Office Complex, Imphal, Manipur 795130, India",https://www.google.co.kr/maps/place/IDEAL+NUTRITION+CENTRE/data=!4m5!3m4!1s0x374925e7a3a022b9:0xc165f8d1f75c7cfb!8m2!3d24.6945853!4d93.9910249?authuser=0&hl=en&rclk=1,24.6945853,93.99102490000001,Manipur
SMART FITNESS NAMBOL,Gym,"PRFV+4JP, Phoijing Makha Leikai, Manipur 795134, India",https://www.google.co.kr/maps/place/SMART+FITNESS+NAMBOL/data=!4m5!3m4!1s0x37492fff50f51023:0x44b5acc7919178ea!8m2!3d24.7228397!4d93.844083?authuser=0&hl=en&rclk=1,24.722839699999998,93.844083,Manipur
KMMAC,Gym,"Ningthem Pukhri Mapal Rd, Wangkhei, Imphal, Manipur 795005, India",https://www.google.co.kr/maps/place/KMMAC/data=!4m5!3m4!1s0x374926fb6a3b4351:0xa1c05bf638fc5146!8m2!3d24.7975459!4d93.9558392?authuser=0&hl=en&rclk=1,24.797545899999996,93.9558392,Manipur
Salaai Fitness & Gym,Gym,"pukri achauba, Wangjing, Manipur 795148, India",https://www.google.co.kr/maps/place/Salaai+Fitness+%26+Gym/data=!4m5!3m4!1s0x37493d89f84b5fdb:0x2a49653c8a66487!8m2!3d24.5963336!4d94.0370059?authuser=0&hl=en&rclk=1,24.5963336,94.0370059,Manipur
AMKYC,Gym,"PX47+8VH, Keirao Makting, Manipur 795130, India",https://www.google.co.kr/maps/place/AMKYC/data=!4m5!3m4!1s0x3749250727d16635:0x15904ca2fa2fa7cc!8m2!3d24.7058172!4d93.9647415?authuser=0&hl=en&rclk=1,24.7058172,93.9647415,Manipur
MM Fitness Centre,Gym,"FXQQ+QC8, Kakching, Manipur 795103, India",https://www.google.co.kr/maps/place/MM+Fitness+Centre/data=!4m5!3m4!1s0x37493fc4f143e829:0x5fa24d91871123b2!8m2!3d24.4894046!4d93.9885937?authuser=0&hl=en&rclk=1,24.4894046,93.98859370000001,Manipur
The churachanpur united gym,Gym,"Red Cross Rd, Salemveng, D.Phailien, Churachandpur, Manipur 795128, India",https://www.google.co.kr/maps/place/The+churachanpur+united+gym/data=!4m5!3m4!1s0x374eb3d10ce9b121:0xe8d4fc4d14d2ac04!8m2!3d24.3409766!4d93.6938176?authuser=0&hl=en&rclk=1,24.3409766,93.6938176,Manipur
Anytk Gym - Fitness and Health,Gym,"RW8J+64V, Thangmeiband, Imphal, Manipur 795001, India",https://www.google.co.kr/maps/place/Anytk+Gym+-+Fitness+and+Health/data=!4m5!3m4!1s0x37492785e33633f3:0xd139d640b2ed628!8m2!3d24.8156195!4d93.9302908?authuser=0&hl=en&rclk=1,24.8156195,93.9302908,Manipur
Apollo Gym,Gym,"AH2, Wangmataba, Thoubal, Manipur 795138, India",https://www.google.co.kr/maps/place/Apollo+Gym/data=!4m5!3m4!1s0x37493cbb285bd19d:0x18440ee9a1295e7a!8m2!3d24.6464518!4d93.9985691?authuser=0&hl=en&rclk=1,24.6464518,93.9985691,Manipur
NH2 Fitness Center,Gym,"Ningthoukhong 4, Ningthoukhong, Manipur 795011, India",https://www.google.co.kr/maps/place/NH2+Fitness+Center/data=!4m5!3m4!1s0x3749358679dbe959:0x79658fc7d613305b!8m2!3d24.5690986!4d93.7632666?authuser=0&hl=en&rclk=1,24.5690986,93.7632666,Manipur
The F3 Gym,Gym,"8MMV+GRR, Gouchinkhup Veng, Churachandpur, Manipur 795128, India",https://www.google.co.kr/maps/place/The+F3+Gym/data=!4m5!3m4!1s0x374eb3abcf6416b9:0x4d02862091e858c4!8m2!3d24.3338727!4d93.6945287?authuser=0&hl=en&rclk=1,24.333872699999997,93.6945287,Manipur
DD FITNESS CENTRE,Gym,"XVCP+XW6, Kanglatongbi Bazar Board, Kanglatongbi, Manipur 795107, India",https://www.google.co.kr/maps/place/DD+FITNESS+CENTRE/data=!4m5!3m4!1s0x3748d09560386593:0x2d101c7b6efec4!8m2!3d24.9724186!4d93.8872803?authuser=0&hl=en&rclk=1,24.9724186,93.8872803,Manipur
AZTECS FIGHT STUDIO,Fitness center,"3rd FLOOR, AZTECS BUILDING, IRABOT ROAD, Imphal, Manipur 795001, India",https://www.google.co.kr/maps/place/AZTECS+FIGHT+STUDIO/data=!4m5!3m4!1s0x3749276a013ab1a1:0x1fa8d59da949090a!8m2!3d24.8076795!4d93.9360277?authuser=0&hl=en&rclk=1,24.807679500000003,93.9360277,Manipur
