Company_Name,Category,Address,Url,Latitude,Longitude,State
Santokh Klinics,Hospital,"SCO 77, Sector 38C, Market, Chandigarh, 160036, India",https://www.google.co.kr/maps/place/Santokh+Klinics/data=!4m5!3m4!1s0x390fed004765f131:0x9b7116c65148d505!8m2!3d30.742974!4d76.7448525?authuser=0&hl=en&rclk=1,30.742974,76.74485250000001,Chandigarh
Healing Hospital- Best Super Speciality Hospital in Chandigarh,Hospital,"SCO 16-17-18-19-20, Sub. City Center, Sector 34A, Sector 35, Chandigarh, 160022, India",https://www.google.co.kr/maps/place/Healing+Hospital-+Best+Super+Speciality+Hospital+in+Chandigarh/data=!4m5!3m4!1s0x390fedae06440b71:0x96f0b99e412a2f99!8m2!3d30.7245935!4d76.7688916?authuser=0&hl=en&rclk=1,30.7245935,76.7688916,Chandigarh
Landmark Hospital,General hospital,"Site No I-II, opp. Terrace Garden, Sector 33C, Sector 33, Chandigarh, 160020, India",https://www.google.co.kr/maps/place/Landmark+Hospital/data=!4m5!3m4!1s0x390fec518e2ffd49:0x74c6668fb5df82a1!8m2!3d30.7122958!4d76.7701929?authuser=0&hl=en&rclk=1,30.7122958,76.7701929,Chandigarh
Mukat Hospital & Heart Institute,General hospital,"47, S.C.O, 49, Dakshin Marg, Sector 34A, Chandigarh, 160022, India",https://www.google.co.kr/maps/place/Mukat+Hospital+%26+Heart+Institute/data=!4m5!3m4!1s0x390fedb315555551:0x31a8410f96dd6b9!8m2!3d30.7229206!4d76.7705566?authuser=0&hl=en&rclk=1,30.722920600000002,76.7705566,Chandigarh
"Santokh Hospital - Multi-speciality Hospital Orthopaedic, Gyne, Paediatrics, Dialysis, ICU, Surgery Chandigarh",General hospital,"# 846, Sector 38A, Sector 38, Chandigarh, 160014, India","https://www.google.co.kr/maps/place/Santokh+Hospital+-+Multi-speciality+Hospital+Orthopaedic,+Gyne,+Paediatrics,+Dialysis,+ICU,+Surgery+Chandigarh/data=!4m5!3m4!1s0x390fedee591d7d53:0xcbb4e5fc949ed282!8m2!3d30.7478786!4d76.7489313?authuser=0&hl=en&rclk=1",30.747878600000004,76.7489313,Chandigarh
DHARAM HOSPITAL,Private hospital,"#2040 sector 15 c, Chandigarh 160015, India",https://www.google.co.kr/maps/place/DHARAM+HOSPITAL/data=!4m5!3m4!1s0x390fed9b3fffffff:0xe0e216643c1ac722!8m2!3d30.7492297!4d76.7740115?authuser=0&hl=en&rclk=1,30.7492297,76.7740115,Chandigarh
"Max Super Specialty Hospital, Mohali",Hospital,"Chandigarh Rd, near Civil Hospital, Phase 6, Sector 56, Sahibzada Ajit Singh Nagar, Punjab 160055, India","https://www.google.co.kr/maps/place/Max+Super+Specialty+Hospital,+Mohali/data=!4m5!3m4!1s0x390fee144e36fcd5:0xa254c2b1f858248a!8m2!3d30.74008!4d76.7142961?authuser=0&hl=en&rclk=1",30.74008,76.71429609999998,Chandigarh
Indus Super Speciality Hospital,General hospital,"opp. Old DC Office, Sector 55, Phase 1, Sector 55, Sahibzada Ajit Singh Nagar, Chandigarh 160055, India",https://www.google.co.kr/maps/place/Indus+Super+Speciality+Hospital/data=!4m5!3m4!1s0x390feda785d2ec5f:0x6301495b4669e0ed!8m2!3d30.7292742!4d76.7219871?authuser=0&hl=en&rclk=1,30.729274199999995,76.72198709999999,Chandigarh
Government Hospital,General hospital,"Palika Bazar, 19D, Sector 19, Chandigarh, 160019, India",https://www.google.co.kr/maps/place/Government+Hospital/data=!4m5!3m4!1s0x390fed1b15555555:0x243613cf8e302f7e!8m2!3d30.728176!4d76.7927981?authuser=0&hl=en&rclk=1,30.728176,76.79279809999998,Chandigarh
"Dr Atul Malhotra - Orthopedic Doctor in Chandigarh, Punjab, India- Knee Replacement Surgeon In Punjab| Best Trauma Hospital In Chandigarh| Best Knee and Hip Hospital In Chandigarh",Hospital,"2125, Sarovar Path, Sector 21C, Sector 21, Chandigarh, 160022, India","https://www.google.co.kr/maps/place/Dr+Atul+Malhotra+-+Orthopedic+Doctor+in+Chandigarh,+Punjab,+India-+Knee+Replacement+Surgeon+In+Punjab%7C+Best+Trauma+Hospital+In+Chandigarh%7C+Best+Knee+and+Hip+Hospital+In+Chandigarh/data=!4m5!3m4!1s0x390fedabefdf9d6f:0xcc14f30f0bdbba7d!8m2!3d30.724101!4d76.774772?authuser=0&hl=en&rclk=1",30.724101,76.774772,Chandigarh
"Chaitanya Hospital Best Gynecologist, Child Specialist, Delivery, NICU, PICU and Vaccination Centre in Chandigarh",Maternity hospital,"Hospital Site 1 And 2, 44C, Chandigarh, 160047, India","https://www.google.co.kr/maps/place/Chaitanya+Hospital+Best+Gynecologist,+Child+Specialist,+Delivery,+NICU,+PICU+and+Vaccination+Centre+in+Chandigarh/data=!4m5!3m4!1s0x390fec346aaaaaab:0x44ed6b196913f7fd!8m2!3d30.7106785!4d76.7542021?authuser=0&hl=en&rclk=1",30.710678499999997,76.7542021,Chandigarh
Indus Hospital,General hospital,"SCF 98-100, Near Chawla Chowk, Phase 3B-2, Sector 60, Sahibzada Ajit Singh Nagar, Punjab 160059, India",https://www.google.co.kr/maps/place/Indus+Hospital/data=!4m5!3m4!1s0x390fee8605689d5d:0xd59b4b3b1af58a09!8m2!3d30.7089058!4d76.7225259?authuser=0&hl=en&rclk=1,30.7089058,76.72252590000001,Chandigarh
Cloudnine Hospital - Chandigarh,Maternity hospital,"48, Phase-2, Industrial Area Phase I, Chandigarh, 160002, India",https://www.google.co.kr/maps/place/Cloudnine+Hospital+-+Chandigarh/data=!4m5!3m4!1s0x390fecf305a2d351:0x46dbd6e5ebd44ac4!8m2!3d30.700183!4d76.787673?authuser=0&hl=en&rclk=1,30.700183000000003,76.787673,Chandigarh
"Nehru Hospital, PGI",Government hospital,"PGIMER, Sector 12, Chandigarh, 160012, India","https://www.google.co.kr/maps/place/Nehru+Hospital,+PGI/data=!4m5!3m4!1s0x390f949dc0000001:0xa192aca15c2d8f4a!8m2!3d30.7609287!4d76.7759577?authuser=0&hl=en&rclk=1",30.7609287,76.7759577,Chandigarh
Guru Nanak Multispeciality C Hospital,General hospital,"Dr.P.N.Chhuttani Memorial IMA Complex, 35B, Sector 35, Chandigarh, 160022, India",https://www.google.co.kr/maps/place/Guru+Nanak+Multispeciality+C+Hospital/data=!4m5!3m4!1s0x390fedb6cd005d07:0xc5c1b85beb0c5301!8m2!3d30.7255701!4d76.7623332?authuser=0&hl=en&rclk=1,30.7255701,76.7623332,Chandigarh
Chd City Hospital,Hospital,"SCO 10, 11, Madhya Marg, Sector 8C, Sector 9, Chandigarh, 160009, India",https://www.google.co.kr/maps/place/Chd+City+Hospital/data=!4m5!3m4!1s0x390fed959ea1c2a9:0x9cfc8f9780f2ce27!8m2!3d30.7416715!4d76.7943035?authuser=0&hl=en&rclk=1,30.741671500000002,76.7943035,Chandigarh
Ayu Health Hospital,Hospital,"33A, Sector 33A, Chandigarh, 160020, India",https://www.google.co.kr/maps/place/Ayu+Health+Hospital/data=!4m5!3m4!1s0x390fedf9d0cd5a6b:0xcd260fe8ce7ca51e!8m2!3d30.7175525!4d76.769499?authuser=0&hl=en&rclk=1,30.717552500000004,76.769499,Chandigarh
Abhilasha Hospital,Maternity hospital,"201, 35A, Sector 35, Chandigarh, 160022, India",https://www.google.co.kr/maps/place/Abhilasha+Hospital/data=!4m5!3m4!1s0x390fedb6ffffffff:0x26bbc82c6527b890!8m2!3d30.7279225!4d76.7595401?authuser=0&hl=en&rclk=1,30.7279225,76.7595401,Chandigarh
"Shalby Hospital, Mohali",Hospital,"near PCA Stadium, Phase 9, Sector 63, Sahibzada Ajit Singh Nagar, Chandigarh 160062, India","https://www.google.co.kr/maps/place/Shalby+Hospital,+Mohali/data=!4m5!3m4!1s0x390feea000764e3f:0xd0f04b8e00abed86!8m2!3d30.6923537!4d76.7334135?authuser=0&hl=en&rclk=1",30.6923537,76.7334135,Chandigarh
Apollo Clinic- Best Orthopaedic and Joint Replacement in Chandigarh,Hospital,"SCO 10-11 NEAR GOPAL SWEETS, Madhya Marg, Sector 8C, Chandigarh, 160009, India",https://www.google.co.kr/maps/place/Apollo+Clinic-+Best+Orthopaedic+and+Joint+Replacement+in+Chandigarh/data=!4m5!3m4!1s0x390fed0d63fa7fff:0x4a2871d698c798f6!8m2!3d30.7403361!4d76.7923828?authuser=0&hl=en&rclk=1,30.740336100000004,76.7923828,Chandigarh
Kapoor's Kidney & Urostone Centre Pvt. Ltd.,Hospital,"Site No.2 , Near Gurudwara, Opp. 45-46 Traffic Lights, Sector 46D, Chandigarh, 160047, India",https://www.google.co.kr/maps/place/Kapoor's+Kidney+%26+Urostone+Centre+Pvt.+Ltd./data=!4m5!3m4!1s0x390feda6178c691f:0x2d09cdaacacf8056!8m2!3d30.7029445!4d76.7621179?authuser=0&hl=en&rclk=1,30.7029445,76.7621179,Chandigarh
Grecian Super Specialty Hospital,Hospital,"Phase 9, Sahibzada Ajit Singh Nagar, Punjab 160062, India",https://www.google.co.kr/maps/place/Grecian+Super+Specialty+Hospital/data=!4m5!3m4!1s0x390fee61c0000001:0xd304c964b8144afd!8m2!3d30.6911695!4d76.7230479?authuser=0&hl=en&rclk=1,30.6911695,76.72304790000001,Chandigarh
Nins Brain & Spine Hospital,Hospital,"SCO 341-342, Sub. City Center, Sector 34A, Sector 34, Chandigarh, 160022, India",https://www.google.co.kr/maps/place/Nins+Brain+%26+Spine+Hospital/data=!4m5!3m4!1s0x390fedb315555555:0x1ad14a114d82dc18!8m2!3d30.7219461!4d76.7666137?authuser=0&hl=en&rclk=1,30.7219461,76.7666137,Chandigarh
Civil Hospital,Hospital,"Sector 22 Market Rd, Sector 22-D, Sector 22, Chandigarh, 160022, India",https://www.google.co.kr/maps/place/Civil+Hospital/data=!4m5!3m4!1s0x390feda5b24cdb15:0xe2011cd5e481c9a0!8m2!3d30.7324245!4d76.7715829?authuser=0&hl=en&rclk=1,30.7324245,76.7715829,Chandigarh
Fortis Hospital Mohali,Hospital,"Sector 62, Sahibzada Ajit Singh Nagar, Punjab 160062, India",https://www.google.co.kr/maps/place/Fortis+Hospital+Mohali/data=!4m5!3m4!1s0x390fee9f04ed85e1:0x63296ed41f02307d!8m2!3d30.6952387!4d76.7314157?authuser=0&hl=en&rclk=1,30.695238699999997,76.7314157,Chandigarh
Government Multi Specialty Hospital,Government hospital,"Madhya Marg, Sector 16 A, Sector 16, Chandigarh, 160015, India",https://www.google.co.kr/maps/place/Government+Multi+Specialty+Hospital/data=!4m5!3m4!1s0x390fed9e6aaaaaab:0xb69ac75e920cdba5!8m2!3d30.7515025!4d76.780409?authuser=0&hl=en&rclk=1,30.7515025,76.78040899999999,Chandigarh
Civil Hospital Manimajra,Hospital,"PR7R+3XR, Sector 13, Chandigarh, Haryana 160101, India",https://www.google.co.kr/maps/place/Civil+Hospital+Manimajra/data=!4m5!3m4!1s0x390f933b70683ce9:0xe1cb4161a4fe0e32!8m2!3d30.7127379!4d76.8424016?authuser=0&hl=en&rclk=1,30.712737899999997,76.84240159999999,Chandigarh
German Hospital,Hospital,"Karoran Road Nayagaon, Chandigarh, 160103, India",https://www.google.co.kr/maps/place/German+Hospital/data=!4m5!3m4!1s0x390ff299bdd867b3:0xa01dabfb3adba421!8m2!3d30.7789672!4d76.8031235?authuser=0&hl=en&rclk=1,30.7789672,76.8031235,Chandigarh
General Hospital,Hospital,"Phase 2, Sector 54, Sahibzada Ajit Singh Nagar, Chandigarh 160059, India",https://www.google.co.kr/maps/place/General+Hospital/data=!4m5!3m4!1s0x390fee70883996d7:0xe500390052a24270!8m2!3d30.7262357!4d76.7250677?authuser=0&hl=en&rclk=1,30.7262357,76.7250677,Chandigarh
Tera Hi Tera Mission Hospital,Hospital,"Sco 138, opposite E Sampark Center, Sector 45C, Sector 45, Chandigarh, India",https://www.google.co.kr/maps/place/Tera+Hi+Tera+Mission+Hospital/data=!4m5!3m4!1s0x390fed36ce0f19ad:0xb0b7e9357ca275d9!8m2!3d30.7048686!4d76.7592749?authuser=0&hl=en&rclk=1,30.704868599999998,76.75927490000001,Chandigarh
Jindal IVF and Sant Memorial Nursing Home,Hospital,"#3050, behind Sri Guru Ravidass Bhawan, Sector 20D, Chandigarh, 160020, India",https://www.google.co.kr/maps/place/Jindal+IVF+and+Sant+Memorial+Nursing+Home/data=!4m5!3m4!1s0x390fed0040000001:0x944d4bb17429be75!8m2!3d30.7190721!4d76.7758507?authuser=0&hl=en&rclk=1,30.7190721,76.77585069999999,Chandigarh
P.G.I Hospital,Hospital,"Government High School Rd, Sector 35D, Sector 35, Chandigarh, 160022, India",https://www.google.co.kr/maps/place/P.G.I+Hospital/data=!4m5!3m4!1s0x390fedc82fffffff:0x8fffa3a3543256b2!8m2!3d30.7667459!4d76.7773869?authuser=0&hl=en&rclk=1,30.766745899999997,76.77738690000001,Chandigarh
Fortis hospital,Hospital,"MQHQ+89Q, Chandigarh Airport Area, Chandigarh, 160003, India",https://www.google.co.kr/maps/place/Fortis+hospital/data=!4m5!3m4!1s0x390fede1040a7ca7:0x4865d99d3ac9840e!8m2!3d30.6783321!4d76.7884713?authuser=0&hl=en&rclk=1,30.6783321,76.7884713,Chandigarh
Cosmo Hospital,Hospital,"Cosmo Hospital, Sector 62, Sahibzada Ajit Singh Nagar, Punjab 160062, India",https://www.google.co.kr/maps/place/Cosmo+Hospital/data=!4m5!3m4!1s0x390fee9974b8ceb5:0xd51ba6b758b17a7d!8m2!3d30.6993482!4d76.727238?authuser=0&hl=en&rclk=1,30.699348200000003,76.727238,Chandigarh
"Ayu Health Super-Speciality Hospital, Sector 34, Chandigarh",Hospital,"S.C.O, 49, Dakshin Marg, Sector 34A, Chandigarh, 160022, India","https://www.google.co.kr/maps/place/Ayu+Health+Super-Speciality+Hospital,+Sector+34,+Chandigarh/data=!4m5!3m4!1s0x390fed9715799d6f:0x12346f92345efe40!8m2!3d30.7229206!4d76.7705566?authuser=0&hl=en&rclk=1",30.722920600000002,76.7705566,Chandigarh
"PGI Hospital, Chandigarh",Hospital,"PGIMER, Madhya Marg, Sector 12, Chandigarh, 160012, India","https://www.google.co.kr/maps/place/PGI+Hospital,+Chandigarh/data=!4m5!3m4!1s0x390feddd2636254b:0xc6016b971a74b592!8m2!3d30.7604584!4d76.775389?authuser=0&hl=en&rclk=1",30.760458399999997,76.775389,Chandigarh
Charitable hospital,Hospital,"Unnamed Road, 24B, Sector 24, Chandigarh, 160036, India",https://www.google.co.kr/maps/place/Charitable+hospital/data=!4m5!3m4!1s0x390fedc995ce3bd1:0x43f572f8537f6b42!8m2!3d30.7476311!4d76.7661675?authuser=0&hl=en&rclk=1,30.7476311,76.76616750000001,Chandigarh
Govt Hospital,Hospital,"govt hospital, Sector 16 A, Sector 16, Chandigarh, 160015, India",https://www.google.co.kr/maps/place/Govt+Hospital/data=!4m5!3m4!1s0x390fed76100fa67f:0xb8786f074c93626!8m2!3d30.7488367!4d76.7805736?authuser=0&hl=en&rclk=1,30.7488367,76.7805736,Chandigarh
Ortho OPD GOVT HOSPITAL Sec 16 Chandigarh,Hospital,"Sector 16 A, Sector 16, Chandigarh, 160015, India",https://www.google.co.kr/maps/place/Ortho+OPD+GOVT+HOSPITAL+Sec+16+Chandigarh/data=!4m5!3m4!1s0x390fed7632fd76fd:0xd49cd128bb32ca48!8m2!3d30.7507733!4d76.7807151?authuser=0&hl=en&rclk=1,30.750773300000002,76.7807151,Chandigarh
Hospital,Hospital,"Sector 9C, Sector 32D, Sector 46, Chandigarh, 160047, India",https://www.google.co.kr/maps/place/Hospital/data=!4m5!3m4!1s0x390fedc511ea907b:0x128b2d5dd82f719b!8m2!3d30.7076048!4d76.7744792?authuser=0&hl=en&rclk=1,30.707604800000002,76.7744792,Chandigarh
Tera Hi Tera,Hospital,"158 Burail, Ekta Market, Burail Village, Sector 45, Chandigarh, 160047, India",https://www.google.co.kr/maps/place/Tera+Hi+Tera/data=!4m5!3m4!1s0x390fede3ce7b74e5:0x8c524e95cb84b5ab!8m2!3d30.7050248!4d76.7592618?authuser=0&hl=en&rclk=1,30.705024800000004,76.7592618,Chandigarh
PGI Chandigarh,Hospital,"New OPD PGI, Sector 12, Chandigarh, 160012, India",https://www.google.co.kr/maps/place/PGI+Chandigarh/data=!4m5!3m4!1s0x390ff38e8152b0cd:0xde151a432d7c2bec!8m2!3d30.766192!4d76.7783748?authuser=0&hl=en&rclk=1,30.766191999999997,76.77837480000001,Chandigarh
"Fortis Medcentre Hospital in Chandigarh, Punjab",Medical clinic,"SCO, 11D, Sector 11, Chandigarh, 160011, India","https://www.google.co.kr/maps/place/Fortis+Medcentre+Hospital+in+Chandigarh,+Punjab/data=!4m5!3m4!1s0x390fed793fffff97:0x26ac8f25971112f6!8m2!3d30.7606565!4d76.7820387?authuser=0&hl=en&rclk=1",30.7606565,76.7820387,Chandigarh
New Chandigarh Hospital,Hospital,"QPXW+H94, Mullanpur Garibdass, Punjab 140901, India",https://www.google.co.kr/maps/place/New+Chandigarh+Hospital/data=!4m5!3m4!1s0x390ff231c54812bd:0x7080dfbdf7a1d5f2!8m2!3d30.7988866!4d76.7459584?authuser=0&hl=en&rclk=1,30.798886600000003,76.7459584,Chandigarh
"Ayu Health Multi Specialty Hospital, Sector 8C, Chandigarh",Hospital,"SCO 10-11, Sector 8C, Sector 8, Chandigarh, 160009, India","https://www.google.co.kr/maps/place/Ayu+Health+Multi+Specialty+Hospital,+Sector+8C,+Chandigarh/data=!4m5!3m4!1s0x390fed7b3e83d78d:0x78ee6333631f0766!8m2!3d30.7403407!4d76.7924143?authuser=0&hl=en&rclk=1",30.7403407,76.79241429999999,Chandigarh
Mata Kulbir Kaur Ji Charitable Hospital,Government hospital,"Gurudwara Santsar Sahib, Paschim Marg, Sector 38 West, Sector 38, Chandigarh, 160036, India",https://www.google.co.kr/maps/place/Mata+Kulbir+Kaur+Ji+Charitable+Hospital/data=!4m5!3m4!1s0x390fede4716d2b69:0xb938dbdf1360196f!8m2!3d30.745727!4d76.7399096?authuser=0&hl=en&rclk=1,30.745727000000002,76.73990959999999,Chandigarh
Kaushal Hospital,Hospital,"SCO 49, Sector 42 C, Chandigarh, 160036, India",https://www.google.co.kr/maps/place/Kaushal+Hospital/data=!4m5!3m4!1s0x390fedd1de7e8007:0x21591b315bfbfa0d!8m2!3d30.722822!4d76.7448178?authuser=0&hl=en&rclk=1,30.722821999999997,76.74481779999999,Chandigarh
Hospital,Hospital,"22A, Sector 22, Chandigarh, 160062, India",https://www.google.co.kr/maps/place/Hospital/data=!4m5!3m4!1s0x390fee97717eccab:0x7d39d606bef34734!8m2!3d30.7345113!4d76.7724913?authuser=0&hl=en&rclk=1,30.7345113,76.7724913,Chandigarh
Hospital Sectar 16,Hospital,"Sector 18D, Sector 18, Chandigarh, 160022, India",https://www.google.co.kr/maps/place/Hospital+Sectar+16/data=!4m5!3m4!1s0x390feda785d2ec5f:0x89b99596ffcf6d99!8m2!3d30.7333148!4d76.7794179?authuser=0&hl=en&rclk=1,30.7333148,76.7794179,Chandigarh
Mayo Hospital,Hospital,"MQH4+HQ9, Jagatpura, Chandigarh, Punjab 140306, India",https://www.google.co.kr/maps/place/Mayo+Hospital/data=!4m5!3m4!1s0x390fec734c71d62b:0x3973575c8c131e7f!8m2!3d30.6789213!4d76.7569755?authuser=0&hl=en&rclk=1,30.6789213,76.7569755,Chandigarh
ESIC Model Hospital,Hospital,"Industrial Area, Phase-2, Ram Darbar, Chandigarh, 160002, India",https://www.google.co.kr/maps/place/ESIC+Model+Hospital/data=!4m5!3m4!1s0x390feb7d07c8944b:0xb363cbb60125275e!8m2!3d30.6967489!4d76.7880026?authuser=0&hl=en&rclk=1,30.6967489,76.7880026,Chandigarh
"E.S.I. Dispensary, Sector-23 C",Government hospital,"2296, Dakshin Marg, 23C, Sector 23, Chandigarh, 160023, India","https://www.google.co.kr/maps/place/E.S.I.+Dispensary,+Sector-23+C/data=!4m5!3m4!1s0x390fedbc1f3d6007:0x182c7429a0a31b1e!8m2!3d30.7362389!4d76.7627779?authuser=0&hl=en&rclk=1",30.736238899999996,76.7627779,Chandigarh
Civil Hospital and Dispensary,Hospital,"1642, Burail, Burail Village, Sector 45, Chandigarh, 160047, India",https://www.google.co.kr/maps/place/Civil+Hospital+and+Dispensary/data=!4m5!3m4!1s0x390fec4887bab8bf:0xa1e03cc9b0e88eeb!8m2!3d30.704252!4d76.7608845?authuser=0&hl=en&rclk=1,30.704252,76.7608845,Chandigarh
"ARV Orthopaedic Hospital (Best Trauma | Knee Replacement | Orthopedic | Doctor| Hospital In Chandigarh, Panchkula, Mohali, Punjab and Himachal)",Orthopedic surgeon,"2125, Sarovar Path, Sector 21C, Sector 21, Chandigarh, 160002, India","https://www.google.co.kr/maps/place/ARV+Orthopaedic+Hospital+(Best+Trauma+%7C+Knee+Replacement+%7C+Orthopedic+%7C+Doctor%7C+Hospital+In+Chandigarh,+Panchkula,+Mohali,+Punjab+and+Himachal)/data=!4m5!3m4!1s0x390fedaec786bc67:0x39efa012337a5ad9!8m2!3d30.724101!4d76.774772?authuser=0&hl=en&rclk=1",30.724101,76.774772,Chandigarh
Sangam Neuro Hospital,Hospital,"# 619, Sector 18-B, Chandigarh, 160018, India",https://www.google.co.kr/maps/place/Sangam+Neuro+Hospital/data=!4m5!3m4!1s0x390fed0560b66143:0x986241a5439f1ce6!8m2!3d30.7317226!4d76.7898141?authuser=0&hl=en&rclk=1,30.7317226,76.7898141,Chandigarh
"Block A, Nehru Hospital PGI",Hospital,"Nehru Hospital PGI, Madhya Marg, Sector 12, Chandigarh, 160012, India","https://www.google.co.kr/maps/place/Block+A,+Nehru+Hospital+PGI/data=!4m5!3m4!1s0x390fed80e18baf6d:0x8f57a2f13e9f034e!8m2!3d30.761799!4d76.7758368?authuser=0&hl=en&rclk=1",30.761799,76.77583680000001,Chandigarh
Municipal Corporation Chandigarh Civil Dispensary,Government hospital,"Sector 19 A, Chandigarh 160019, India",https://www.google.co.kr/maps/place/Municipal+Corporation+Chandigarh+Civil+Dispensary/data=!4m5!3m4!1s0x390fed1a5eb8ef8f:0x6e3ca65b4661533c!8m2!3d30.7308811!4d76.794519?authuser=0&hl=en&rclk=1,30.730881099999998,76.794519,Chandigarh
Dr Chandra Hospital,Hospital,"3311 Sector 19, Sector-26, Sector-26, Chandigarh, 160019, India",https://www.google.co.kr/maps/place/Dr+Chandra+Hospital/data=!4m5!3m4!1s0x390fed23bfffffff:0x1cafa8d3712a469e!8m2!3d30.7296617!4d76.8072196?authuser=0&hl=en&rclk=1,30.729661699999998,76.8072196,Chandigarh
Deep Hospital,Hospital,"QP7X+C79, HBC, Dhanas, Chandigarh, 160014, India",https://www.google.co.kr/maps/place/Deep+Hospital/data=!4m5!3m4!1s0x390ff209b30edd3f:0x5938713d06fb8240!8m2!3d30.7635471!4d76.7482331?authuser=0&hl=en&rclk=1,30.7635471,76.7482331,Chandigarh
R.M.L Hospital Delhi,Hospital,"312, Sector 21A, Sector 21, Chandigarh, 160022, India",https://www.google.co.kr/maps/place/R.M.L+Hospital+Delhi/data=!4m5!3m4!1s0x390fedb4d3e24565:0x7a75260fad235b3f!8m2!3d30.7300069!4d76.7800113?authuser=0&hl=en&rclk=1,30.730006899999996,76.7800113,Chandigarh
Hospital,Hospital,"Department of Community Medicine and School of Public Health, PGIMER, Sector 12, Chandigarh, 160012, India",https://www.google.co.kr/maps/place/Hospital/data=!4m5!3m4!1s0x390ff3ed390a5bbd:0xaad6c5229540f7d9!8m2!3d30.7648189!4d76.775638?authuser=0&hl=en&rclk=1,30.7648189,76.775638,Chandigarh
Pandhi Hospital,Hospital,"1151, 36 C, Near Park, Sector 36, Chandigarh, 160036, India",https://www.google.co.kr/maps/place/Pandhi+Hospital/data=!4m5!3m4!1s0x390fedc8c0367197:0x296beed0797897ec!8m2!3d30.726711!4d76.752333?authuser=0&hl=en&rclk=1,30.726710999999998,76.752333,Chandigarh
Genl Hospital,Hospital,"Sector 16, Chandigarh, 160015, India",https://www.google.co.kr/maps/place/Genl+Hospital/data=!4m5!3m4!1s0x390fed9e6aaaaaab:0xe4743f46cad70062!8m2!3d30.7464418!4d76.7783748?authuser=0&hl=en&rclk=1,30.7464418,76.77837480000001,Chandigarh
Dr Aseem Goyal - Fracture Specialist In Chandigarh,Hospital,"SCO 10, Sector 27D, Sector 27, Chandigarh, 160019, India",https://www.google.co.kr/maps/place/Dr+Aseem+Goyal+-+Fracture+Specialist+In+Chandigarh/data=!4m5!3m4!1s0x390fed03aa0f9349:0xc3dfe780adaf0c5c!8m2!3d30.7248499!4d76.7963295?authuser=0&hl=en&rclk=1,30.724849900000002,76.7963295,Chandigarh
Piles clinic,Hospital,"piles clinic at 2164, near old shiv mandir, Sector 21C, Chandigarh 160022, India",https://www.google.co.kr/maps/place/Piles+clinic/data=!4m5!3m4!1s0x390fed100080c6a3:0x6d0b099513cbac74!8m2!3d30.7246243!4d76.7744686?authuser=0&hl=en&rclk=1,30.724624300000002,76.77446859999999,Chandigarh
Ropar Hospital,Hospital,"Street Number 10, Phase 3B-1, Sector 60, Sahibzada Ajit Singh Nagar, Chandigarh 160059, India",https://www.google.co.kr/maps/place/Ropar+Hospital/data=!4m5!3m4!1s0x390fee872dfbf101:0x53e6b9af6988cb64!8m2!3d30.7122361!4d76.7275442?authuser=0&hl=en&rclk=1,30.712236100000002,76.7275442,Chandigarh
Chandigarh Hospice,Hospital,"Shanti Path, next to Shakambari Devi Temple, Sector 43-A, Sector 43, Chandigarh, 160022, India",https://www.google.co.kr/maps/place/Chandigarh+Hospice/data=!4m5!3m4!1s0x390fedc957c7d43b:0xd6bc9ea97c06d655!8m2!3d30.722528!4d76.7514214?authuser=0&hl=en&rclk=1,30.722528000000004,76.7514214,Chandigarh
NDDRC Dr. Hardeep Singh,Hospital,"BD Hospital, Udyog Path, 23B, Sector 23, Chandigarh, 160023, India",https://www.google.co.kr/maps/place/NDDRC+Dr.+Hardeep+Singh/data=!4m5!3m4!1s0x390feda2127aaaab:0x34fa7bb993724192!8m2!3d30.7408872!4d76.7728304?authuser=0&hl=en&rclk=1,30.740887199999996,76.7728304,Chandigarh
Miri Piri Hospital,Hospital,"Plot No 06, Kalgidhar Niwas, Sector 27 B, Manimajra, Manimajra, Sector 13, Chandigarh, 160101, India",https://www.google.co.kr/maps/place/Miri+Piri+Hospital/data=!4m5!3m4!1s0x390f9331ad749419:0xd07e3add4d346d86!8m2!3d30.7119422!4d76.8345485?authuser=0&hl=en&rclk=1,30.711942200000003,76.8345485,Chandigarh
Chandan Hospital,Heart hospital,"House No 891 Phase, 7, Sector 61, Sahibzada Ajit Singh Nagar, Chandigarh 160062, India",https://www.google.co.kr/maps/place/Chandan+Hospital/data=!4m5!3m4!1s0x390fee84864b8ae9:0x450f5c226b4830cd!8m2!3d30.7055791!4d76.7273072?authuser=0&hl=en&rclk=1,30.7055791,76.7273072,Chandigarh
Government Multi Specialty Hospital,Hospital,"MQQ4+C28, Sector 48A, Sector 48, Chandigarh, 160047, India",https://www.google.co.kr/maps/place/Government+Multi+Specialty+Hospital/data=!4m5!3m4!1s0x390feded8e8db57f:0xd2cce552fdfa2210!8m2!3d30.6885371!4d76.7550785?authuser=0&hl=en&rclk=1,30.688537100000005,76.7550785,Chandigarh
GMSH,Hospital,"Sector 16 A, Sector 16, Chandigarh, 160015, India",https://www.google.co.kr/maps/place/GMSH/data=!4m5!3m4!1s0x390fed77ccb61817:0x2d235dd96c0bf685!8m2!3d30.750953!4d76.7808114?authuser=0&hl=en&rclk=1,30.750953000000003,76.7808114,Chandigarh
Hospital,Hospital,"2608, Sector 24C, Sector 24, Chandigarh, 160036, India",https://www.google.co.kr/maps/place/Hospital/data=!4m5!3m4!1s0x390fed943fffffff:0x7d77741585b18ac7!8m2!3d30.7446536!4d76.7610647?authuser=0&hl=en&rclk=1,30.744653600000003,76.7610647,Chandigarh
Get Well Clinic - 2,Hospital,"1st Flor, Two Bay, Scf 6 Sector 20 C, Sector-18, Sector-18, Chandigarh, 160018, India",https://www.google.co.kr/maps/place/Get+Well+Clinic+-+2/data=!4m5!3m4!1s0x390fed0faaaaaaab:0xc70a854036b827d6!8m2!3d30.7347851!4d76.7884713?authuser=0&hl=en&rclk=1,30.734785100000003,76.7884713,Chandigarh
D.F.T hospital & dialysis centre,Hospital,"Kurali Chandigarh Rd, DLF Mullanpur, Chandigarh, 160014, India",https://www.google.co.kr/maps/place/D.F.T+hospital+%26+dialysis+centre/data=!4m5!3m4!1s0x390ff347c3f2ede5:0x26a579a55d5e9230!8m2!3d30.7924374!4d76.7513483?authuser=0&hl=en&rclk=1,30.7924374,76.7513483,Chandigarh
"Advanced Trauma Centre, PGI",Hospital,"Sector 12, Chandigarh, 160012, India","https://www.google.co.kr/maps/place/Advanced+Trauma+Centre,+PGI/data=!4m5!3m4!1s0x390fed81244c362f:0xc56011630b2511b0!8m2!3d30.7611361!4d76.7749661?authuser=0&hl=en&rclk=1",30.7611361,76.7749661,Chandigarh
PGIMER,Hospital,"Sector 18D, Sector 18, Chandigarh, 160022, India",https://www.google.co.kr/maps/place/PGIMER/data=!4m5!3m4!1s0x390feda785d2ec5f:0xe5671b1f57ed6494!8m2!3d30.7333148!4d76.7794179?authuser=0&hl=en&rclk=1,30.7333148,76.7794179,Chandigarh
Chopra Hospital And Diagnostic Centre,Hospital,"781/1, Chopra Hospital, Opposite Kalagram, Modern Complex Road, Modern Housing Complex, Sector 13, Chandigarh, 160101, India",https://www.google.co.kr/maps/place/Chopra+Hospital+And+Diagnostic+Centre/data=!4m5!3m4!1s0x390f9331c9e54687:0x8dac3f100798fd0b!8m2!3d30.7127188!4d76.834207?authuser=0&hl=en&rclk=1,30.7127188,76.83420699999999,Chandigarh
Anti rabies clinic,Hospital,"Sector 19 A, Chandigarh 160019, India",https://www.google.co.kr/maps/place/Anti+rabies+clinic/data=!4m5!3m4!1s0x390fedd5edb6201d:0x231ce03c4af1e01f!8m2!3d30.7307156!4d76.794708?authuser=0&hl=en&rclk=1,30.730715600000003,76.794708,Chandigarh
Gallbladder Stone Clinic,Hospital,"2164, Sector 21C, Sector 21, Chandigarh, 160022, India",https://www.google.co.kr/maps/place/Gallbladder+Stone+Clinic/data=!4m5!3m4!1s0x390fedab36a9810d:0x51834c0aa8ca06bd!8m2!3d30.7240259!4d76.7752853?authuser=0&hl=en&rclk=1,30.724025899999997,76.77528530000001,Chandigarh
ESIC Dispensary,Government hospital,"Sector 29D, 29D, Sector 29, Chandigarh, 160030, India",https://www.google.co.kr/maps/place/ESIC+Dispensary/data=!4m5!3m4!1s0x390fecfab4985a3b:0xc3227b58a826c2b1!8m2!3d30.7109815!4d76.7909292?authuser=0&hl=en&rclk=1,30.7109815,76.79092920000001,Chandigarh
DFT HOSPITAL,Hospital,"QQV2+6G8, Mullanpur Garibdass, Chandigarh 140901, India",https://www.google.co.kr/maps/place/DFT+HOSPITAL/data=!4m5!3m4!1s0x390ff35ee3e24121:0x4141b283ffbc22e7!8m2!3d30.7930373!4d76.7513422?authuser=0&hl=en&rclk=1,30.7930373,76.7513422,Chandigarh
Health Centre,Hospital,"Hno F-19 14, Manimajra, Sector 13, Chandigarh, Haryana 160014, India",https://www.google.co.kr/maps/place/Health+Centre/data=!4m5!3m4!1s0x390f9331ad749419:0xaf1ac1275e6b6f91!8m2!3d30.711759!4d76.835999?authuser=0&hl=en&rclk=1,30.711759000000004,76.835999,Chandigarh
Air Force Hospital,Hospital,"PQ3H+835, 31D, Sector 31, Chandigarh, 160030, India",https://www.google.co.kr/maps/place/Air+Force+Hospital/data=!4m5!3m4!1s0x390fec58cfebbbf7:0x450955f976d8d561!8m2!3d30.703264!4d76.7777285?authuser=0&hl=en&rclk=1,30.703264,76.77772850000001,Chandigarh
Good Health Medical Centre,Medical Center,"846, Sector 38, Sector 38, Chandigarh, 160014, India",https://www.google.co.kr/maps/place/Good+Health+Medical+Centre/data=!4m5!3m4!1s0x390fede430000001:0x5bfd2b39a054b90e!8m2!3d30.7407971!4d76.7444511?authuser=0&hl=en&rclk=1,30.7407971,76.74445109999999,Chandigarh
Best Hospital In Mohali - Grecian Hospital,Hospital,"Phase 9, Sahibzada Ajit Singh Nagar, Punjab 160062, India",https://www.google.co.kr/maps/place/Best+Hospital+In+Mohali+-+Grecian+Hospital/data=!4m5!3m4!1s0x390fef61c8c1f933:0xd99563bb6562abea!8m2!3d30.6914722!4d76.7224095?authuser=0&hl=en&rclk=1,30.6914722,76.7224095,Chandigarh
Government Dispensary,Government hospital,"PQX7+9Q8, 24A, Sector 24, Chandigarh, 160036, India",https://www.google.co.kr/maps/place/Government+Dispensary/data=!4m5!3m4!1s0x390fed9111b0ab1d:0xaec09175ab2f4ab7!8m2!3d30.7484194!4d76.7644465?authuser=0&hl=en&rclk=1,30.748419399999996,76.76444649999999,Chandigarh
Poly Clinic,Hospital,"Sector 22C, Sector 22-D, Sector 21, Chandigarh, 160022, India",https://www.google.co.kr/maps/place/Poly+Clinic/data=!4m5!3m4!1s0x390feda5ba45f359:0x53ece89e688b7a11!8m2!3d30.7322314!4d76.7721082?authuser=0&hl=en&rclk=1,30.7322314,76.7721082,Chandigarh
J P Medical Centre,Medical Center,"House No. 3031, Sector 19-D, Chandigarh, 160019, India",https://www.google.co.kr/maps/place/J+P+Medical+Centre/data=!4m5!3m4!1s0x390fed044c771537:0x27924c320a14937!8m2!3d30.7286009!4d76.7874863?authuser=0&hl=en&rclk=1,30.728600899999996,76.7874863,Chandigarh
Trauma centre PGIMER,Hospital,"11, Sector 12, Chandigarh, 160012, India",https://www.google.co.kr/maps/place/Trauma+centre+PGIMER/data=!4m5!3m4!1s0x390fedd1f7c93249:0x43623234904897d3!8m2!3d30.7617227!4d76.7746382?authuser=0&hl=en&rclk=1,30.7617227,76.7746382,Chandigarh
Grecian Hospital Diagnostic/ PET CT,Hospital,"Sector 69, Sahibzada Ajit Singh Nagar, Punjab 160062, India",https://www.google.co.kr/maps/place/Grecian+Hospital+Diagnostic%2F+PET+CT/data=!4m5!3m4!1s0x390fefac7c545789:0x74edb1d61e6f0491!8m2!3d30.6916567!4d76.7209933?authuser=0&hl=en&rclk=1,30.6916567,76.72099329999999,Chandigarh
Military hospital,Hospital,"PQMH+8QF, Sector 18D, Sector 18, Chandigarh, 160022, India",https://www.google.co.kr/maps/place/Military+hospital/data=!4m5!3m4!1s0x390fed0e8a155825:0xe64daffd66efa177!8m2!3d30.7333148!4d76.7794179?authuser=0&hl=en&rclk=1,30.7333148,76.7794179,Chandigarh
Cloudnine Hospital (Paras/Pure Bliss) - Panchkula,Maternity hospital,"Room 4C,Sector -5,Swastik Vihar, Mansa Devi Complex, Panchkula, Haryana 134109, India",https://www.google.co.kr/maps/place/Cloudnine+Hospital+(Paras%2FPure+Bliss)+-+Panchkula/data=!4m5!3m4!1s0x390f931e90d77661:0xa3c4b4b48acc4d7d!8m2!3d30.716996!4d76.851485?authuser=0&hl=en&rclk=1,30.716996,76.851485,Chandigarh
vandna clinic,Hospital,"MQRR+3HM, Phase-2, Ram Darbar, Chandigarh, 160002, India",https://www.google.co.kr/maps/place/vandna+clinic/data=!4m5!3m4!1s0x390fec91d5eeaa1b:0xcc22ecb2a3dffb47!8m2!3d30.6902159!4d76.7914184?authuser=0&hl=en&rclk=1,30.6902159,76.7914184,Chandigarh
Govt Vety Hospital Hallomajra,Hospital,"Ram Darbar Rd, Hallo Majra, Chandigarh, 160002, India",https://www.google.co.kr/maps/place/Govt+Vety+Hospital+Hallomajra/data=!4m5!3m4!1s0x390fed124ec10545:0x3f9f264abb35a0ba!8m2!3d30.6925179!4d76.7967219?authuser=0&hl=en&rclk=1,30.692517900000002,76.79672190000001,Chandigarh
Dr Harbant's Surgical Clinic,Hospital,"House no 3310, Sector 21 D, Sector 21, Chandigarh, 160022, India",https://www.google.co.kr/maps/place/Dr+Harbant's+Surgical+Clinic/data=!4m5!3m4!1s0x390fedcd719594a9:0x97c6e62f727c9835!8m2!3d30.727886!4d76.7751187?authuser=0&hl=en&rclk=1,30.727885999999998,76.77511870000001,Chandigarh
"Grecian Hospital - Best Gynecologist, Obstetrician and Gynaecology Specialist Hospital in Chandigarh Mohali",Obstetrician-gynecologist,"OPD 137, Block B First Floor Ext 307, Sector 69, Sahibzada Ajit Singh Nagar, Punjab 160062, India","https://www.google.co.kr/maps/place/Grecian+Hospital+-+Best+Gynecologist,+Obstetrician+and+Gynaecology+Specialist+Hospital+in+Chandigarh+Mohali/data=!4m5!3m4!1s0x390fef548b0cd1a7:0x179d247c228b216b!8m2!3d30.692499!4d76.7206652?authuser=0&hl=en&rclk=1",30.692498999999998,76.7206652,Chandigarh
Pja Hospital,Hospital,"PQMH+8QF, Sector 18D, Sector 18, Chandigarh, 160022, India",https://www.google.co.kr/maps/place/Pja+Hospital/data=!4m5!3m4!1s0x390fed5791a36e27:0x6d811222c4b27a7a!8m2!3d30.7333148!4d76.7794179?authuser=0&hl=en&rclk=1,30.7333148,76.7794179,Chandigarh
Breast clinic,Hospital,"house no 2164, Sector 21C, Sector 19, Chandigarh, 160019, India",https://www.google.co.kr/maps/place/Breast+clinic/data=!4m5!3m4!1s0x390fedc8f401f8af:0x963afe6368ac5e30!8m2!3d30.7247527!4d76.7904974?authuser=0&hl=en&rclk=1,30.7247527,76.7904974,Chandigarh
Command Hospital,Military hospital,"Chandimandir Cantonment, Panchkula, Haryana 134114, India",https://www.google.co.kr/maps/place/Command+Hospital/data=!4m5!3m4!1s0x39125da874435b1d:0xfabb429f1cbacc18!8m2!3d30.7123982!4d76.8543393?authuser=0&hl=en&rclk=1,30.712398200000003,76.85433929999999,Chandigarh
Hospital for sale lease,Hospital,"HM 61, Phase 3B-1, Sector 60, Sahibzada Ajit Singh Nagar, Chandigarh 160059, India",https://www.google.co.kr/maps/place/Hospital+for+sale+lease/data=!4m5!3m4!1s0x390fef1641c25f11:0xf9ebd7b18074bf46!8m2!3d30.7141567!4d76.7208773?authuser=0&hl=en&rclk=1,30.714156699999997,76.7208773,Chandigarh
Dr J P Singh,Medical Center,"3031, Sector 19-D, Chandigarh, 160019, India",https://www.google.co.kr/maps/place/Dr+J+P+Singh/data=!4m5!3m4!1s0x390fed23bfffffff:0xc509a4c2cf9541b9!8m2!3d30.728805!4d76.787395?authuser=0&hl=en&rclk=1,30.728804999999998,76.78739499999999,Chandigarh
Dr. Kanchan Clinic,Hospital,"403, Hallomajra Chowk, Industrial Area Phase I, Chandigarh, 160101, India",https://www.google.co.kr/maps/place/Dr.+Kanchan+Clinic/data=!4m5!3m4!1s0x390fec94416b20f3:0xd7c262509cdcf535!8m2!3d30.6951951!4d76.7988256?authuser=0&hl=en&rclk=1,30.6951951,76.79882559999999,Chandigarh
BBMB DISPENSARY,Hospital,"Purv Marg, Sector 34B, Industrial Area Phase I, Chandigarh, 160030, India",https://www.google.co.kr/maps/place/BBMB+DISPENSARY/data=!4m5!3m4!1s0x390feceef831b8dd:0x9dd843d655edcf03!8m2!3d30.7065163!4d76.7943907?authuser=0&hl=en&rclk=1,30.7065163,76.7943907,Chandigarh
Navya Tarang Clinic SCO 76,Hospital,"63, Ram Darbar, Chandigarh, 160002, India",https://www.google.co.kr/maps/place/Navya+Tarang+Clinic+SCO+76/data=!4m5!3m4!1s0x390fec8e788141e1:0xbc1540f83f6bd5c2!8m2!3d30.6924921!4d76.7889889?authuser=0&hl=en&rclk=1,30.692492100000003,76.7889889,Chandigarh
Dispensary,Hospital,"B, Sector 44, Chandigarh, 160047, India",https://www.google.co.kr/maps/place/Dispensary/data=!4m5!3m4!1s0x390fec4a073de865:0x30221152f69f17b7!8m2!3d30.712202!4d76.7568525?authuser=0&hl=en&rclk=1,30.712202,76.75685250000001,Chandigarh
Matsya Hospital,Hospital,"At Gateway Of Chandigarh Chandigarh-Zirakpur Road Sunny Enclave Zirakpur Sahibazada, Sahibzada Ajit Singh Nagar, Punjab 140603, India",https://www.google.co.kr/maps/place/Matsya+Hospital/data=!4m5!3m4!1s0x390feb4ec2f0bb41:0x69148a5f4fa2d5e4!8m2!3d30.662907!4d76.8181885?authuser=0&hl=en&rclk=1,30.662907,76.8181885,Chandigarh
child memorial trast hospital,Hospital,"Mani Majra Rd, Mariwala Town, Adarsh Nagar, Sector 13, Chandigarh, 160101, India",https://www.google.co.kr/maps/place/child+memorial+trast+hospital/data=!4m5!3m4!1s0x390f932b8431aaa5:0xec6fe2773dfee167!8m2!3d30.7196454!4d76.829356?authuser=0&hl=en&rclk=1,30.719645399999997,76.829356,Chandigarh
Sohana Hospital,Hospital,"Sohana Hospital Sector 77, Mohali Multi Super Specialty Hospital, Sahibzada Ajit Singh Nagar, Punjab 140308, India",https://www.google.co.kr/maps/place/Sohana+Hospital/data=!4m5!3m4!1s0x390feee61e99e667:0x3fabe7f5484f0762!8m2!3d30.6927961!4d76.6991749?authuser=0&hl=en&rclk=1,30.692796100000002,76.6991749,Chandigarh
Forties hospital mohali,Hospital,"Mohali Railway Station Rd, Phase 11, Sector 65, Sahibzada Ajit Singh Nagar, Punjab 160062, India",https://www.google.co.kr/maps/place/Forties+hospital+mohali/data=!4m5!3m4!1s0x390fedfe782af5db:0x5024dd1c9991de00!8m2!3d30.6774506!4d76.7405834?authuser=0&hl=en&rclk=1,30.6774506,76.7405834,Chandigarh
The Catalyst Clinic,Hospital,"House no 51, Sector 20A, Sector 21A, Sector 21, Chandigarh, 160022, India",https://www.google.co.kr/maps/place/The+Catalyst+Clinic/data=!4m5!3m4!1s0x390fed7391cb1b7d:0x9ebc64d68c8f5f80!8m2!3d30.7277958!4d76.7764752?authuser=0&hl=en&rclk=1,30.7277958,76.7764752,Chandigarh
Hospital,Dialysis center,"Sub. City Center, Sector 34A, Sector 34, Chandigarh, 160012, India",https://www.google.co.kr/maps/place/Hospital/data=!4m5!3m4!1s0x390fed816fad03e7:0x220e221f43de99d8!8m2!3d30.7239701!4d76.7659423?authuser=0&hl=en&rclk=1,30.7239701,76.76594229999999,Chandigarh
Dr. Karun Singla Urologist,Urologist,"Healing Hospital Chandigarh, Sub. City Center, Sector 34A, Sector 34, Chandigarh, 160034, India",https://www.google.co.kr/maps/place/Dr.+Karun+Singla+Urologist/data=!4m5!3m4!1s0x390fedecf5825fe3:0x6fb64b795710cfe5!8m2!3d30.7247639!4d76.7687643?authuser=0&hl=en&rclk=1,30.724763899999996,76.76876429999999,Chandigarh
National Medical And Dialysis Centre,Diagnostic center,"No. 516, opp. Hotel Mountview, 10D, Sector 10, Chandigarh, 160011, India",https://www.google.co.kr/maps/place/National+Medical+And+Dialysis+Centre/data=!4m5!3m4!1s0x390fed7040000001:0xac2a682141f3de81!8m2!3d30.7532017!4d76.7874835?authuser=0&hl=en&rclk=1,30.753201699999998,76.7874835,Chandigarh
J.P Hospital,Private hospital,"Near, NH 21, Zirakpur - Chandigarh Highway, Under Flyover, Panchkula, Zirakpur, Punjab 140603, India",https://www.google.co.kr/maps/place/J.P+Hospital/data=!4m5!3m4!1s0x390feb4a26356e0b:0x35aba37214a0506a!8m2!3d30.6613145!4d76.8183787?authuser=0&hl=en&rclk=1,30.661314500000003,76.8183787,Chandigarh
Shalby Multispeciality Hospital (Dr. Vandana Mittal),Obstetrician-gynecologist,"Silver Oaks Hospital, Phase-9, Sector-63, near PCA Stadium, Sahibzada Ajit Singh Nagar, 160062, India",https://www.google.co.kr/maps/place/Shalby+Multispeciality+Hospital+(Dr.+Vandana+Mittal)/data=!4m5!3m4!1s0x390feff1a9941ae7:0xd637e2bbd5be7191!8m2!3d30.6915027!4d76.7314877?authuser=0&hl=en&rclk=1,30.6915027,76.7314877,Chandigarh
ANH 3D /4D Ultrasound - India's most Advanced 3D Ultrasound,Hospital,"SCO 31, SEC 15-C, Chandigarh, 160015, India",https://www.google.co.kr/maps/place/ANH+3D+%2F4D+Ultrasound+-+India's+most+Advanced+3D+Ultrasound/data=!4m5!3m4!1s0x390fedc5114235b3:0xcabe33c07e9f7740!8m2!3d30.7520565!4d76.7719939?authuser=0&hl=en&rclk=1,30.752056500000002,76.7719939,Chandigarh
Kidney Transplant Chandigarh Hospital - Best Nephrologist Chandigarh - Dr. Raka Kaushal & Dr. Avinash Srivastava -,Private hospital,"Ivy Hospital, Sector 71, Sahibzada Ajit Singh Nagar, Punjab 160071, India",https://www.google.co.kr/maps/place/Kidney+Transplant+Chandigarh+Hospital+-+Best+Nephrologist+Chandigarh+-+Dr.+Raka+Kaushal+%26+Dr.+Avinash+Srivastava+-/data=!4m5!3m4!1s0x390feff957a8ea85:0x275e99d1af757379!8m2!3d30.7068058!4d76.7081839?authuser=0&hl=en&rclk=1,30.7068058,76.70818390000001,Chandigarh
Kare Partners Super Speciality Hospital (Mother and Child),Hospital,"NURSING HOME SITE 422 Street Number 1, opposite HOUSE NO, Sector 2, Panchkula, Haryana 134151, India",https://www.google.co.kr/maps/place/Kare+Partners+Super+Speciality+Hospital+(Mother+and+Child)/data=!4m5!3m4!1s0x390f9370d1e708ff:0xc1b3815538c702!8m2!3d30.69579!4d76.865196?authuser=0&hl=en&rclk=1,30.695790000000002,76.865196,Chandigarh
Raju bahri,Hospital,"312, Sector 21A, Sector 21, Chandigarh, 160022, India",https://www.google.co.kr/maps/place/Raju+bahri/data=!4m5!3m4!1s0x390fed6e4002f625:0x70314f7f4189d421!8m2!3d30.730001!4d76.7800161?authuser=0&hl=en&rclk=1,30.730001,76.7800161,Chandigarh
Dr. Gurpreet's Ultrasound & X-ray Clinic,Hospital,"House No. 3310, Sector 21 D, Sector 21, Chandigarh, 160022, India",https://www.google.co.kr/maps/place/Dr.+Gurpreet's+Ultrasound+%26+X-ray+Clinic/data=!4m5!3m4!1s0x390feda8d8d19c6b:0x60f5a3067aa6396b!8m2!3d30.728093!4d76.775047?authuser=0&hl=en&rclk=1,30.728092999999998,76.775047,Chandigarh
Medical Centre,Medical Center,"Sco 17 Sector 34, Sector-26, Sector-26, Chandigarh, 160019, India",https://www.google.co.kr/maps/place/Medical+Centre/data=!4m5!3m4!1s0x390fed23bfffffff:0xf562cc88fd699c36!8m2!3d30.7296617!4d76.8072196?authuser=0&hl=en&rclk=1,30.729661699999998,76.8072196,Chandigarh
IVY Hospital Road,Hospital,"49, Sector 71, Sahibzada Ajit Singh Nagar, Punjab 160071, India",https://www.google.co.kr/maps/place/IVY+Hospital+Road/data=!4m5!3m4!1s0x390fef488b0633ed:0x9627093a01b94e60!8m2!3d30.7065754!4d76.7088992?authuser=0&hl=en&rclk=1,30.706575399999995,76.7088992,Chandigarh
Chandigarh Clinic,Hospital,"17, Baltana Main Rd, Govind VIhar, Baltana, Sector 19, Panchkula, Haryana 134113, India",https://www.google.co.kr/maps/place/Chandigarh+Clinic/data=!4m5!3m4!1s0x390f94ada15c5555:0x5b9425f56a22acfd!8m2!3d30.6700882!4d76.8291756?authuser=0&hl=en&rclk=1,30.6700882,76.8291756,Chandigarh
Cloudnine Fertility & IVF Center - Chandigarh,Fertility clinic,"1st Floor, Site No. 48, Industrial Area Phase II, Chandigarh, 160002, India",https://www.google.co.kr/maps/place/Cloudnine+Fertility+%26+IVF+Center+-+Chandigarh/data=!4m5!3m4!1s0x390fed2d58301063:0x25c34a41de22315c!8m2!3d30.7000391!4d76.7878873?authuser=0&hl=en&rclk=1,30.7000391,76.78788730000001,Chandigarh
Palwal,Hospital,"279, Himalaya Marg, Sector 21A, Sector 21, Chandigarh, 160022, India",https://www.google.co.kr/maps/place/Palwal/data=!4m5!3m4!1s0x390fed07f42cd061:0xd11063427f789d8c!8m2!3d30.7295685!4d76.7796273?authuser=0&hl=en&rclk=1,30.7295685,76.77962729999999,Chandigarh
Paras Hospital,Hospital,"1, Mansa Devi Complex, Rajeev Vihar, Rail Vihar, Sector 5, Panchkula, Haryana 134109, India",https://www.google.co.kr/maps/place/Paras+Hospital/data=!4m5!3m4!1s0x390f933d76d6a563:0xbe2177390d5aec7f!8m2!3d30.714406!4d76.851026?authuser=0&hl=en&rclk=1,30.714406,76.851026,Chandigarh
Alchemist Hospital Panchkula,Hospital,"Sector 21, Budanpur, Panchkula, Punjab 134112, India",https://www.google.co.kr/maps/place/Alchemist+Hospital+Panchkula/data=!4m5!3m4!1s0x390f9485b41fb363:0xd0c6c25a18b74ed2!8m2!3d30.6745927!4d76.8647413?authuser=0&hl=en&rclk=1,30.674592699999998,76.86474129999999,Chandigarh
"Post Delivery Weight Reduction Clinic,Paras Bliss Hospital Panchkula",Maternity hospital,"Room No: 2, Paras Bliss, Panchkula Mansa Devi Complex, Swastik Vihar, Phase, – 1,, Sector -5, MDC, Panchkula, Haryana 134109, India","https://www.google.co.kr/maps/place/Post+Delivery+Weight+Reduction+Clinic,Paras+Bliss+Hospital+Panchkula/data=!4m5!3m4!1s0x390f9393846fcf05:0x1bf6b6b1a79e196c!8m2!3d30.717056!4d76.851448?authuser=0&hl=en&rclk=1",30.717056,76.851448,Chandigarh
"Dr. Mangla Dogra (Best Gynaecologist in Chandigarh, Mohali | Female Gynecologist in Chandigarh | Dogra Nursing Home & Endoscopy Centre)",Obstetrician-gynecologist,"No-8, Madhya Marg, opp. Peshavari Store, 19A, Sector 19A, Chandigarh, 160019, India","https://www.google.co.kr/maps/place/Dr.+Mangla+Dogra+(Best+Gynaecologist+in+Chandigarh,+Mohali+%7C+Female+Gynecologist+in+Chandigarh+%7C+Dogra+Nursing+Home+%26+Endoscopy+Centre)/data=!4m5!3m4!1s0x390fed23bfffffff:0x6b24b55ac257b71!8m2!3d30.729968!4d76.7915308?authuser=0&hl=en&rclk=1",30.729968,76.79153079999999,Chandigarh
Dr. A.P. SINGH - Joint Replacement & Trauma Surgeon - Chandigarh India,Orthopedic surgeon,"Dr. A.P. SINGH, Inside MUKAT HOSPITAL, SCO 47-49, sector 34-A, Chandigarh, 160022, India",https://www.google.co.kr/maps/place/Dr.+A.P.+SINGH+-+Joint+Replacement+%26+Trauma+Surgeon+-+Chandigarh+India/data=!4m5!3m4!1s0x390fedb23aaaaab5:0xe0aed9227e3af0e4!8m2!3d30.723306!4d76.766114?authuser=0&hl=en&rclk=1,30.723306,76.766114,Chandigarh
Reviva Fertility Clinic & IVF Centre In Chandigarh,Fertility clinic,"Ground, S.C.O 50-51, 9D, Madhya Marg, Chandigarh 160009, India",https://www.google.co.kr/maps/place/Reviva+Fertility+Clinic+%26+IVF+Centre+In+Chandigarh/data=!4m5!3m4!1s0x390fed7328621f05:0xdac68cff9124b14c!8m2!3d30.7445813!4d76.7886296?authuser=0&hl=en&rclk=1,30.744581300000004,76.7886296,Chandigarh
Dr Sumeet Dhawan DM,Neurologist,"SCO 11, Madhya Marg, near Gopal sweets, Sector 8C, Sector 8, Chandigarh, 160009, India",https://www.google.co.kr/maps/place/Dr+Sumeet+Dhawan+DM/data=!4m5!3m4!1s0x390fed3fc4c6b9c9:0x3b63c6a520c50fd6!8m2!3d30.7403988!4d76.7924106?authuser=0&hl=en&rclk=1,30.7403988,76.7924106,Chandigarh
ECHS,Medical clinic,"Sector 47 A, near Government High School, Chandigarh, 160047, India",https://www.google.co.kr/maps/place/ECHS/data=!4m5!3m4!1s0x390fecfae845bc49:0x5ac4ea2e05532971!8m2!3d30.7005997!4d76.7707587?authuser=0&hl=en&rclk=1,30.700599699999998,76.7707587,Chandigarh
RAFFELS HOSPITAL,Hospital,"Sector 14 sco 138, Haryana 134113, India",https://www.google.co.kr/maps/place/RAFFELS+HOSPITAL/data=!4m5!3m4!1s0x390f935ff918df45:0x7690c3edd4872746!8m2!3d30.6818589!4d76.8481286?authuser=0&hl=en&rclk=1,30.681858899999998,76.8481286,Chandigarh
G M Nursing Home,Nursing home,"Shop No.1543, Himalaya Marg, Sub. City Center, 34D, Sector 34, Chandigarh, 160022, India",https://www.google.co.kr/maps/place/G+M+Nursing+Home/data=!4m5!3m4!1s0x390fedc3afffffff:0x99e73af4cb6e5404!8m2!3d30.7193604!4d76.7579186?authuser=0&hl=en&rclk=1,30.7193604,76.7579186,Chandigarh
Utreja Clinic,Medical clinic,"# 1294, Opposite Baba Dairy Sec 21 B, Chandigarh 160022, India",https://www.google.co.kr/maps/place/Utreja+Clinic/data=!4m5!3m4!1s0x390fedb81e930425:0x5313a66fc821b173!8m2!3d30.7246735!4d76.7792243?authuser=0&hl=en&rclk=1,30.724673499999998,76.7792243,Chandigarh
Cloud Nine Hospital Panchkula,Maternity hospital,"Room No: 1, Paras Bliss Panchkula, Mansa Devi Complex, Swastik Vihar,, Phase – 1, Sector -5, MDC, Panchkula, Haryana 134109, India",https://www.google.co.kr/maps/place/Cloud+Nine+Hospital+Panchkula/data=!4m5!3m4!1s0x390f93bfc2caa911:0x698facd9248739ee!8m2!3d30.717102!4d76.851351?authuser=0&hl=en&rclk=1,30.717102,76.851351,Chandigarh
Dr.JP SINGHVI,Neurologist,"Fortis Hospital, Sector 62, Phase – VIII, Sahibzada Ajit Singh Nagar, 160062, India",https://www.google.co.kr/maps/place/Dr.JP+SINGHVI/data=!4m5!3m4!1s0x390fee9fa9db16d9:0x9d2e926d62cc898f!8m2!3d30.6944895!4d76.7308045?authuser=0&hl=en&rclk=1,30.694489500000003,76.7308045,Chandigarh
"Indus International Hospital, Derabassi",Private hospital,"Near Jawaharpur, Chandigarh - Ambala Road, National Highway No.22, Derabassi, MOHALI, Punjab 140507, India","https://www.google.co.kr/maps/place/Indus+International+Hospital,+Derabassi/data=!4m5!3m4!1s0x390fbf882d84d15d:0xbffbcec835386739!8m2!3d30.5566349!4d76.8268035?authuser=0&hl=en&rclk=1",30.5566349,76.8268035,Chandigarh
Gynecology Clinic- Paras Bliss Hospital Panchkula,Maternity hospital,"Paras Bliss, Panchkula Room No. 31 Mansa Devi Complex, Swastik Vihar,, Phase – 1,Sector -5, MDC, Panchkula, Haryana 134109, India",https://www.google.co.kr/maps/place/Gynecology+Clinic-+Paras+Bliss+Hospital+Panchkula/data=!4m5!3m4!1s0x390f93ebfc2fb5db:0x4f014c12d4c12fca!8m2!3d30.717028!4d76.85148?authuser=0&hl=en&rclk=1,30.717028000000003,76.85148000000001,Chandigarh
Dr Alok Ahuja - Best Surgeon In Chandigarh - Best Laparoscopic And Cancer Surgeon In Chandigarh\ Mohali,Surgeon,"# 109 sec, 18A, Chandigarh, 160018, India",https://www.google.co.kr/maps/place/Dr+Alok+Ahuja+-+Best+Surgeon+In+Chandigarh+-+Best+Laparoscopic+And+Cancer+Surgeon+In+Chandigarh%5C+Mohali/data=!4m5!3m4!1s0x390fed6d0afe733d:0x571397fe9cf7dda7!8m2!3d30.735775!4d76.788832?authuser=0&hl=en&rclk=1,30.735775,76.788832,Chandigarh
Dr Sandeep Pal (Gastro & Liver Doctor ),Gastroenterologist,"Healing Hospital, SCO 18-19, Sector 34A, Chandigarh, 160022, India",https://www.google.co.kr/maps/place/Dr+Sandeep+Pal+(Gastro+%26+Liver+Doctor+)/data=!4m5!3m4!1s0x390fed1b733ad20b:0x1f2c859ef2da97af!8m2!3d30.7247455!4d76.7689576?authuser=0&hl=en&rclk=1,30.7247455,76.7689576,Chandigarh
Dr. Shital Bhardwaj - Best Gynecologist in Chandigarh | Gynae Laparoscopic Surgeon in Sector 22 | PCOD Specialist in Chandigarh | Infertility Specialist | Pregnancy Expert | Abortion and MTP Doctor | Vaginal Tightening Expert,Obstetrician-gynecologist,"1599, 22B, Sector 22, Chandigarh, 160022, India",https://www.google.co.kr/maps/place/Dr.+Shital+Bhardwaj+-+Best+Gynecologist+in+Chandigarh+%7C+Gynae+Laparoscopic+Surgeon+in+Sector+22+%7C+PCOD+Specialist+in+Chandigarh+%7C+Infertility+Specialist+%7C+Pregnancy+Expert+%7C+Abortion+and+MTP+Doctor+%7C+Vaginal+Tightening+Expert/data=!4m5!3m4!1s0x390fede8c76c15a7:0xcd7affb45004898a!8m2!3d30.733101!4d76.775203?authuser=0&hl=en&rclk=1,30.733101,76.775203,Chandigarh
Dr. L.K. Mittal Charitable ENT Clinic Chandigarh,Otolaryngologist,"#1222, Sector 21B, Chandigarh, 160022, India",https://www.google.co.kr/maps/place/Dr.+L.K.+Mittal+Charitable+ENT+Clinic+Chandigarh/data=!4m5!3m4!1s0x390fed6fc3a6eb23:0x5b94bc490161ac6f!8m2!3d30.7268789!4d76.7791819?authuser=0&hl=en&rclk=1,30.7268789,76.7791819,Chandigarh
ECHS,Hospital,"Phase 10 Inner Rd, Phase 10, Sector 64, Sahibzada Ajit Singh Nagar, Punjab 160047, India",https://www.google.co.kr/maps/place/ECHS/data=!4m5!3m4!1s0x390fec1afc24a7b3:0xb1bf0234499da407!8m2!3d30.6844918!4d76.7425567?authuser=0&hl=en&rclk=1,30.6844918,76.74255670000001,Chandigarh
"Dr.Gunjan Baweja - Best Pediatrician, Child and Adolescent specialist. Vaccination Centre for newborns, Children and Adults",Pediatrician,"3031, 19D, Sector 19, Chandigarh, 160019, India","https://www.google.co.kr/maps/place/Dr.Gunjan+Baweja+-+Best+Pediatrician,+Child+and+Adolescent+specialist.+Vaccination+Centre+for+newborns,+Children+and+Adults/data=!4m5!3m4!1s0x390fed044f12517b:0x47e8230c44df6743!8m2!3d30.72875!4d76.7874269?authuser=0&hl=en&rclk=1",30.72875,76.78742690000001,Chandigarh
Chaitanya Public Hospital Panchkula,Women's health clinic,"SCO 21, Kalgidhar Enclave, Baltana, opposite K-Area, Zirakpur, 140603, India",https://www.google.co.kr/maps/place/Chaitanya+Public+Hospital+Panchkula/data=!4m5!3m4!1s0x390f94b4c65e4153:0xbe596f3146e48073!8m2!3d30.6609502!4d76.8289953?authuser=0&hl=en&rclk=1,30.6609502,76.8289953,Chandigarh
Medicos Centre,Diagnostic center,"SCO 801-802 Opposite Parade Ground, Sector 22A, Chandigarh, 160022, India",https://www.google.co.kr/maps/place/Medicos+Centre/data=!4m5!3m4!1s0x390feda4a4306505:0xedf57ac0d1f0ce61!8m2!3d30.7390088!4d76.7743492?authuser=0&hl=en&rclk=1,30.7390088,76.7743492,Chandigarh
"Dr Ritika Kaur Obs & Gynaecologist, IVF Specialist Doctor, Ex GMSH 16 Chandigarh, Mohali, Panchkula, Punjab",Obstetrician-gynecologist,"Santokh Klinics SCO 77, Chandigarh 160036, India","https://www.google.co.kr/maps/place/Dr+Ritika+Kaur+Obs+%26+Gynaecologist,+IVF+Specialist+Doctor,+Ex+GMSH+16+Chandigarh,+Mohali,+Panchkula,+Punjab/data=!4m5!3m4!1s0x390fedee58ee7c2f:0xa88cbb2ae2667818!8m2!3d30.7429744!4d76.7448488?authuser=0&hl=en&rclk=1",30.7429744,76.7448488,Chandigarh
HEART & CHEST CLINIC,Medical clinic,"SCO 816, First Floor, SECTOR, 22-A, Udyog Path, Chandigarh, 160022, India",https://www.google.co.kr/maps/place/HEART+%26+CHEST+CLINIC/data=!4m5!3m4!1s0x390feda3d869db57:0xdf568feac3dce89b!8m2!3d30.7385129!4d76.774432?authuser=0&hl=en&rclk=1,30.738512899999996,76.77443199999999,Chandigarh
ECHS Polyclinic,Hospital,"11, Maheshpur Rd, Sector 7, Panchkula, Haryana 134109, India",https://www.google.co.kr/maps/place/ECHS+Polyclinic/data=!4m5!3m4!1s0x390f931644d960db:0x105604d1bcbc9853!8m2!3d30.7122676!4d76.8511528?authuser=0&hl=en&rclk=1,30.712267600000004,76.8511528,Chandigarh
Dr. Sachin Bindal,Neurosurgeon,"Silver Oaks Hospital, Phase-9, Sector-63, near PCA Stadium, Sahibzada Ajit Singh Nagar, 160062, India",https://www.google.co.kr/maps/place/Dr.+Sachin+Bindal/data=!4m5!3m4!1s0x390fefb2d4c72f8f:0xb33b07a39bf8630!8m2!3d30.6915027!4d76.7314877?authuser=0&hl=en&rclk=1,30.6915027,76.7314877,Chandigarh
Sant Namdev Bhawan Homoeopathic clinic,Medical Center,"PQGG+FJ9, 21C, Sector 21, Chandigarh, 160022, India",https://www.google.co.kr/maps/place/Sant+Namdev+Bhawan+Homoeopathic+clinic/data=!4m5!3m4!1s0x390feda973204037:0xdf33318cca2db38c!8m2!3d30.7261537!4d76.7766212?authuser=0&hl=en&rclk=1,30.7261537,76.77662120000001,Chandigarh
ECHS Polyclinic Mohali,Medical clinic,"Near Dara Studio 56A, Phase 6, Sector 56A, Sahibzada Ajit Singh Nagar, 160055, India",https://www.google.co.kr/maps/place/ECHS+Polyclinic+Mohali/data=!4m5!3m4!1s0x390fee3fae689fd7:0x11df8019f1729754!8m2!3d30.7373492!4d76.7082632?authuser=0&hl=en&rclk=1,30.737349199999997,76.7082632,Chandigarh
Sangeeta Nursing Home,Nursing home,"H.No. 323, Gali Number 3, Ward Number IV, Sector 21A, Sector 21, Chandigarh, 160022, India",https://www.google.co.kr/maps/place/Sangeeta+Nursing+Home/data=!4m5!3m4!1s0x390feda96aaaaaab:0x5fecbc023222748c!8m2!3d30.7302936!4d76.7803356?authuser=0&hl=en&rclk=1,30.7302936,76.78033559999999,Chandigarh
Sai charitable diagnostic centre,Diagnostic center,"1924, 22B, Sector 22, Chandigarh, 160022, India",https://www.google.co.kr/maps/place/Sai+charitable+diagnostic+centre/data=!4m5!3m4!1s0x390fed80d624f18d:0x75328769c71a2181!8m2!3d30.731843!4d76.773076?authuser=0&hl=en&rclk=1,30.731842999999998,76.773076,Chandigarh
Sri Guru Har Rai Sahib Diagnostic,Diagnostic center,"Gurdwara sahib, Sector 22-D, Sector 22, Chandigarh, 160022, India",https://www.google.co.kr/maps/place/Sri+Guru+Har+Rai+Sahib+Diagnostic/data=!4m5!3m4!1s0x390feda4d51a7935:0x63d581890bf0057!8m2!3d30.7332909!4d76.7674887?authuser=0&hl=en&rclk=1,30.7332909,76.7674887,Chandigarh
Dr. Varun Gupta - Laser Piles | Circumcision | Hernia | Fistula | Gall Stone | Circumcision | Gynecomastia,Surgeon,"1599, 22B, Sector 22, Chandigarh, 160022, India",https://www.google.co.kr/maps/place/Dr.+Varun+Gupta+-+Laser+Piles+%7C+Circumcision+%7C+Hernia+%7C+Fistula+%7C+Gall+Stone+%7C+Circumcision+%7C+Gynecomastia/data=!4m5!3m4!1s0x390fedd49b898499:0x4b0bfdfc6d99c248!8m2!3d30.7331194!4d76.7752459?authuser=0&hl=en&rclk=1,30.733119399999996,76.7752459,Chandigarh
Nutrisolution - The Diet Clinique,Nutritionist,"1582, Sector 18D, Sector 18, Chandigarh, 160018, India",https://www.google.co.kr/maps/place/Nutrisolution+-+The+Diet+Clinique/data=!4m5!3m4!1s0x390fed085fd02b93:0x50e94f0dd75cb8c5!8m2!3d30.732959!4d76.7826761?authuser=0&hl=en&rclk=1,30.732959,76.78267609999999,Chandigarh
ESI Dispensary,Hospital,"MR9M+V9X, Ekta Vihar, Sector 19, Panchkula, Haryana 134109, India",https://www.google.co.kr/maps/place/ESI+Dispensary/data=!4m5!3m4!1s0x390f94ae3ca02745:0x911616fd448aeea1!8m2!3d30.6697265!4d76.8334926?authuser=0&hl=en&rclk=1,30.669726500000003,76.8334926,Chandigarh
Dr. Yuvraj Singh Khullar,Doctor,"466, Dakshin Marg, 35A, Sector 35, Chandigarh, 160002, India",https://www.google.co.kr/maps/place/Dr.+Yuvraj+Singh+Khullar/data=!4m5!3m4!1s0x14f62fec9d15a9af:0xd5c3c0898c14132c!8m2!3d30.7290875!4d76.7642429?authuser=0&hl=en&rclk=1,30.7290875,76.7642429,Chandigarh
"Dr Rajdeep Singh, Gastro, Liver & Endoscopy Centre - Best Gastroenterologist & Liver Specialist Chandigarh",Gastroenterologist,"House No. 3031, 19D, Sector 19, Chandigarh, 160019, India","https://www.google.co.kr/maps/place/Dr+Rajdeep+Singh,+Gastro,+Liver+%26+Endoscopy+Centre+-+Best+Gastroenterologist+%26+Liver+Specialist+Chandigarh/data=!4m5!3m4!1s0x390fed044c7637e7:0x1585ba0e48773233!8m2!3d30.7286127!4d76.7876463?authuser=0&hl=en&rclk=1",30.7286127,76.7876463,Chandigarh
Dr Bhatia Sanjeev,Doctor,"2164, Sector 21C, Sector 21, Chandigarh, 160022, India",https://www.google.co.kr/maps/place/Dr+Bhatia+Sanjeev/data=!4m5!3m4!1s0x390fedab96d01b71:0xe117c28d7654a9a9!8m2!3d30.7240551!4d76.7753319?authuser=0&hl=en&rclk=1,30.724055100000005,76.7753319,Chandigarh
Urologist in Chandigarh | Dr Manoj Sharma | Tricity Urologist,Urologist,"2164, Sector 21C, Sector 21, Chandigarh, 160022, India",https://www.google.co.kr/maps/place/Urologist+in+Chandigarh+%7C+Dr+Manoj+Sharma+%7C+Tricity+Urologist/data=!4m5!3m4!1s0x390fed9abe45efff:0xe7e967d79c6e24d9!8m2!3d30.7246211!4d76.774481?authuser=0&hl=en&rclk=1,30.7246211,76.77448100000001,Chandigarh
Chandigarh Clinic,Medical clinic,"759/2, 759/2, Thakur Dwara Rd, Mohalla Jattan Wala, Sector 13, Chandigarh, 160101, India",https://www.google.co.kr/maps/place/Chandigarh+Clinic/data=!4m5!3m4!1s0x390f932e2f7d4423:0xbf3188832f2d1b!8m2!3d30.714564!4d76.8339058?authuser=0&hl=en&rclk=1,30.714564000000003,76.8339058,Chandigarh
Dr. Manish Singla,Nephrologist,"Chandigarh Rd, near Civil Hospital, Phase 6, Sector 56, Sahibzada Ajit Singh Nagar, Chandigarh 160055, India",https://www.google.co.kr/maps/place/Dr.+Manish+Singla/data=!4m5!3m4!1s0x390feff0e33defb3:0xaa4902a619d9cc44!8m2!3d30.7400373!4d76.7143082?authuser=0&hl=en&rclk=1,30.7400373,76.7143082,Chandigarh
Singh Dr T P,Doctor,"Sco 60-62 Ist Floor, Sector 17 C, Sector 17 C, Chandigarh, 160017, India",https://www.google.co.kr/maps/place/Singh+Dr+T+P/data=!4m5!3m4!1s0x390fed0baaaaaaab:0x41a460f7780fa662!8m2!3d30.7398339!4d76.782702?authuser=0&hl=en&rclk=1,30.739833899999997,76.782702,Chandigarh
Dr. Ashwin Mohan,Doctor,"SCO 2417-2418, Sector 22-C, First Floor Near Aroma Taxi Stand, Chandigarh, 160022, India",https://www.google.co.kr/maps/place/Dr.+Ashwin+Mohan/data=!4m5!3m4!1s0x390fed277e19688f:0xaa53fadae3a91efe!8m2!3d30.7292385!4d76.7719953?authuser=0&hl=en&rclk=1,30.7292385,76.7719953,Chandigarh
Dr. Shefali Sharma - Best Obstetrician-Gynecologist,Obstetrician-gynecologist,"House No.1048, Sector, 37B, Chandigarh, 160036, India",https://www.google.co.kr/maps/place/Dr.+Shefali+Sharma+-+Best+Obstetrician-Gynecologist/data=!4m5!3m4!1s0x390fed5b0e898999:0x34d2142e5ac42775!8m2!3d30.7393368!4d76.7559997?authuser=0&hl=en&rclk=1,30.7393368,76.7559997,Chandigarh
Opolis Diagnostic Centre,Radiologist,"SCO 266, 267, Sector 9C, Sector 32D, Sector 32, Chandigarh, 160032, India",https://www.google.co.kr/maps/place/Opolis+Diagnostic+Centre/data=!4m5!3m4!1s0x390fedadf15ec919:0xa781fe311955b850!8m2!3d30.7081397!4d76.7742185?authuser=0&hl=en&rclk=1,30.7081397,76.7742185,Chandigarh
"Fortis Escorts Heart Institute, Okhla Road",Hospital,"Okhla road, Sukhdev Vihar Metro Station, New Delhi, Delhi 110025, India","https://www.google.co.kr/maps/place/Fortis+Escorts+Heart+Institute,+Okhla+Road/data=!4m5!3m4!1s0x390ce392b869bbaf:0x865db71ba6f271b2!8m2!3d28.5606583!4d77.2739036?authuser=0&hl=en&rclk=1",28.5606583,77.2739036,Delhi
"Fortis Hospital, Shalimar Bagh",General hospital,"AA-299, Shaheed Udham Singh Marg, AA Block, Poorbi Shalimar Bag, Shalimar Bagh, Delhi, 110088, India","https://www.google.co.kr/maps/place/Fortis+Hospital,+Shalimar+Bagh/data=!4m5!3m4!1s0x390d02206e9e71cf:0xb096542618cd68b4!8m2!3d28.7095568!4d77.169913?authuser=0&hl=en&rclk=1",28.7095568,77.169913,Delhi
Kalra Hospital,General hospital,"Tulsi Dass Kalra Marg, Kirti Nagar, New Delhi, Delhi 110015, India",https://www.google.co.kr/maps/place/Kalra+Hospital/data=!4m5!3m4!1s0x390d0305d0ebb29b:0x2ec2ca5c738fd184!8m2!3d28.6552017!4d77.138551?authuser=0&hl=en&rclk=1,28.6552017,77.138551,Delhi
Delhi Institute of Trauma & Orthopedics (DITO) - Best Orthopaedic Hospital in Delhi NCR India,Hospital,"Room No-408, Ground Floor, Sant Parmanand Hospital 18, Sham Nath Marg,Civil Lines North Delhi, New Delhi, Delhi 110054, India",https://www.google.co.kr/maps/place/Delhi+Institute+of+Trauma+%26+Orthopedics+(DITO)+-+Best+Orthopaedic+Hospital+in+Delhi+NCR+India/data=!4m5!3m4!1s0x390cfda46f8dff79:0xe1297e53dae93a1d!8m2!3d28.677715!4d77.2241011?authuser=0&hl=en&rclk=1,28.677715000000003,77.2241011,Delhi
NCR HOSPITAL NEW DELHI,Hospital,"Masjid Abdul Ghani, 23 A, Chelmsford Rd, Aram Bagh, Paharganj, New Delhi, Delhi 110055, India",https://www.google.co.kr/maps/place/NCR+HOSPITAL+NEW+DELHI/data=!4m5!3m4!1s0x390cfdcaadb2ecc9:0x3757269eb5aa48b4!8m2!3d28.6363904!4d77.2180137?authuser=0&hl=en&rclk=1,28.6363904,77.2180137,Delhi
Hospital,General hospital,"Sarita Vihar, Mathura Rd, Patparganj, Mayur Vihar, New Delhi, Delhi 110076, India",https://www.google.co.kr/maps/place/Hospital/data=!4m5!3m4!1s0x390ce4a6df211531:0x48e9ea46b1fef1db!8m2!3d28.6133259!4d77.2898619?authuser=0&hl=en&rclk=1,28.613325899999996,77.2898619,Delhi
Artemis Hospitals Dwarka,General hospital,"Sector 20 Dwarka, Dwarka, New Delhi, Delhi 110075, India",https://www.google.co.kr/maps/place/Artemis+Hospitals+Dwarka/data=!4m5!3m4!1s0x390d1b03c0000001:0x3eb1330d284a7209!8m2!3d28.5709273!4d77.0593246?authuser=0&hl=en&rclk=1,28.570927299999997,77.0593246,Delhi
BLK-Max Super Speciality Hospital,Hospital,"Pusa Rd, Radha Soami Satsang, Rajendra Place, New Delhi, Delhi 110005, India",https://www.google.co.kr/maps/place/BLK-Max+Super+Speciality+Hospital/data=!4m5!3m4!1s0x390d029633b6af21:0x9a67323b63bcc188!8m2!3d28.6433105!4d77.1796932?authuser=0&hl=en&rclk=1,28.6433105,77.1796932,Delhi
Primus Super Speciality Hospital,Private hospital,"Chandragupta Marg, Opp Russian Embassy, Chanakyapuri, New Delhi, Delhi 110021, India",https://www.google.co.kr/maps/place/Primus+Super+Speciality+Hospital/data=!4m5!3m4!1s0x390d1d68ebafe4b1:0x15e3c02de46eb6b6!8m2!3d28.5929448!4d77.1812159?authuser=0&hl=en&rclk=1,28.592944800000005,77.18121590000001,Delhi
Dr. N.C. Joshi Memorial Hospital,Government hospital,"Joshi Path, near Ajmal Khan Park, Block 63, Karol Bagh, New Delhi, Delhi 110005, India",https://www.google.co.kr/maps/place/Dr.+N.C.+Joshi+Memorial+Hospital/data=!4m5!3m4!1s0x390cfd6390bbdcfd:0x5582e135f3a514ae!8m2!3d28.6523576!4d77.1991247?authuser=0&hl=en&rclk=1,28.6523576,77.1991247,Delhi
Safdarjung Hospital,Government hospital,"Ansari Nagar East, near to AIIMS Metro Station, New Delhi, Delhi 110029, India",https://www.google.co.kr/maps/place/Safdarjung+Hospital/data=!4m5!3m4!1s0x390ce27b1527eb57:0xf71af9b11f97c064!8m2!3d28.5680405!4d77.2058155?authuser=0&hl=en&rclk=1,28.568040500000002,77.2058155,Delhi
"Fortis Flt. Lt. Rajan Dhall Hospital, Vasant Kunj",Hospital,"Fortis Flt Lt Rajan Dhall Hospital, Aruna Asaf Ali Marg, Pocket 1, Sector B, Vasant Kunj, New Delhi, Delhi 110070, India","https://www.google.co.kr/maps/place/Fortis+Flt.+Lt.+Rajan+Dhall+Hospital,+Vasant+Kunj/data=!4m5!3m4!1s0x390d1d080c000001:0xdc68ebc7ff708935!8m2!3d28.5192105!4d77.1602895?authuser=0&hl=en&rclk=1",28.5192105,77.1602895,Delhi
Delhi Heart & Lung Institute,General hospital,"Rolex, 3, Panchkuian Marg, Type 4, Block B, Aram Bagh, Paharganj, New Delhi, Delhi 110055, India",https://www.google.co.kr/maps/place/Delhi+Heart+%26+Lung+Institute/data=!4m5!3m4!1s0x390cfd5cda95cbd5:0xe47138854cec7a5f!8m2!3d28.6416491!4d77.2053679?authuser=0&hl=en&rclk=1,28.641649100000002,77.2053679,Delhi
Aruna Asaf Ali Govt Hospital,Government hospital,"5, Rajpur Rd, Police Lines, Civil Lines, New Delhi, Delhi 110054, India",https://www.google.co.kr/maps/place/Aruna+Asaf+Ali+Govt+Hospital/data=!4m5!3m4!1s0x390cfda00467e3c3:0x3a65ef26538eb119!8m2!3d28.6697756!4d77.2178505?authuser=0&hl=en&rclk=1,28.669775599999998,77.2178505,Delhi
Aashlok Hospital,Hospital,"Aashlok 25 AB, Safdarjung Enclave, New Delhi, Delhi 110029, India",https://www.google.co.kr/maps/place/Aashlok+Hospital/data=!4m5!3m4!1s0x390ce2799883b26b:0xf4e07ff5d351a0f2!8m2!3d28.5665258!4d77.1989791?authuser=0&hl=en&rclk=1,28.566525800000004,77.1989791,Delhi
Bhagwan Mahavir Hospital,General hospital,"H-4,5, Pitam Pura, Delhi, 110034, India",https://www.google.co.kr/maps/place/Bhagwan+Mahavir+Hospital/data=!4m5!3m4!1s0x390d03ec212cbfd3:0x48c5f9dde458f8f5!8m2!3d28.6883861!4d77.1179209?authuser=0&hl=en&rclk=1,28.688386100000002,77.1179209,Delhi
Aakash Hospital,Private hospital,"90/43, Malviya Nagar Rd, Malviya Nagar, New Delhi, Delhi 110017, India",https://www.google.co.kr/maps/place/Aakash+Hospital/data=!4m5!3m4!1s0x390ce21dcdd28ae9:0x3ebec29bc6ab003e!8m2!3d28.5350692!4d77.2148575?authuser=0&hl=en&rclk=1,28.5350692,77.2148575,Delhi
Saroj Super Speciality Hospital,Hospital,"Bhagawan Mahavir Marg, Near Madhuban Chowk, Block A, Sector 14, Rohini, New Delhi, Delhi 110085, India",https://www.google.co.kr/maps/place/Saroj+Super+Speciality+Hospital/data=!4m5!3m4!1s0x390d03df7b9d0c0b:0xd48bf519a4c75ed5!8m2!3d28.70613!4d77.129093?authuser=0&hl=en&rclk=1,28.706129999999998,77.12909300000001,Delhi
Pt. Madan Mohan Malaviya Hospital,Government hospital,"Khirki Extension, Malviya Nagar, New Delhi, Delhi 110017, India",https://www.google.co.kr/maps/place/Pt.+Madan+Mohan+Malaviya+Hospital/data=!4m5!3m4!1s0x390ce21ee9ccb17f:0x82c5c88ba2bb2f5a!8m2!3d28.535326!4d77.2137944?authuser=0&hl=en&rclk=1,28.535326,77.2137944,Delhi
"Max Super Speciality Hospital, Patparganj",General hospital,"108A, I.P.Extension, Patparganj, Delhi, 110092, India","https://www.google.co.kr/maps/place/Max+Super+Speciality+Hospital,+Patparganj/data=!4m5!3m4!1s0x390cfb3558b5ac9d:0x8d590e3c6772a3c5!8m2!3d28.632938!4d77.3090026?authuser=0&hl=en&rclk=1",28.632938,77.3090026,Delhi
Venkateshwar Hospital,Private hospital,"Sector 12 Rd, Sector 18, Sector 18A Dwarka, Dwarka, New Delhi, Delhi 110075, India",https://www.google.co.kr/maps/place/Venkateshwar+Hospital/data=!4m5!3m4!1s0x390d1ac3e8a4b27b:0x218f945a11993663!8m2!3d28.5885973!4d77.0380428?authuser=0&hl=en&rclk=1,28.5885973,77.0380428,Delhi
Kasturba Hospital,General hospital,"Near Jama Masjid Metro Station, Gate No.1, New Delhi, Delhi 110006, India",https://www.google.co.kr/maps/place/Kasturba+Hospital/data=!4m5!3m4!1s0x390cfd20987aa351:0xe968a705b8558593!8m2!3d28.6492735!4d77.2373025?authuser=0&hl=en&rclk=1,28.6492735,77.2373025,Delhi
"Metro Hospital & Heart Institute, Lajpat Nagar, Delhi",Private hospital,"14, Ring Rd, Near Amar Kaloni Market, Nirmal Puri, Block B, Lajpat Nagar IV, Lajpat Nagar 4, New Delhi, Delhi 110024, India","https://www.google.co.kr/maps/place/Metro+Hospital+%26+Heart+Institute,+Lajpat+Nagar,+Delhi/data=!4m5!3m4!1s0x390ce3b1a0dd19b3:0xc1176dc05852d734!8m2!3d28.5647402!4d77.2437811?authuser=0&hl=en&rclk=1",28.5647402,77.24378109999999,Delhi
Central Hospital,General hospital,"A-142/1, A-142, Ganesh Nagar, Tilak Nagar, New Delhi, Delhi 110018, India",https://www.google.co.kr/maps/place/Central+Hospital/data=!4m5!3m4!1s0x390d04979b28a429:0xd1c14949afa20de3!8m2!3d28.6365334!4d77.0903721?authuser=0&hl=en&rclk=1,28.636533399999998,77.0903721,Delhi
Santom Hospital,Private hospital,"D-5-6, Outer Ring Rd, Prashant Vihar, Sector 14, Rohini, New Delhi, Delhi 110085, India",https://www.google.co.kr/maps/place/Santom+Hospital/data=!4m5!3m4!1s0x390d0175aaed9b7d:0xf4ad5d1decfd39d!8m2!3d28.713987!4d77.1384028?authuser=0&hl=en&rclk=1,28.713987,77.1384028,Delhi
Deen Dayal Upadhyay Hospital,General hospital,"Shaheed Mangal Pandey Marg, Nanak Pura, Hari Nagar, New Delhi, Delhi 110064, India",https://www.google.co.kr/maps/place/Deen+Dayal+Upadhyay+Hospital/data=!4m5!3m4!1s0x390cfd309eebed77:0xc8559980f0b50535!8m2!3d28.6280643!4d77.1122969?authuser=0&hl=en&rclk=1,28.6280643,77.1122969,Delhi
Jag Pravesh Chandra Hospital,General hospital,"Panduk Shila Marg, near Northern Engineering College, Shastri Park, Shahdara, New Delhi, Delhi 110053, India",https://www.google.co.kr/maps/place/Jag+Pravesh+Chandra+Hospital/data=!4m5!3m4!1s0x390cfc5e2d1ad07b:0xf62689cdd9ab9a64!8m2!3d28.6762461!4d77.2629156?authuser=0&hl=en&rclk=1,28.6762461,77.2629156,Delhi
Attar Sain Jain Hospital,General hospital,"Lawrence Rd, Keshav Puram, Dr Lohia Industrial Area, Patparganj Industrial Area, Shakurpur, New Delhi, Delhi 110035, India",https://www.google.co.kr/maps/place/Attar+Sain+Jain+Hospital/data=!4m5!3m4!1s0x390d024b3eeb61e5:0x932d22d7054ad52d!8m2!3d28.682111!4d77.1502316?authuser=0&hl=en&rclk=1,28.682111,77.1502316,Delhi
Bhagat Chandra Hospital,General hospital,"RZ-F-1/1 Mahavir Enclave Palam Dabri Marg Under Dwarka, Airport Flyover, Mahavir Enclave Part 2, Palam, New Delhi, Delhi 110045, India",https://www.google.co.kr/maps/place/Bhagat+Chandra+Hospital/data=!4m5!3m4!1s0x390d1b47348360e7:0x18192b58047215a!8m2!3d28.593451!4d77.0812229?authuser=0&hl=en&rclk=1,28.593451,77.0812229,Delhi
Deep Chand Bandhu Hospital,Government hospital,"Ashok Vihar Rd, Kokiwala Bagh, Phase 4, Ashok Vihar IV, Ashok Vihar, New Delhi, Delhi 110052, India",https://www.google.co.kr/maps/place/Deep+Chand+Bandhu+Hospital/data=!4m5!3m4!1s0x390d026eb9813309:0x904ba664a17f282a!8m2!3d28.6813633!4d77.1778758?authuser=0&hl=en&rclk=1,28.681363300000005,77.1778758,Delhi
Triton Hospital,Private hospital,"Nehru Enclave, CC - 30 & 31, Outer Ring Rd, Block C, Kalkaji, New Delhi, Delhi 110019, India",https://www.google.co.kr/maps/place/Triton+Hospital/data=!4m5!3m4!1s0x390ce3c52ed4134f:0xc3fc51fbd0e2179!8m2!3d28.5471619!4d77.2547253?authuser=0&hl=en&rclk=1,28.5471619,77.2547253,Delhi
Bhagwati Hospital,General hospital,"CS/OCF, 6, Jain Mandir Marg, near Printer Apartment, Sector 13, Rohini, New Delhi, Delhi 110085, India",https://www.google.co.kr/maps/place/Bhagwati+Hospital/data=!4m5!3m4!1s0x390d0168849f7c79:0x450b284041fdee9b!8m2!3d28.7191455!4d77.1295439?authuser=0&hl=en&rclk=1,28.719145500000003,77.1295439,Delhi
Base Hospital Delhi Cantt,General hospital,"Off, Mahatma Gandhi Marg, Kirby Place, Delhi Cantonment, New Delhi, Delhi 110010, India",https://www.google.co.kr/maps/place/Base+Hospital+Delhi+Cantt/data=!4m5!3m4!1s0x390d1cd124669595:0x296df759757ed242!8m2!3d28.611048!4d77.1322015?authuser=0&hl=en&rclk=1,28.611047999999997,77.13220150000001,Delhi
Lok Nayak Hospital,Government hospital,"metro Station Central, Jawaharlal Nehru Marg, near Delhi Gate, New Delhi, Delhi 110002, India",https://www.google.co.kr/maps/place/Lok+Nayak+Hospital/data=!4m5!3m4!1s0x390cfd27b3316b6d:0xa9d62fda6be69577!8m2!3d28.6382666!4d77.2385937?authuser=0&hl=en&rclk=1,28.6382666,77.23859370000001,Delhi
Maharaja Agrasen Hospital,Private hospital,"Jain Muni Guru Ramkrishan Marg, Near Metro Station Jain Muni Guru Ramkrishan Marg, Block C, Shivaji Park, Punjabi Bagh, Delhi, 110026, India",https://www.google.co.kr/maps/place/Maharaja+Agrasen+Hospital/data=!4m5!3m4!1s0x390d02394159d409:0x96dac81bc4be56b1!8m2!3d28.6739823!4d77.1339444?authuser=0&hl=en&rclk=1,28.673982300000002,77.1339444,Delhi
Hospital,General hospital,"H6CJ+WMM, Block C, Defence Colony, New Delhi, Delhi 110024, India",https://www.google.co.kr/maps/place/Hospital/data=!4m5!3m4!1s0x390ce250d82e0abb:0x9607a85071d2033f!8m2!3d28.5723323!4d77.2316665?authuser=0&hl=en&rclk=1,28.572332300000003,77.2316665,Delhi
Sant Parmanand Hospital,Hospital,"18, Sham Nath Marg, Civil Lines, New Delhi, Delhi 110054, India",https://www.google.co.kr/maps/place/Sant+Parmanand+Hospital/data=!4m5!3m4!1s0x390cfda4659a8cfb:0x65f7588989a0e57f!8m2!3d28.677715!4d77.224101?authuser=0&hl=en&rclk=1,28.677715000000003,77.224101,Delhi
Mahindru Hospital,General hospital,"E1, Kiran Garden Main Najafgarh Road Opposite, Metro Pillar Number 712, Uttam Nagar, New Delhi, Delhi 110059, India",https://www.google.co.kr/maps/place/Mahindru+Hospital/data=!4m5!3m4!1s0x390d052fe52b3487:0xc090327dd124d7b0!8m2!3d28.62056!4d77.0498419?authuser=0&hl=en&rclk=1,28.620559999999998,77.0498419,Delhi
Navjeevan Hospital,Hospital,"Golden Red Light, A-12 Pushpanjali Enclave Opp.Jaipur, Outer Ring Rd, Pushpanjali Enclave, Pitam Pura, New Delhi, Delhi 110088, India",https://www.google.co.kr/maps/place/Navjeevan+Hospital/data=!4m5!3m4!1s0x390d03f92a5859d7:0xfb977851b25342a2!8m2!3d28.6948573!4d77.1087913?authuser=0&hl=en&rclk=1,28.694857300000002,77.1087913,Delhi
Sanjeevan Hospital,Private hospital,"24, Ansari Rd, Daryaganj, New Delhi, Delhi 110002, India",https://www.google.co.kr/maps/place/Sanjeevan+Hospital/data=!4m5!3m4!1s0x390cfcd97cfadb5b:0xeec8c89cdfac676d!8m2!3d28.6412212!4d77.2429296?authuser=0&hl=en&rclk=1,28.6412212,77.2429296,Delhi
Khetarpal Hospital,General hospital,"F-95, Bali Nagar Metro Station, Main, Najafgarh Rd, near Ramesh Nagar, New Delhi, Delhi 110015, India",https://www.google.co.kr/maps/place/Khetarpal+Hospital/data=!4m5!3m4!1s0x390d030c343754b7:0xb9b31fe15300e974!8m2!3d28.652559!4d77.130044?authuser=0&hl=en&rclk=1,28.652559000000004,77.130044,Delhi
Delhi Cantonment General Hospital,General hospital,"Sadar Bazar Rd, opposite Police Station, Kabul Lines, Delhi Cantonment, New Delhi, Delhi 110010, India",https://www.google.co.kr/maps/place/Delhi+Cantonment+General+Hospital/data=!4m5!3m4!1s0x390d1cb8a31fb899:0x9aa716d8b45f7911!8m2!3d28.5984847!4d77.1248931?authuser=0&hl=en&rclk=1,28.5984847,77.1248931,Delhi
Mata Chanan Devi Hospital,General hospital,"c1, Lal Sai Mandir Marg, Block C1, Janakpuri, New Delhi, Delhi 110058, India",https://www.google.co.kr/maps/place/Mata+Chanan+Devi+Hospital/data=!4m5!3m4!1s0x390d04c834eed97f:0x374d57d1850a06ee!8m2!3d28.6185696!4d77.078126?authuser=0&hl=en&rclk=1,28.6185696,77.078126,Delhi
Vinayak Hospital,General hospital,"Derawal Nagar, Gujranwala Town, New Delhi, Delhi 110009, India",https://www.google.co.kr/maps/place/Vinayak+Hospital/data=!4m5!3m4!1s0x390d020f1744c9e9:0xc382c267ef9a112d!8m2!3d28.6986231!4d77.1870393?authuser=0&hl=en&rclk=1,28.698623100000002,77.1870393,Delhi
Kosmos Superspeciality Hospital- Best Orthopedic surgeon | Orthopedic doctor in East Delhi,General hospital,"Sikka, C-60, Vikas Marg, DDA Flats, Anand Vihar, New Delhi, Delhi 110092, India",https://www.google.co.kr/maps/place/Kosmos+Superspeciality+Hospital-+Best+Orthopedic+surgeon+%7C+Orthopedic+doctor+in+East+Delhi/data=!4m5!3m4!1s0x390cfb3fe15bb6d7:0x90d1f5fce79d187b!8m2!3d28.6548668!4d77.3105742?authuser=0&hl=en&rclk=1,28.6548668,77.3105742,Delhi
Guru Gobind Singh Govt Hospital,Government hospital,"Raghubir Nagar, Tagore Garden Extension, New Delhi, Delhi 110027, India",https://www.google.co.kr/maps/place/Guru+Gobind+Singh+Govt+Hospital/data=!4m5!3m4!1s0x390d037eae4d8d27:0xf723c56f00c23e5b!8m2!3d28.653743!4d77.107213?authuser=0&hl=en&rclk=1,28.653743,77.107213,Delhi
KESAR HOSPITAL,Private hospital,"11, Shaheed Udham Singh Marg, Block AH, Poorvi Shalimar Bagh, Shalimar Bagh, New Delhi, Delhi 110088, India",https://www.google.co.kr/maps/place/KESAR+HOSPITAL/data=!4m5!3m4!1s0x390d0226c0516dc3:0x56e5366a0fe4a182!8m2!3d28.7059557!4d77.164485?authuser=0&hl=en&rclk=1,28.705955699999997,77.164485,Delhi
Pentamed Hospital,General hospital,"B-286,shop no, 1, opp. Pentamed hospital, Police Residential Colony, Pocket B, Derawal Nagar, Model Town, Delhi, 110009, India",https://www.google.co.kr/maps/place/Pentamed+Hospital/data=!4m5!3m4!1s0x390d020859cedbe5:0x7d4ee2af38bc2eb!8m2!3d28.6993289!4d77.1919413?authuser=0&hl=en&rclk=1,28.699328899999998,77.1919413,Delhi
SRG Hospital-Best Hospital In Ranholla Nangloi,General hospital,"205-206, Nangloi - Najafgarh Rd, Kotla Vihar Phase 1, Tilangpur Kotla, New Delhi, Delhi 110041, India",https://www.google.co.kr/maps/place/SRG+Hospital-Best+Hospital+In+Ranholla+Nangloi/data=!4m5!3m4!1s0x390d0575bda508d7:0xffa2cf0511df1843!8m2!3d28.6496109!4d77.0296043?authuser=0&hl=en&rclk=1,28.6496109,77.02960429999999,Delhi
Mansaram Hospital,Hospital,"Main Najafgarh Rd, Ram Nagar Colony, Ram Nagar, Nangloi, New Delhi, Delhi 110041, India",https://www.google.co.kr/maps/place/Mansaram+Hospital/data=!4m5!3m4!1s0x390d044b7521b52b:0x5b1b07c5caf36d63!8m2!3d28.672278!4d77.05886?authuser=0&hl=en&rclk=1,28.672278000000002,77.05886,Delhi
Moolchand Medcity,Private hospital,"Lala Lajpat Rai Marg, Near Moolchand Metro Station, Block M, Lajpat Nagar III, Lajpat Nagar, New Delhi, Delhi 110024, India",https://www.google.co.kr/maps/place/Moolchand+Medcity/data=!4m5!3m4!1s0x390ce24def72b52f:0x30d4690410c7d109!8m2!3d28.5664245!4d77.2351427?authuser=0&hl=en&rclk=1,28.5664245,77.2351427,Delhi
Sir Ganga Ram Kolmet Hospital,Private hospital,"Rajendra Nagar New Delhi, Delhi, 110060, India",https://www.google.co.kr/maps/place/Sir+Ganga+Ram+Kolmet+Hospital/data=!4m5!3m4!1s0x390d0297e2c854a1:0x501d9557f6225380!8m2!3d28.6434961!4d77.1873146?authuser=0&hl=en&rclk=1,28.6434961,77.1873146,Delhi
Dwarka Hospital,General hospital,"B-92,Pipe Line, Patel Garden, Kakrola, New Delhi, Delhi 110059, India",https://www.google.co.kr/maps/place/Dwarka+Hospital/data=!4m5!3m4!1s0x390d054876a6e37f:0xc63d6cbf70a116b0!8m2!3d28.616678!4d77.031606?authuser=0&hl=en&rclk=1,28.616678000000004,77.03160600000001,Delhi
"Medeor Hospital, Dwarka",General hospital,"Near Ashirwad Chowk, Phase 1, HAF-B, Sector 12 Dwarka, New Delhi, Delhi 110075, India","https://www.google.co.kr/maps/place/Medeor+Hospital,+Dwarka/data=!4m5!3m4!1s0x390d1adab5ebf583:0x3a696d01c90f74c7!8m2!3d28.5962235!4d77.0455043?authuser=0&hl=en&rclk=1",28.596223499999997,77.04550429999999,Delhi
Mehta Hospital,General hospital,"F1/108/A, Virat Road, Dr. Ambedkar Nagar, Madangir Market, New Delhi, Delhi 110062, India",https://www.google.co.kr/maps/place/Mehta+Hospital/data=!4m5!3m4!1s0x390ce1851a5c59f1:0xab5fa5f87acb60d8!8m2!3d28.523375!4d77.231279?authuser=0&hl=en&rclk=1,28.523375,77.231279,Delhi
Best Hospital in India,Hospital,"44 f/ 9, Rajender Complex, Kishangarh Sec - A, Vasant Kunj, New Delhi, Delhi 110070, India",https://www.google.co.kr/maps/place/Best+Hospital+in+India/data=!4m5!3m4!1s0x390d1e8fffffffff:0x87b5db7449c30180!8m2!3d28.5124389!4d77.1370115?authuser=0&hl=en&rclk=1,28.512438899999996,77.1370115,Delhi
Maharishi Valmiki Hospital,General hospital,"Government of, Puth Khurd Village, New Delhi, Delhi 110039, India",https://www.google.co.kr/maps/place/Maharishi+Valmiki+Hospital/data=!4m5!3m4!1s0x390d079b920988df:0x849d723f7e8c239d!8m2!3d28.7757959!4d77.0484819?authuser=0&hl=en&rclk=1,28.7757959,77.0484819,Delhi
ESI Hospital,Government hospital,"Dr KN Katju Marg, Opp HP Petrol Pump, Sector 15, Sector 15A, Rohini, New Delhi, Delhi 110089, India",https://www.google.co.kr/maps/place/ESI+Hospital/data=!4m5!3m4!1s0x390d016aa1a6518b:0x69d68594dc338fe1!8m2!3d28.7279373!4d77.12591?authuser=0&hl=en&rclk=1,28.7279373,77.12591,Delhi
Medicals in India | Hospitals in India,Medical Center,"B-138, Fourth Floor, Mohammadpur, Bhikaji Cama Place, New Delhi, Delhi 110066, India",https://www.google.co.kr/maps/place/Medicals+in+India+%7C+Hospitals+in+India/data=!4m5!3m4!1s0x390cfd309eebed77:0x71f5da0d9bf110a5!8m2!3d28.568095!4d77.186618?authuser=0&hl=en&rclk=1,28.568095,77.18661800000001,Delhi
"Dharamshila Narayana Superspeciality Hospital, Delhi",Hospital,"Metro Station, Dharamshila marg, Vasundhara Enclave Near Ashok Nagar, Dallupura, New Delhi, Delhi 110096, India","https://www.google.co.kr/maps/place/Dharamshila+Narayana+Superspeciality+Hospital,+Delhi/data=!4m5!3m4!1s0x390ce4eeffffffff:0x75d3303be5f4d44d!8m2!3d28.6025216!4d77.3141282?authuser=0&hl=en&rclk=1",28.602521600000003,77.3141282,Delhi
Sunrise Hospital,Hospital,"F-1, Gate, No 2, Garden Ln, Kalindi Colony, New Delhi, Delhi 110065, India",https://www.google.co.kr/maps/place/Sunrise+Hospital/data=!4m5!3m4!1s0x390ce39f2985e0bb:0x3a89d01ce7f403b6!8m2!3d28.577077!4d77.265937?authuser=0&hl=en&rclk=1,28.577077000000003,77.265937,Delhi
Jeewan Hospital,General hospital,"150, Bharath Nagar Road Jeewan Nagar, Gate Number 1, Maharani Bagh, New Delhi, Delhi 110014, India",https://www.google.co.kr/maps/place/Jeewan+Hospital/data=!4m5!3m4!1s0x390ce3a290000001:0x74eb511de60759c3!8m2!3d28.5782918!4d77.2593703?authuser=0&hl=en&rclk=1,28.5782918,77.2593703,Delhi
Ujala Cygnus: MLS Hospitals,Private hospital,"Plot No 4, Main Market, Kanjhawala Rd, Rama Vihar, Sector 38, Rohini, Delhi, 110085, India",https://www.google.co.kr/maps/place/Ujala+Cygnus:+MLS+Hospitals/data=!4m5!3m4!1s0x390d065ebc0f9e0b:0x69440fc8378dc4d4!8m2!3d28.7266879!4d77.0517198?authuser=0&hl=en&rclk=1,28.726687899999995,77.0517198,Delhi
"Max Super Speciality Hospital, Saket (Max Saket)",Hospital,"1 2, Press Enclave Marg, Saket Institutional Area, Saket, New Delhi, Delhi 110017, India","https://www.google.co.kr/maps/place/Max+Super+Speciality+Hospital,+Saket+(Max+Saket)/data=!4m5!3m4!1s0x390ce1f427d4c5fb:0x582d47bbf4970bc1!8m2!3d28.527549!4d77.2119946?authuser=0&hl=en&rclk=1",28.527549,77.2119946,Delhi
Hospital,General hospital,"Mori Gate Marg, Police Lines, Civil Lines, New Delhi, Delhi 110054, India",https://www.google.co.kr/maps/place/Hospital/data=!4m5!3m4!1s0x390cfd0a5d5fefb1:0x526d55abc774a19c!8m2!3d28.6682776!4d77.2210746?authuser=0&hl=en&rclk=1,28.6682776,77.2210746,Delhi
Amarleela Hospital,General hospital,"B-1/6, Main Najafgarh Rd, Block B1, Janakpuri, New Delhi, Delhi 110058, India",https://www.google.co.kr/maps/place/Amarleela+Hospital/data=!4m5!3m4!1s0x390d04bd7b3815a3:0x9036764cf313d335!8m2!3d28.6334304!4d77.0887269?authuser=0&hl=en&rclk=1,28.6334304,77.08872690000001,Delhi
Saraswati Memorial Hospital,General hospital,"347/1, 332/2 & 333, 2, Ram Swaroop Vidyarthi Marg, Than Singh Nagar, Anand Parbat, New Delhi, Delhi 110005, India",https://www.google.co.kr/maps/place/Saraswati+Memorial+Hospital/data=!4m5!3m4!1s0x390d028f47394c1b:0xdba449ec7dd5bb41!8m2!3d28.659034!4d77.1817191?authuser=0&hl=en&rclk=1,28.659034000000002,77.1817191,Delhi
Vimhans Nayati Super Speciality Hospital,Private hospital,"1, Institutional Area, Nehru Nagar, Lajpat Nagar, New Delhi, Delhi 110065, India",https://www.google.co.kr/maps/place/Vimhans+Nayati+Super+Speciality+Hospital/data=!4m5!3m4!1s0x390ce3aafc3c427b:0xe8f2330845f74fc!8m2!3d28.5692702!4d77.2510561?authuser=0&hl=en&rclk=1,28.5692702,77.2510561,Delhi
Jain Charitable Hospital,Hospital,"Gali Number 5, Gandhi Nagar, Raghubarpura 2, Seelampur, Shahdara, New Delhi, Delhi 110031, India",https://www.google.co.kr/maps/place/Jain+Charitable+Hospital/data=!4m5!3m4!1s0x390cfc8e8675ef35:0x8652dcdd11320ac3!8m2!3d28.6649861!4d77.2699534?authuser=0&hl=en&rclk=1,28.664986100000004,77.2699534,Delhi
Shri Balaji Hospital,General hospital,"Shop No. 76, Sharma Colony, Phase 2, Budh Vihar, Delhi, 110086, India",https://www.google.co.kr/maps/place/Shri+Balaji+Hospital/data=!4m5!3m4!1s0x390d06b90120a53f:0x3bbd9d3561ebe94f!8m2!3d28.722418!4d77.087921?authuser=0&hl=en&rclk=1,28.722417999999998,77.087921,Delhi
Satyabhama Hospital Private Limited,Private hospital,"RZ-10, Naresh Park, Najafgarh Road, Nangloi, Near Water Tank, New Delhi, Delhi 110041, India",https://www.google.co.kr/maps/place/Satyabhama+Hospital+Private+Limited/data=!4m5!3m4!1s0x390d04363ac7defb:0xabc9e61a22f9154e!8m2!3d28.6769985!4d77.0633921?authuser=0&hl=en&rclk=1,28.6769985,77.0633921,Delhi
A One Hospital,Hospital,"A1/7 Paschim Vihar, Opp- metro pillar no. 264, New Delhi, Delhi 110063, India",https://www.google.co.kr/maps/place/A+One+Hospital/data=!4m5!3m4!1s0x390d0478ffffffff:0x75c4508a942d025d!8m2!3d28.6787841!4d77.0979937?authuser=0&hl=en&rclk=1,28.6787841,77.0979937,Delhi
Garg Hospital,General hospital,"No. 8& 9 opposite Karkardooma Court, A G C R Enclave, New Delhi, 110092, India",https://www.google.co.kr/maps/place/Garg+Hospital/data=!4m5!3m4!1s0x390cfb5d828eeed5:0x910a26fd6f8efb5!8m2!3d28.6531778!4d77.2948952?authuser=0&hl=en&rclk=1,28.653177799999998,77.2948952,Delhi
Singhal Hospital,General hospital,"C-40, Gali Number 9, near DESU office, Palam Colony, Sadh Nagar, Manglapuri, New Delhi, Delhi 110045, India",https://www.google.co.kr/maps/place/Singhal+Hospital/data=!4m5!3m4!1s0x390d1b425fed7b73:0x9add2c663892eba1!8m2!3d28.5882247!4d77.0887492?authuser=0&hl=en&rclk=1,28.588224699999998,77.08874920000001,Delhi
Dehli Hospital,Hospital,"India, 4238, Ansari Rd, Part 1, Daryaganj, New Delhi, Delhi 110002, India",https://www.google.co.kr/maps/place/Dehli+Hospital/data=!4m5!3m4!1s0x390cfcd941d35c61:0x93263d0ab5564827!8m2!3d28.6418844!4d77.245344?authuser=0&hl=en&rclk=1,28.6418844,77.24534399999999,Delhi
RLKC Hospital & Metro Heart Institute,Hospital,"Pandav Nagar, Naraina Road, Near Shadipur Metro Station, New Delhi, Delhi 110008, India",https://www.google.co.kr/maps/place/RLKC+Hospital+%26+Metro+Heart+Institute/data=!4m5!3m4!1s0x390d02e3196a9c2b:0xee100ef336a2a000!8m2!3d28.6511745!4d77.1547547?authuser=0&hl=en&rclk=1,28.6511745,77.1547547,Delhi
Aggarwal Dharmarth Hospital,General hospital,"24/9, Shakti Nagar, New Delhi, Delhi 110007, India",https://www.google.co.kr/maps/place/Aggarwal+Dharmarth+Hospital/data=!4m5!3m4!1s0x390cfd884dfe0b9f:0x56538734d52e16e3!8m2!3d28.681316!4d77.1977286?authuser=0&hl=en&rclk=1,28.681316,77.19772859999999,Delhi
Orchid Hospital Maternity and Heart Centre,General hospital,"C-3/91-92, Major P Srikumar Marg, Block C3A, Block C3, Janakpuri, New Delhi, Delhi 110058, India",https://www.google.co.kr/maps/place/Orchid+Hospital+Maternity+and+Heart+Centre/data=!4m5!3m4!1s0x390d04b3ba8ae503:0x92656f31f15df722!8m2!3d28.6144708!4d77.0874182?authuser=0&hl=en&rclk=1,28.6144708,77.0874182,Delhi
Brahm Shakti Hospital,General hospital,"No.U, 1/78, Kanjhawala Rd, Pocket C, Budh Vihar Phase I, Budh Vihar, Delhi, 110086, India",https://www.google.co.kr/maps/place/Brahm+Shakti+Hospital/data=!4m5!3m4!1s0x390d06a2c1532bb7:0xd417458301820e22!8m2!3d28.7123705!4d77.0812466?authuser=0&hl=en&rclk=1,28.712370500000002,77.08124659999999,Delhi
Revive Hospital,General hospital,"5A/2, 491, opp. Metro Pillar No, near Police Station, Tilak Nagar, New Delhi, Delhi 110018, India",https://www.google.co.kr/maps/place/Revive+Hospital/data=!4m5!3m4!1s0x390d049e3db72e13:0xc8a221d275604a39!8m2!3d28.6393489!4d77.1015221?authuser=0&hl=en&rclk=1,28.6393489,77.1015221,Delhi
Dashmesh Hospital,General hospital,"C141, Jail Road, Near Fateh Nagar Bus Stand, Shiv Nagar Extension, Janakpuri, New Delhi, Delhi 110058, India",https://www.google.co.kr/maps/place/Dashmesh+Hospital/data=!4m5!3m4!1s0x390d04a13ccf2267:0x602cc82dbdc7dc55!8m2!3d28.630396!4d77.098858?authuser=0&hl=en&rclk=1,28.630396,77.09885799999999,Delhi
Delhi Hospital and Nursing Home,Private hospital,"Rohtak Rd, near Shyamji Complex, Ram Nagar, Bahadurgarh, Haryana 124507, India",https://www.google.co.kr/maps/place/Delhi+Hospital+and+Nursing+Home/data=!4m5!3m4!1s0x390d09356486577f:0xe1775ed1d4fe2fa9!8m2!3d28.6903455!4d76.9416188?authuser=0&hl=en&rclk=1,28.690345500000003,76.9416188,Delhi
Muni Maya Ram Jain Hospital,General hospital,"Muni Maya Ram Jain Marg, KD Block, Near DAV School, Pitampura, New Delhi, Delhi 110034, India",https://www.google.co.kr/maps/place/Muni+Maya+Ram+Jain+Hospital/data=!4m5!3m4!1s0x390d03d1125c5ae9:0x40f41277174e79f7!8m2!3d28.7001026!4d77.1411617?authuser=0&hl=en&rclk=1,28.7001026,77.14116170000001,Delhi
National Heart Institute,Heart hospital,"49 50 Community Center, East of Kailash, New Delhi, Delhi 110065, India",https://www.google.co.kr/maps/place/National+Heart+Institute/data=!4m5!3m4!1s0x390ce3ca007cfb83:0xdcfda3363c6f2cac!8m2!3d28.5573003!4d77.2457923?authuser=0&hl=en&rclk=1,28.5573003,77.24579229999999,Delhi
Sri Balaji Action Medical Institute,General hospital,"A 4 Block, A 6 Block, Paschim Vihar, New Delhi, Delhi 110063, India",https://www.google.co.kr/maps/place/Sri+Balaji+Action+Medical+Institute/data=!4m5!3m4!1s0x390d038ef06fd67f:0x6e2bd35180f8722a!8m2!3d28.6737837!4d77.1102673?authuser=0&hl=en&rclk=1,28.6737837,77.11026729999999,Delhi
Sir Ganga Ram Hospital,Private hospital,"Sir Ganga Ram Hospital Marg, Old Rajinder Nagar, New Rajinder Nagar, New Delhi, Delhi 110060, India",https://www.google.co.kr/maps/place/Sir+Ganga+Ram+Hospital/data=!4m5!3m4!1s0x390d02a17c4ab835:0xecd838535c0fa0f6!8m2!3d28.6384582!4d77.1895559?authuser=0&hl=en&rclk=1,28.6384582,77.1895559,Delhi
Hitaishi Hospital,General hospital,"E-15/154, Pradeep Bhatia Marg, Pocket 5, Sector 8, Rohini, Delhi, 110085, India",https://www.google.co.kr/maps/place/Hitaishi+Hospital/data=!4m5!3m4!1s0x390d03e1d49047e7:0xdcc7cac353b2063c!8m2!3d28.7054096!4d77.1217014?authuser=0&hl=en&rclk=1,28.705409600000003,77.1217014,Delhi
Fortis Hospital,Hospital,"A/2, Rohtak Rd, Karol Bagh, New Delhi, Delhi 110005, India",https://www.google.co.kr/maps/place/Fortis+Hospital/data=!4m5!3m4!1s0x390d0412ba0fe2e9:0xc2c59bcf9cfcb952!8m2!3d28.6646732!4d77.1752243?authuser=0&hl=en&rclk=1,28.664673200000003,77.1752243,Delhi
DELHI MULTI SPECIALITY HOSPITAL,Hospital,"I-21, Vijay Vihar Phase II, Vijay Vihar, Sector 4, Rohini, Delhi, 110085, India",https://www.google.co.kr/maps/place/DELHI+MULTI+SPECIALITY+HOSPITAL/data=!4m5!3m4!1s0x390d06aef7ac4177:0xacd81a55e6d7dbce!8m2!3d28.7118178!4d77.0947941?authuser=0&hl=en&rclk=1,28.711817800000002,77.0947941,Delhi
Karuna Hospital- Multispeciality Hospital,Private hospital,"D-62, Pocket E, Dilshad Colony New Simapuri, Dilshad Colony, New Delhi, Delhi 110095, India",https://www.google.co.kr/maps/place/Karuna+Hospital-+Multispeciality+Hospital/data=!4m5!3m4!1s0x390cfbafb7688723:0x85b36c2240c39dc8!8m2!3d28.6890659!4d77.3232058?authuser=0&hl=en&rclk=1,28.6890659,77.3232058,Delhi
Sehgal Neo Hospital,General hospital,"B-362, 363, 364, Outer Ring Rd, Near to ICICI Bank, Block B, Meera Bagh, Paschim Vihar, New Delhi, Delhi 110063, India",https://www.google.co.kr/maps/place/Sehgal+Neo+Hospital/data=!4m5!3m4!1s0x390d0462a45f9dcb:0xb0255f881c728ba2!8m2!3d28.6581516!4d77.0915255?authuser=0&hl=en&rclk=1,28.6581516,77.0915255,Delhi
SCI International Hospital,Hospital,"4, Hansraj Gupta Rd, Greater Kailash-1, M Block, Greater Kailash I, Greater Kailash, New Delhi, Delhi 110048, India",https://www.google.co.kr/maps/place/SCI+International+Hospital/data=!4m5!3m4!1s0x390ce3b8bbcfe79f:0x96728b689c533cc3!8m2!3d28.5499056!4d77.2340126?authuser=0&hl=en&rclk=1,28.549905600000002,77.2340126,Delhi
OPD,General hospital,"Basant Rd, Sidarth Basti, Kaseru Walan, Connaught Place, New Delhi, Delhi 110001, India",https://www.google.co.kr/maps/place/OPD/data=!4m5!3m4!1s0x390cfd465594a7af:0x35687f17edaacd34!8m2!3d28.6389426!4d77.2158214?authuser=0&hl=en&rclk=1,28.638942600000004,77.21582140000001,Delhi
K K Hospital,General hospital,"2, Inder Enclave, Rohtak Rd, opposite Pillar No. 316, Peera Garhi, New Delhi, Delhi 110087, India",https://www.google.co.kr/maps/place/K+K+Hospital/data=!4m5!3m4!1s0x390d0414c39ef7bb:0xc89e97584dc71e7!8m2!3d28.6804833!4d77.08321?authuser=0&hl=en&rclk=1,28.6804833,77.08321,Delhi
Kailash Hospital,Hospital,"50, South Patel Nagar, Block 8, Patel Nagar, New Delhi, Delhi 110008, India",https://www.google.co.kr/maps/place/Kailash+Hospital/data=!4m5!3m4!1s0x390d02eba5bbe2fb:0xa9a5b08dc3135b37!8m2!3d28.6452948!4d77.1681749?authuser=0&hl=en&rclk=1,28.645294800000002,77.16817490000001,Delhi
Ivf Hospital in Delhi,Hospital,"Outer Ring Rd, Block E, Soami Nagar North, Soami Nagar, New Delhi, Delhi 110017, India",https://www.google.co.kr/maps/place/Ivf+Hospital+in+Delhi/data=!4m5!3m4!1s0x390ce224e1048511:0xae06dffebbc15f84!8m2!3d28.5422388!4d77.2259295?authuser=0&hl=en&rclk=1,28.542238800000003,77.2259295,Delhi
Moolchandra Hospital New Delhi,Hospital,"H68P+954, Block M, Lajpat Nagar III, Lajpat Nagar, New Delhi, Delhi 110024, India",https://www.google.co.kr/maps/place/Moolchandra+Hospital+New+Delhi/data=!4m5!3m4!1s0x390ce24ddb4e1f99:0xedcb19405ccd987d!8m2!3d28.5658941!4d77.2354568?authuser=0&hl=en&rclk=1,28.565894099999998,77.2354568,Delhi
Delhi hospital,Hospital,"Near, Lampur Rd, Bankner Village, Narela, Delhi, 110040, India",https://www.google.co.kr/maps/place/Delhi+hospital/data=!4m5!3m4!1s0x390da96d511d9bdb:0x83b17294020d0417!8m2!3d28.851108!4d77.079544?authuser=0&hl=en&rclk=1,28.851108,77.079544,Delhi
IBS - Best Hospital for Brain Tumour Surgery & Spine Surgery in Delhi,Hospital,"73, Ring Rd, Block L, Lajpat Nagar III, Sarojini Nagar, New Delhi, Delhi 110024, India",https://www.google.co.kr/maps/place/IBS+-+Best+Hospital+for+Brain+Tumour+Surgery+%26+Spine+Surgery+in+Delhi/data=!4m5!3m4!1s0x390ce3b31bdc1513:0x1c1a081fb404998f!8m2!3d28.5655729!4d77.244313?authuser=0&hl=en&rclk=1,28.5655729,77.244313,Delhi
PSRI Hospital,Hospital,"Press Enclave Marg, J Pocket, Phase II, Sheikh Sarai, New Delhi, Delhi 110017, India",https://www.google.co.kr/maps/place/PSRI+Hospital/data=!4m5!3m4!1s0x390ce2276532a245:0xd0cd7116d6474347!8m2!3d28.533387!4d77.2253254?authuser=0&hl=en&rclk=1,28.533387,77.2253254,Delhi
"Fortis La Femme, Greater Kailash II",Maternity hospital,"S - 549 Alakananda, Alaknanda Don Bosco Rd, Greater Kailash II, New Delhi, Delhi 110048, India","https://www.google.co.kr/maps/place/Fortis+La+Femme,+Greater+Kailash+II/data=!4m5!3m4!1s0x390ce17ed7361ec7:0x5802692b09adb2c6!8m2!3d28.5288575!4d77.2437059?authuser=0&hl=en&rclk=1",28.5288575,77.2437059,Delhi
Genesis Hospital,General hospital,"C-1/130, Block C1, Janakpuri, New Delhi, Delhi 110058, India",https://www.google.co.kr/maps/place/Genesis+Hospital/data=!4m5!3m4!1s0x390d04b793f160ad:0xcb231de70558d211!8m2!3d28.620669!4d77.081273?authuser=0&hl=en&rclk=1,28.620669,77.081273,Delhi
Guru Gobind Singh Hospital (GGSH),General hospital,"Sant Nagar Marg, A-2 Block, Virendar Nagar, Block B, West Sant Nagar, Burari, Delhi, 110084, India",https://www.google.co.kr/maps/place/Guru+Gobind+Singh+Hospital+(GGSH)/data=!4m5!3m4!1s0x390cfe2128c72bd7:0xe83f9461e086e7f2!8m2!3d28.741245!4d77.197693?authuser=0&hl=en&rclk=1,28.741245000000003,77.197693,Delhi
Hospital,General hospital,"M35R+696, Block A, Meera Bagh, Paschim Vihar, Delhi, 110087, India",https://www.google.co.kr/maps/place/Hospital/data=!4m5!3m4!1s0x390d056dc271c499:0xb0914af10c4fd992!8m2!3d28.6580377!4d77.0908908?authuser=0&hl=en&rclk=1,28.658037699999998,77.0908908,Delhi
Govind Ballabh Pant Hospital,Government hospital,"1, Jawaharlal Nehru Marg, 64 Khamba, Raj Ghat, New Delhi, Delhi 110002, India",https://www.google.co.kr/maps/place/Govind+Ballabh+Pant+Hospital/data=!4m5!3m4!1s0x390cfcd80ec13561:0x8941ec4bf9184f80!8m2!3d28.6393553!4d77.2350332?authuser=0&hl=en&rclk=1,28.639355300000002,77.2350332,Delhi
No Pant Hospital New Delhi,Hospital,"Mori Gate, Delhi, 110006, India",https://www.google.co.kr/maps/place/No+Pant+Hospital+New+Delhi/data=!4m5!3m4!1s0x390cfd0f0b9d13cd:0xa9feb3165a4c28b6!8m2!3d28.6618976!4d77.2273958?authuser=0&hl=en&rclk=1,28.661897600000003,77.2273958,Delhi
St. Stephen's Hospital,Private hospital,"St. Stephen's Hospital Marg, Tis Hazari, New Delhi, Delhi 110054, India",https://www.google.co.kr/maps/place/St.+Stephen's+Hospital/data=!4m5!3m4!1s0x390cfd7458eee0db:0xbc22d8e585c02caa!8m2!3d28.6667971!4d77.2146145?authuser=0&hl=en&rclk=1,28.666797100000004,77.2146145,Delhi
Hospital,Hospital,"Arya Samaj Gali, Bazar Sirkiwalan, Kalyanpura, Old Delhi, New Delhi, Delhi 110006, India",https://www.google.co.kr/maps/place/Hospital/data=!4m5!3m4!1s0x390cfd22bbd4a035:0xc92e7b3bfe5ce245!8m2!3d28.6464029!4d77.2299399?authuser=0&hl=en&rclk=1,28.6464029,77.2299399,Delhi
GAMCA Office,General hospital,"E-42, near TATA MOTORS, Pocket E, Okhla Phase II, Okhla Industrial Estate, New Delhi, Delhi 110020, India",https://www.google.co.kr/maps/place/GAMCA+Office/data=!4m5!3m4!1s0x390ce2525204b659:0x9ad745764153697b!8m2!3d28.5371976!4d77.2700034?authuser=0&hl=en&rclk=1,28.537197600000002,77.27000340000001,Delhi
JEEVAN ANMOL HOSPITAL MAYUR VIHAR PHASE-1,Hospital,"Patparganj Rd, Pocket 4, Pratap Nagar, Mayur Vihar, Delhi, 110091, India",https://www.google.co.kr/maps/place/JEEVAN+ANMOL+HOSPITAL+MAYUR+VIHAR+PHASE-1/data=!4m5!3m4!1s0x390ce5f1ae39af5d:0xb5d318f6e37e2acd!8m2!3d28.6059533!4d77.2954415?authuser=0&hl=en&rclk=1,28.6059533,77.29544150000001,Delhi
Madhukar Rainbow Children's Hospital & BirthRight By Rainbow Hospitals,Children's hospital,"FC-29 5, Gitanjali Malviya Nagar Rd, Near Malviya Nagar Metro Station, Malviya Nagar, New Delhi, Delhi 110017, India",https://www.google.co.kr/maps/place/Madhukar+Rainbow+Children's+Hospital+%26+BirthRight+By+Rainbow+Hospitals/data=!4m5!3m4!1s0x390ce1f814a7b2a9:0x984014aad0886b67!8m2!3d28.529288!4d77.20464?authuser=0&hl=en&rclk=1,28.529288,77.20464,Delhi
Janakpuri Super Speciality Hospital,Hospital,"C2B, Janakpuri Lal Sai Mandir Marg Opposite Dussehra ground, New Delhi, Delhi 110058, India",https://www.google.co.kr/maps/place/Janakpuri+Super+Speciality+Hospital/data=!4m5!3m4!1s0x390d04acd7303979:0x7f913a385ac2b53!8m2!3d28.6212513!4d77.0898123?authuser=0&hl=en&rclk=1,28.621251300000004,77.0898123,Delhi
WUS Health Centre,General hospital,"Chhatra Marg, University Enclave, New Delhi, Delhi 110007, India",https://www.google.co.kr/maps/place/WUS+Health+Centre/data=!4m5!3m4!1s0x390cfd932151048b:0xdf73df84f647166!8m2!3d28.690164!4d77.2093254?authuser=0&hl=en&rclk=1,28.690164000000003,77.20932540000001,Delhi
"Max Super Speciality Hospital, Shalimar Bagh",Hospital,"FC 50, Max Wali Rd, C and D Block, Shalimar Place Site, Shalimar Bagh, New Delhi, Delhi 110088, India","https://www.google.co.kr/maps/place/Max+Super+Speciality+Hospital,+Shalimar+Bagh/data=!4m5!3m4!1s0x390d019eea1416d7:0xc4c7bcd628010c86!8m2!3d28.7278148!4d77.1527182?authuser=0&hl=en&rclk=1",28.727814799999997,77.15271820000001,Delhi
B K Memorial Hospital,General hospital,"A-4/22 Paschim Vihar, New Delhi, Delhi 110063, India",https://www.google.co.kr/maps/place/B+K+Memorial+Hospital/data=!4m5!3m4!1s0x390d038f8cd7d937:0x628cdaf8fbc0ebc7!8m2!3d28.6712092!4d77.1125874?authuser=0&hl=en&rclk=1,28.6712092,77.11258740000001,Delhi
Medanta Mediclinic,Hospital,"E-18, Chauhan Vithi Rd, Block E, Defence Colony, New Delhi, Delhi 110049, India",https://www.google.co.kr/maps/place/Medanta+Mediclinic/data=!4m5!3m4!1s0x390ce37bb7699cc1:0xe29a95d42cef75fc!8m2!3d28.5671747!4d77.2281806?authuser=0&hl=en&rclk=1,28.5671747,77.2281806,Delhi
Sir Ganga Ram City Hospital,Hospital,"Sir Ganga Ram City Hospital, Pusa Rd, New Delhi, Delhi 110005, India",https://www.google.co.kr/maps/place/Sir+Ganga+Ram+City+Hospital/data=!4m5!3m4!1s0x390d03220afd8609:0x59c01f2b669b23a0!8m2!3d28.6441696!4d77.1912778?authuser=0&hl=en&rclk=1,28.644169599999998,77.1912778,Delhi
Rashmi Hospital,General hospital,"JP-6 Colony Road, near Gopal Mandir, Maurya Enclave, Pitam Pura, Delhi, 110034, India",https://www.google.co.kr/maps/place/Rashmi+Hospital/data=!4m5!3m4!1s0x390d03c155555555:0xb852226f5d5e8259!8m2!3d28.70486!4d77.144502?authuser=0&hl=en&rclk=1,28.704859999999996,77.144502,Delhi
Agrawal Nursing Home,General hospital,"2528/ 192, Tri Nagar, New Delhi, Delhi 110035, India",https://www.google.co.kr/maps/place/Agrawal+Nursing+Home/data=!4m5!3m4!1s0x390d024569b20577:0xbb4c9f349a30d8be!8m2!3d28.6770688!4d77.1611466?authuser=0&hl=en&rclk=1,28.6770688,77.1611466,Delhi
Sardar Vallabh Bhai Patel Hospital,Hospital,"East Patel Nagar, Patel Nagar, New Delhi, Delhi 110008, India",https://www.google.co.kr/maps/place/Sardar+Vallabh+Bhai+Patel+Hospital/data=!4m5!3m4!1s0x390d02eb7a5879b3:0x8c90c30c3328ae12!8m2!3d28.6470299!4d77.1689551?authuser=0&hl=en&rclk=1,28.6470299,77.16895509999999,Delhi
B.M. Gupta Hospital Pvt. Ltd.,General hospital,"H-9 15, Arya Samaj Rd, SDM Market, Block O, Uttam Nagar, New Delhi, Delhi 110059, India",https://www.google.co.kr/maps/place/B.M.+Gupta+Hospital+Pvt.+Ltd./data=!4m5!3m4!1s0x390d04d75a755905:0x9568c5b47ec02a4c!8m2!3d28.619539!4d77.0613698?authuser=0&hl=en&rclk=1,28.619539000000003,77.0613698,Delhi
manipal hospital,Hospital,"Indra Gandhi Rd, Sport View, Delhi Cantonment, New Delhi, Delhi 110010, India",https://www.google.co.kr/maps/place/manipal+hospital/data=!4m5!3m4!1s0x390d1d8a541198fd:0xee4589af082d8c5e!8m2!3d28.5717874!4d77.1359396?authuser=0&hl=en&rclk=1,28.5717874,77.1359396,Delhi
Westend Hospital,Hospital,"11/72 Near Allahabad Bank, Tilak Nagar, New Delhi, Delhi 110018, India",https://www.google.co.kr/maps/place/Westend+Hospital/data=!4m5!3m4!1s0x390d0499677acc6b:0x534ddeef72297a6d!8m2!3d28.6390935!4d77.0951548?authuser=0&hl=en&rclk=1,28.6390935,77.09515479999999,Delhi
BSF Hospital,Hospital,"Near East Block 9-10, East Block, Rama Krishna Puram, New Delhi, Delhi 110066, India",https://www.google.co.kr/maps/place/BSF+Hospital/data=!4m5!3m4!1s0x390d1d84d868dc85:0x8af79a380cdd2146!8m2!3d28.5657561!4d77.1838655?authuser=0&hl=en&rclk=1,28.565756099999998,77.1838655,Delhi
R.P. Memorial Hospital,General hospital,"Krishna Mandir, 496, Najafgarh Road Nangloi Near, New Delhi, Delhi 110041, India",https://www.google.co.kr/maps/place/R.P.+Memorial+Hospital/data=!4m5!3m4!1s0x390d04379f5fbd39:0xb1712fa87fa360f6!8m2!3d28.680254!4d77.066526?authuser=0&hl=en&rclk=1,28.680253999999998,77.066526,Delhi
Spring Meadows Hospital - Multispeciality Hospital,Hospital,"Block F, F-44, Block F, East of Kailash, New Delhi, Delhi 110065, India",https://www.google.co.kr/maps/place/Spring+Meadows+Hospital+-+Multispeciality+Hospital/data=!4m5!3m4!1s0x390ce3cb05555555:0x1eb35cdb6a97d8a1!8m2!3d28.5560531!4d77.2440296?authuser=0&hl=en&rclk=1,28.556053100000003,77.24402959999999,Delhi
Nirmal Hospital,General hospital,"243, C-6/241,241, Main, Police Station Rd, Sultanpuri, New Delhi, Delhi 110086, India",https://www.google.co.kr/maps/place/Nirmal+Hospital/data=!4m5!3m4!1s0x390d06a073a723f7:0x49ed94247993566a!8m2!3d28.7024309!4d77.0811157?authuser=0&hl=en&rclk=1,28.7024309,77.0811157,Delhi
Kalawati Saran Children's Hospital,Children's hospital,"C- 604, Connaught Circus, Bangla Sahib Rd, DIZ Area, Connaught Place, New Delhi, Delhi 110001, India",https://www.google.co.kr/maps/place/Kalawati+Saran+Children's+Hospital/data=!4m5!3m4!1s0x390cfd467a43264f:0xbe9fa21ab1a2cb1d!8m2!3d28.6359335!4d77.2108548?authuser=0&hl=en&rclk=1,28.635933500000004,77.21085479999999,Delhi
