Company_Name,Category,Address,Url,Latitude,Longitude,State,Territory
"Medicover Hospitals, Nellore, Andhra Pradesh | Best Hospital in Nellore",General hospital,"NH-5, Chinthareddypalem Cross road, Alahari Nagar, Chintareddy Palem, Nellore, Andhra Pradesh 524003, India","https://www.google.co.kr/maps/place/Medicover+Hospitals,+Nellore,+Andhra+Pradesh+%7C+Best+Hospital+in+Nellore/data=!4m5!3m4!1s0x3a4cf3504c5b2a3d:0xfc8337a31b24e2c!8m2!3d14.4366521!4d79.9992737?authuser=0&hl=en&rclk=1",14.4366521,79.9992737,Andhra Pradesh,South
Seven Hills Hospital,General hospital,"Rockdale Layout, Waltair Main Rd, Ram Nagar, Visakhapatnam, Andhra Pradesh 530002, India",https://www.google.co.kr/maps/place/Seven+Hills+Hospital/data=!4m5!3m4!1s0x3a39691851b88ab7:0x122ec1f5747fbce8!8m2!3d17.7172617!4d83.3093477?authuser=0&hl=en&rclk=1,17.7172617,83.3093477,Andhra Pradesh,South
Time Hospital,Private hospital,"Bus Stop, 11/150 Vijayawada Road Opp Ashoknagar, Sanath Nagar, Vijayawada, Andhra Pradesh 520007, India",https://www.google.co.kr/maps/place/Time+Hospital/data=!4m5!3m4!1s0x3a35fb1e25db55c5:0xb669c5e4d093e7b3!8m2!3d16.4876592!4d80.6774803?authuser=0&hl=en&rclk=1,16.4876592,80.6774803,Andhra Pradesh,South
Queen's NRI Hospital,Hospital,"d.no, 50-53-14, Gurudwara Rd, Balayya Sastri Layout, Seethammadara, Visakhapatnam, Andhra Pradesh 530013, India",https://www.google.co.kr/maps/place/Queen's+NRI+Hospital/data=!4m5!3m4!1s0x3a3943311226a1ed:0x2f12873df4d18d45!8m2!3d17.7404065!4d83.3081929?authuser=0&hl=en&rclk=1,17.7404065,83.3081929,Andhra Pradesh,South
SevenHills Hospital,General hospital,"Door No. 11-4-4/A, Waltair Main Road Ram Nagar Rockdale Layout, Visakhapatnam, Andhra Pradesh 530002, India",https://www.google.co.kr/maps/place/SevenHills+Hospital/data=!4m5!3m4!1s0x3a394315d34e4a3d:0xa591b07d804626ac!8m2!3d17.7173026!4d83.3095681?authuser=0&hl=en&rclk=1,17.7173026,83.3095681,Andhra Pradesh,South
Andhra Hospitals,Private hospital,"ZP High School, Moulangar Masjid Rd Opp, Bhavanipuram, Gollapudi, Vijayawada, Andhra Pradesh 521225, India",https://www.google.co.kr/maps/place/Andhra+Hospitals/data=!4m5!3m4!1s0x3a35ee4a4ef7f55d:0x9f29a806f12d4795!8m2!3d16.536301!4d80.584723?authuser=0&hl=en&rclk=1,16.536301,80.584723,Andhra Pradesh,South
Sentini Hospital,General hospital,"54-15-5 B&C, Ring Rd, beside Vinayak Theatre, Vijayawada, Andhra Pradesh 520008, India",https://www.google.co.kr/maps/place/Sentini+Hospital/data=!4m5!3m4!1s0x3a35e52a9cc6edbf:0x6b1de8b11f398fa0!8m2!3d16.509834!4d80.6649419?authuser=0&hl=en&rclk=1,16.509834,80.6649419,Andhra Pradesh,South
Aayush Hospitals,Private hospital,"48-13-3 3A Ring Road Opp.Siddhartha Medical College, Sri Ramachandra Nagar, Vijayawada, Andhra Pradesh 520008, India",https://www.google.co.kr/maps/place/Aayush+Hospitals/data=!4m5!3m4!1s0x3a35e52a588982d3:0x347b24cb13754346!8m2!3d16.517483!4d80.675097?authuser=0&hl=en&rclk=1,16.517483,80.675097,Andhra Pradesh,South
KIMS ICON Hospitals,Private hospital,"Sheela Nagar, Visakhapatnam, Andhra Pradesh 530026, India",https://www.google.co.kr/maps/place/KIMS+ICON+Hospitals/data=!4m5!3m4!1s0x3a3968ed11aaded3:0x5fe95f2024c0e6fd!8m2!3d17.7144161!4d83.1957038?authuser=0&hl=en&rclk=1,17.7144161,83.1957038,Andhra Pradesh,South
Aswini Hospitals,Hospital,"Bus Stand, Besides Manipuram Fly Over, near R.T.C, Guntur, Andhra Pradesh 522001, India",https://www.google.co.kr/maps/place/Aswini+Hospitals/data=!4m5!3m4!1s0x3a4a0ab4581a6839:0x70fb7c80fff28382!8m2!3d16.2986615!4d80.4577625?authuser=0&hl=en&rclk=1,16.2986615,80.4577625,Andhra Pradesh,South
Tirumala Hospitals,Private hospital,"PRS Complex, Tirumala Hospitals Road, Near R.T.C. Complex, Vizianagaram, Andhra Pradesh 535003, India",https://www.google.co.kr/maps/place/Tirumala+Hospitals/data=!4m5!3m4!1s0x3a3be547be991719:0x21cecca15b6053b2!8m2!3d18.107232!4d83.4012301?authuser=0&hl=en&rclk=1,18.107232,83.4012301,Andhra Pradesh,South
Help Hospitals,Hospital,"MG Rd, behind Victoria Museum, Buckinghampeta, Vijayawada, Andhra Pradesh 520002, India",https://www.google.co.kr/maps/place/Help+Hospitals/data=!4m5!3m4!1s0x3a35f0016355816d:0x911bc66aa6088bbd!8m2!3d16.5082352!4d80.6279497?authuser=0&hl=en&rclk=1,16.5082352,80.6279497,Andhra Pradesh,South
Christian Medical Centre,Hospital,"Agraharam, Pithapuram, Andhra Pradesh 533450, India",https://www.google.co.kr/maps/place/Christian+Medical+Centre/data=!4m5!3m4!1s0x3a382ad9116b58a5:0xaadee6fcd59e66e4!8m2!3d17.1258333!4d82.254299?authuser=0&hl=en&rclk=1,17.1258333,82.254299,Andhra Pradesh,South
Amara Hospital,Hospital,"NH716, Karakambadi Rural, Andhra Pradesh 517520, India",https://www.google.co.kr/maps/place/Amara+Hospital/data=!4m5!3m4!1s0x3a4d4a4c06fcaa9d:0x93e13d62cf6394a8!8m2!3d13.6646284!4d79.5148259?authuser=0&hl=en&rclk=1,13.6646284,79.5148259,Andhra Pradesh,South
St. Joseph General Hospital,General hospital,"AC College Rd, Opp. AC College, Kanna Vari Thota, Guntur, Andhra Pradesh 522004, India",https://www.google.co.kr/maps/place/St.+Joseph+General+Hospital/data=!4m5!3m4!1s0x3a4a7546fe96efc9:0x3d4af82c72254a2b!8m2!3d16.2975205!4d80.4411613?authuser=0&hl=en&rclk=1,16.2975205,80.4411613,Andhra Pradesh,South
Sri Venkateswara Ramnarayan Ruia Government General Hospital,Government hospital,"Alipiri Rd, Alipiri Gate, Sri Padmavati Mahila Visvavidyalayam, Tirupati, Andhra Pradesh 517507, India",https://www.google.co.kr/maps/place/Sri+Venkateswara+Ramnarayan+Ruia+Government+General+Hospital/data=!4m5!3m4!1s0x3a4d4b0558976397:0x8e210c357df5c7ba!8m2!3d13.6447357!4d79.4057679?authuser=0&hl=en&rclk=1,13.6447357,79.4057679,Andhra Pradesh,South
KIMS Hospital,Hospital,"Seelam Nookaraju Complex Rd, Katari Gardens, Gandhipuram, Rajahmundry, Andhra Pradesh 533103, India",https://www.google.co.kr/maps/place/KIMS+Hospital/data=!4m5!3m4!1s0x3a37a38c3a4e475d:0x3b2245a78cd1000e!8m2!3d17.0012168!4d81.7861392?authuser=0&hl=en&rclk=1,17.0012168,81.7861392,Andhra Pradesh,South
Kanumuri Hospitals,General hospital,"D.No. 12, Sanakkayala Factory Rd, Kothapeta, Guntur, Andhra Pradesh 522001, India",https://www.google.co.kr/maps/place/Kanumuri+Hospitals/data=!4m5!3m4!1s0x3a4a754e9ef24dd9:0x5b6287473d94c4c9!8m2!3d16.3020739!4d80.4490322?authuser=0&hl=en&rclk=1,16.3020739,80.4490322,Andhra Pradesh,South
King George Hospital,Government hospital,"KGH Down Rd, Opp KGH OP Gate, Maharani Peta, Visakhapatnam, Andhra Pradesh 531011, India",https://www.google.co.kr/maps/place/King+George+Hospital/data=!4m5!3m4!1s0x3a39430fd9c85ff5:0x968bce337f0096bc!8m2!3d17.7087374!4d83.3060385?authuser=0&hl=en&rclk=1,17.7087374,83.3060385,Andhra Pradesh,South
Andhra Hospitals Eluru,Private hospital,"23A, 8-8, Bendapudi Vari St, Powerpet, Eluru, Andhra Pradesh 534002, India",https://www.google.co.kr/maps/place/Andhra+Hospitals+Eluru/data=!4m5!3m4!1s0x3a3614c910683a17:0xeb61194b7126a0cd!8m2!3d16.7123182!4d81.1009435?authuser=0&hl=en&rclk=1,16.7123182,81.1009435,Andhra Pradesh,South
INHS Kalyani,Hospital,"malkapuram, Gandhigram Post, Nausena Baugh, Visakhapatnam, Andhra Pradesh 530005, India",https://www.google.co.kr/maps/place/INHS+Kalyani/data=!4m5!3m4!1s0x3a3969d6286cf04b:0x3c24d188ed5acef1!8m2!3d17.6871271!4d83.2505089?authuser=0&hl=en&rclk=1,17.6871271,83.2505089,Andhra Pradesh,South
AKSHAYA HOSPITAL,Hospital,"43-9-201, SLV Arcade, opp. Sreekanya Building, Theatre, Railway New Colony, Visakhapatnam, Andhra Pradesh 530016, India",https://www.google.co.kr/maps/place/AKSHAYA+HOSPITAL/data=!4m5!3m4!1s0x3a3943275d4ee569:0xfb64bf4850a8c704!8m2!3d17.727636!4d83.2940483?authuser=0&hl=en&rclk=1,17.727636,83.2940483,Andhra Pradesh,South
Ramesh Hospitals,Hospital,"Doctor Ramesh Hospital Road, Near ITI College Bus stop, Vijayawada, Andhra Pradesh 520008, India",https://www.google.co.kr/maps/place/Ramesh+Hospitals/data=!4m5!3m4!1s0x3a35fac93a49e0a5:0x2af79cdbd426badd!8m2!3d16.505686!4d80.6601415?authuser=0&hl=en&rclk=1,16.505686,80.6601415,Andhra Pradesh,South
Hospital,Hospital,"P2J9+8FJ, Medaramatla, Andhra Pradesh 523212, India",https://www.google.co.kr/maps/place/Hospital/data=!4m5!3m4!1s0x3a4af9fac2c04359:0x9d5b8f273700a886!8m2!3d15.7308275!4d80.0186527?authuser=0&hl=en&rclk=1,15.7308275,80.0186527,Andhra Pradesh,South
Andhra Hospitals,Private hospital,"14, C.V.R. Complex 29, 61, Sheshadri Sastry St, Near delphi auto works, Governor Peta, Vijayawada, Andhra Pradesh 520002, India",https://www.google.co.kr/maps/place/Andhra+Hospitals/data=!4m5!3m4!1s0x3a35f001c98370bf:0xd9937df63d60f714!8m2!3d16.5111055!4d80.6294689?authuser=0&hl=en&rclk=1,16.5111055,80.6294689,Andhra Pradesh,South
Hospital,Hospital,"2GM2+V33, Medapi, Andhra Pradesh 523326, India",https://www.google.co.kr/maps/place/Hospital/data=!4m5!3m4!1s0x3a4ab17abc9ca26f:0xe4270f8ac8b0628!8m2!3d16.0346355!4d79.5001733?authuser=0&hl=en&rclk=1,16.0346355,79.5001733,Andhra Pradesh,South
"Ramesh Hospitals, MG Road Unit",Hospital,"MG Rd, Opposite Indira Gandhi Municipal Stadium, Labbipet, Vijayawada, Andhra Pradesh 520010, India","https://www.google.co.kr/maps/place/Ramesh+Hospitals,+MG+Road+Unit/data=!4m5!3m4!1s0x3a35faaf30a48499:0x56830f8c61e42b19!8m2!3d16.5028427!4d80.6388938?authuser=0&hl=en&rclk=1",16.5028427,80.6388938,Andhra Pradesh,South
RIMS Hospital,Government hospital,"Gopal Nagar 5th Ln, Bhagyanagar, Ongole, Andhra Pradesh 523001, India",https://www.google.co.kr/maps/place/RIMS+Hospital/data=!4m5!3m4!1s0x3a4b0118cac728e1:0xe0205941fd9ffe01!8m2!3d15.4878817!4d80.0471437?authuser=0&hl=en&rclk=1,15.4878817,80.0471437,Andhra Pradesh,South
Hope International Hospital,Hospital,"ADB Road, Near, Achampet Junction, Kakinada, Andhra Pradesh 533005, India",https://www.google.co.kr/maps/place/Hope+International+Hospital/data=!4m5!3m4!1s0x3a3829ea206e370f:0xf8ba5df62f3a943!8m2!3d17.02431!4d82.232311?authuser=0&hl=en&rclk=1,17.02431,82.232311,Andhra Pradesh,South
Saveera Hospital Pvt Ltd,Private hospital,"1348, NH 44, opp. Sakshi Office, Srinagar Colony, Extension, India, Andhra Pradesh 515002, India",https://www.google.co.kr/maps/place/Saveera+Hospital+Pvt+Ltd/data=!4m5!3m4!1s0x3bb14a8a601e46bb:0x21aa7d602978212!8m2!3d14.6516326!4d77.5819944?authuser=0&hl=en&rclk=1,14.6516326,77.5819944,Andhra Pradesh,South
Government Hospital,Hospital,"35HG+FHX, Chilakaluripet, Andhra Pradesh 522616, India",https://www.google.co.kr/maps/place/Government+Hospital/data=!4m5!3m4!1s0x3a4a637a00f8a4af:0x66e6bc7b6b8f17ea!8m2!3d16.0787333!4d80.1764953?authuser=0&hl=en&rclk=1,16.0787333,80.1764953,Andhra Pradesh,South
Hospital,Government hospital,"M65G+J56, Tarlapadu, Andhra Pradesh 523332, India",https://www.google.co.kr/maps/place/Hospital/data=!4m5!3m4!1s0x3bb52fa0ffffffff:0xaebaecb0c0cbaab0!8m2!3d15.6590431!4d79.2253776?authuser=0&hl=en&rclk=1,15.6590431,79.2253776,Andhra Pradesh,South
Kurnool Government General Hospital kurnool,General hospital,"Budhwarpet Rd, Budhawara Peta, Alluri Sitarama Raju Nagar, Kurnool, Andhra Pradesh 518002, India",https://www.google.co.kr/maps/place/Kurnool+Government+General+Hospital+kurnool/data=!4m5!3m4!1s0x3bb5dd8c334d4fed:0x6d8dab40221266e2!8m2!3d15.8188146!4d78.0397689?authuser=0&hl=en&rclk=1,15.8188146,78.0397689,Andhra Pradesh,South
Help Hospital,Private hospital,"4/5, 4th Ln, Sali Pet, Arundelpet, Guntur, Andhra Pradesh 522002, India",https://www.google.co.kr/maps/place/Help+Hospital/data=!4m5!3m4!1s0x3a4a754ff2626495:0x3a340f5fb83a17ef!8m2!3d16.3046364!4d80.4443766?authuser=0&hl=en&rclk=1,16.3046364,80.4443766,Andhra Pradesh,South
SAI PRASUNA NURSING HOME,Hospital,"13/171, India Trunk Road,, Opp: Bombay Marriage Hall, Kadapa, Andhra Pradesh, India",https://www.google.co.kr/maps/place/SAI+PRASUNA+NURSING+HOME/data=!4m5!3m4!1s0x3bb3721db9d9cc61:0x661730caa5e90cd7!8m2!3d14.4819994!4d78.8201652?authuser=0&hl=en&rclk=1,14.4819994,78.8201652,Andhra Pradesh,South
Asram General & Super Speciality Hospital,General hospital,"NH 5, Asram Road, West Godavari District, Eluru, Eluru, Andhra Pradesh 534005, India",https://www.google.co.kr/maps/place/Asram+General+%26+Super+Speciality+Hospital/data=!4m5!3m4!1s0x3a366ab8f620fbb5:0xc457b03853e3e086!8m2!3d16.7364937!4d81.1436079?authuser=0&hl=en&rclk=1,16.7364937,81.1436079,Andhra Pradesh,South
Hyderabad Hospital,Hospital,"12-2-725/2, Mufti Plaza, Rethi Bowli, Mehdipatnam, Hyderabad, Andhra Pradesh 500028, India",https://www.google.co.kr/maps/place/Hyderabad+Hospital/data=!4m5!3m4!1s0x3bcb971f00000001:0x367930468f370c1!8m2!3d15.9128998!4d79.7399875?authuser=0&hl=en&rclk=1,15.9128998,79.7399875,Andhra Pradesh,South
Omega Hospital,Hospital,"Unnamed Road, Agatha Varappadu, Guntur, Andhra Pradesh 522509, India",https://www.google.co.kr/maps/place/Omega+Hospital/data=!4m5!3m4!1s0x3a4a0ba21c23a5f7:0xd70ff9e6c0212a32!8m2!3d16.3163666!4d80.4721543?authuser=0&hl=en&rclk=1,16.3163666,80.4721543,Andhra Pradesh,South
Appollo Hospital,Hospital,"R2PR+CJ3, Kotha Peta, Kurnool, Andhra Pradesh 518004, India",https://www.google.co.kr/maps/place/Appollo+Hospital/data=!4m5!3m4!1s0x3bb5e75d459eaf9d:0x9457d7a575f6bf49!8m2!3d15.8360036!4d78.0415605?authuser=0&hl=en&rclk=1,15.8360036,78.0415605,Andhra Pradesh,South
Hospital,Hospital,"QXG2+6CX, Kotikalpudi, Andhra Pradesh 523201, India",https://www.google.co.kr/maps/place/Hospital/data=!4m5!3m4!1s0x3a4af04e48b1512d:0x69def4a6bec1d5ae!8m2!3d15.7756061!4d79.9511077?authuser=0&hl=en&rclk=1,15.7756061,79.9511077,Andhra Pradesh,South
INDO-BRITISH Hospital,Hospital,"Srinivasa Nagar Bank Colony, Vijayawada, Andhra Pradesh 520008, India",https://www.google.co.kr/maps/place/INDO-BRITISH+Hospital/data=!4m5!3m4!1s0x3a35fad32577891d:0x3d673b0ebe4111ef!8m2!3d16.5135459!4d80.6692855?authuser=0&hl=en&rclk=1,16.5135459,80.6692855,Andhra Pradesh,South
Govt Hospital,Hospital,"VHRQ+37M, Namassivaya Puram, Andhra Pradesh 523304, India",https://www.google.co.kr/maps/place/Govt+Hospital/data=!4m5!3m4!1s0x3a4ac793d99fb79f:0xc91f792f4d8601e6!8m2!3d15.890204!4d79.588165?authuser=0&hl=en&rclk=1,15.890204,79.588165,Andhra Pradesh,South
Kims Hospitals,Hospital,"4-120/A, North Bypass Road, NH-5, Backside Agriculture Market Yard Mukthinuthalapadu (V), Prakasham Dist, Ongole, Andhra Pradesh 523001, India",https://www.google.co.kr/maps/place/Kims+Hospitals/data=!4m5!3m4!1s0x3a4b00354228e5a5:0xae2a99dd3d81302f!8m2!3d15.5341227!4d80.05475?authuser=0&hl=en&rclk=1,15.5341227,80.05475,Andhra Pradesh,South
Ramesh Hospitals,General hospital,"Collector Office Rd, Beside Hindu College Grounds, Nagarampalem, Guntur, Andhra Pradesh 522004, India",https://www.google.co.kr/maps/place/Ramesh+Hospitals/data=!4m5!3m4!1s0x3a4a7541dfb7c1e3:0x7ec1d2166ad7d7b8!8m2!3d16.2933727!4d80.4425041?authuser=0&hl=en&rclk=1,16.2933727,80.4425041,Andhra Pradesh,South
Area Government Hospital,Hospital,"R7XM+PHQ, Swarna, Andhra Pradesh 523170, India",https://www.google.co.kr/maps/place/Area+Government+Hospital/data=!4m5!3m4!1s0x3a4a4356ebc3a725:0x1249caeeea58a7d!8m2!3d15.8493469!4d80.2839929?authuser=0&hl=en&rclk=1,15.8493469,80.2839929,Andhra Pradesh,South
Govt Hospital,Hospital,"govt hospital road, Martur, Andhra Pradesh 523301, India",https://www.google.co.kr/maps/place/Govt+Hospital/data=!4m5!3m4!1s0x3a4a61da09c13de9:0x246ef365d11a829a!8m2!3d15.9882045!4d80.1047374?authuser=0&hl=en&rclk=1,15.9882045,80.1047374,Andhra Pradesh,South
Sravani Hospital,Hospital,"Puvada Vari St, Pottur Vari Thota, Guntur, Andhra Pradesh 522001, India",https://www.google.co.kr/maps/place/Sravani+Hospital/data=!4m5!3m4!1s0x3a4a754a4e40ecaf:0x2bacf73cae70c79a!8m2!3d16.29686!4d80.4514638?authuser=0&hl=en&rclk=1,16.29686,80.4514638,Andhra Pradesh,South
Tulasi Multi Speciality Hospital,Private hospital,"5th Lane, GV Thota, Gunturvari Thota, Christian Pet, Kothapeta, Guntur, Andhra Pradesh 522001, India",https://www.google.co.kr/maps/place/Tulasi+Multi+Speciality+Hospital/data=!4m5!3m4!1s0x3a4a754b3caa0d77:0x2d19151d00228298!8m2!3d16.2985278!4d80.4542461?authuser=0&hl=en&rclk=1,16.2985278,80.4542461,Andhra Pradesh,South
KIMS - Saveera Hospital,General hospital,"Office, 1-1348 Near crescent function Hall Opp. to Sakshi, 80 Feet Rd, Anantapur, Andhra Pradesh 515004, India",https://www.google.co.kr/maps/place/KIMS+-+Saveera+Hospital/data=!4m5!3m4!1s0x3bb14a8c7e4c0ef7:0xc37b60fc8a82056f!8m2!3d14.6554881!4d77.584036?authuser=0&hl=en&rclk=1,14.6554881,77.584036,Andhra Pradesh,South
Government Hospital,Hospital,"MRW8+3MQ, Seethampeta, Andhra Pradesh 532443, India",https://www.google.co.kr/maps/place/Government+Hospital/data=!4m5!3m4!1s0x3a3c6270159567e3:0xacd94eeaad512b21!8m2!3d18.6952164!4d83.816725?authuser=0&hl=en&rclk=1,18.6952164,83.816725,Andhra Pradesh,South
Hospital,Hospital,"FV6C+FGH, Janapadu, Andhra Pradesh 522413, India",https://www.google.co.kr/maps/place/Hospital/data=!4m5!3m4!1s0x3a35659c4a2134c7:0xb69904a014c85f8d!8m2!3d16.4611796!4d79.8713491?authuser=0&hl=en&rclk=1,16.4611796,79.8713491,Andhra Pradesh,South
Government General Hospital,Hospital,"8FJQ+PHH, Guntur, Andhra Pradesh 522509, India",https://www.google.co.kr/maps/place/Government+General+Hospital/data=!4m5!3m4!1s0x3a35f57008c8c131:0xb4c30b20017ab76d!8m2!3d16.3318064!4d80.4889773?authuser=0&hl=en&rclk=1,16.3318064,80.4889773,Andhra Pradesh,South
"ESI Hospital, Bapatla",Hospital,"WF27+QC5, Maddiboinavaripalem, Bapatla, Andhra Pradesh 522101, India","https://www.google.co.kr/maps/place/ESI+Hospital,+Bapatla/data=!4m5!3m4!1s0x3a4a3f4cc1d4a377:0xe4ade536a456dc94!8m2!3d15.9018934!4d80.4636177?authuser=0&hl=en&rclk=1",15.9018934,80.4636177,Andhra Pradesh,South
Ramesh Sanghamitra Hospital,Hospital,"NH 5 Near Nellore Bus Stand, Ongole, Andhra Pradesh 523001, India",https://www.google.co.kr/maps/place/Ramesh+Sanghamitra+Hospital/data=!4m5!3m4!1s0x3a4b01269e8b2717:0x52a71eccb6ef8fa8!8m2!3d15.479061!4d80.048297?authuser=0&hl=en&rclk=1,15.479061,80.048297,Andhra Pradesh,South
Gowri Gopal Hospital,Private hospital,"46/87 , Woodland Complex Budhawarpet, Andhra Pradesh 518002, India",https://www.google.co.kr/maps/place/Gowri+Gopal+Hospital/data=!4m5!3m4!1s0x3bb5ddf55c8e65ed:0x31e9b91ac3d1941e!8m2!3d15.8245511!4d78.0410539?authuser=0&hl=en&rclk=1,15.8245511,78.0410539,Andhra Pradesh,South
Infectious Diseases Hospital,Government hospital,"Amaravathi Rd, Gorantla, Guntur, Andhra Pradesh 522034, India",https://www.google.co.kr/maps/place/Infectious+Diseases+Hospital/data=!4m5!3m4!1s0x3a358abca27a05df:0x648f5e69eaee71bf!8m2!3d16.3304756!4d80.4377358?authuser=0&hl=en&rclk=1,16.3304756,80.4377358,Andhra Pradesh,South
Santhi Lab,Hospital,"Perala Rd, Perala, Chirala, Andhra Pradesh 523157, India",https://www.google.co.kr/maps/place/Santhi+Lab/data=!4m5!3m4!1s0x3a4a44194313ef0f:0xb919984954934b8c!8m2!3d15.8303494!4d80.3591484?authuser=0&hl=en&rclk=1,15.8303494,80.3591484,Andhra Pradesh,South
Pala hospital,Government hospital,"7FQ2+J4M, Lalapet, Guntur, Andhra Pradesh 522003, India",https://www.google.co.kr/maps/place/Pala+hospital/data=!4m5!3m4!1s0x3a4a758188efa69b:0x1c3a8d6a93afe4ba!8m2!3d16.289081!4d80.4502865?authuser=0&hl=en&rclk=1,16.289081,80.4502865,Andhra Pradesh,South
ESI Clinic,Hospital,"C2-38, Sriharikota Rd, Pulicat Nagar, Sullurupeta, Andhra Pradesh 524121, India",https://www.google.co.kr/maps/place/ESI+Clinic/data=!4m5!3m4!1s0x3a4d74c4f6ecde8f:0x31f350ed2511a4a7!8m2!3d13.6984276!4d80.0302579?authuser=0&hl=en&rclk=1,13.6984276,80.0302579,Andhra Pradesh,South
Government Hospital,Hospital,"Karalapadu, Andhra Pradesh 522437, India",https://www.google.co.kr/maps/place/Government+Hospital/data=!4m5!3m4!1s0x3a3568e8e8e69977:0x60b27f4eb9ab1dd8!8m2!3d16.5066406!4d79.8033008?authuser=0&hl=en&rclk=1,16.5066406,79.8033008,Andhra Pradesh,South
RIMS General Hospital,Hospital,"CVM7+F7R, Puttampalli, Andhra Pradesh 516002, India",https://www.google.co.kr/maps/place/RIMS+General+Hospital/data=!4m5!3m4!1s0x3bb36d0c855e364b:0x1689952f45522527!8m2!3d14.4337493!4d78.8631455?authuser=0&hl=en&rclk=1,14.4337493,78.8631455,Andhra Pradesh,South
Government Hospital,Hospital,"Dintenapdu Satuluru, Nadendla Rd, Nadendla, Andhra Pradesh 522234, India",https://www.google.co.kr/maps/place/Government+Hospital/data=!4m5!3m4!1s0x3a4a7d049fd1c367:0x40006593c179da92!8m2!3d16.1773998!4d80.1819305?authuser=0&hl=en&rclk=1,16.1773998,80.1819305,Andhra Pradesh,South
Old government hospital,Hospital,"Gudavallivari St, Mogalrajapuram, Christurajupuram, Vijayawada, Andhra Pradesh 520010, India",https://www.google.co.kr/maps/place/Old+government+hospital/data=!4m5!3m4!1s0x3a35fab1403de667:0xb931e7a0759afc97!8m2!3d16.5061786!4d80.6480229?authuser=0&hl=en&rclk=1,16.5061786,80.6480229,Andhra Pradesh,South
Tirumala Hospitals,Hospital,"21/32, Railway Station Rd, Maria Puram, Kadapa, Andhra Pradesh 516001, India",https://www.google.co.kr/maps/place/Tirumala+Hospitals/data=!4m5!3m4!1s0x3bb3721bb2c28f27:0x23a902e1a7f91b53!8m2!3d14.475661!4d78.8232756?authuser=0&hl=en&rclk=1,14.475661,78.8232756,Andhra Pradesh,South
Rainbow Children's Hospital & BirthRight by Rainbow,Children's hospital,"currency nagar 48-10-12/2A Service Road Beside Aahaar Food Court, currency nagar, Vijayawada, Andhra Pradesh 520008, India",https://www.google.co.kr/maps/place/Rainbow+Children's+Hospital+%26+BirthRight+by+Rainbow/data=!4m5!3m4!1s0x116a821bd69a179f:0xd24e701c7145705f!8m2!3d16.5176877!4d80.6740052?authuser=0&hl=en&rclk=1,16.5176877,80.6740052,Andhra Pradesh,South
Government Hospital,Hospital,"H4M8+WCP, Cumbum, Andhra Pradesh 523333, India",https://www.google.co.kr/maps/place/Government+Hospital/data=!4m5!3m4!1s0x3bb526b69be72103:0x34bc6661c76867bd!8m2!3d15.5848343!4d79.1160804?authuser=0&hl=en&rclk=1,15.5848343,79.1160804,Andhra Pradesh,South
E.S.I Dispensary,Hospital,"Ganapavaram, Guntur, Andhra Pradesh, India",https://www.google.co.kr/maps/place/E.S.I+Dispensary/data=!4m5!3m4!1s0x3a4a6340e17a356f:0x91ee074450bb6458!8m2!3d16.0996323!4d80.167777?authuser=0&hl=en&rclk=1,16.0996323,80.167777,Andhra Pradesh,South
Government Hospital,Hospital,"58JM+M25, Prathipadu, Andhra Pradesh 522019, India",https://www.google.co.kr/maps/place/Government+Hospital/data=!4m5!3m4!1s0x3a4a71ba82f61831:0xe743a422785a4dea!8m2!3d16.1816328!4d80.3325942?authuser=0&hl=en&rclk=1,16.1816328,80.3325942,Andhra Pradesh,South
Sree Ramadevi Multi Super Speciality Hospital,Medical clinic,"T.S 82 Sairam Street, Tirupati, Andhra Pradesh 517501, India",https://www.google.co.kr/maps/place/Sree+Ramadevi+Multi+Super+Speciality+Hospital/data=!4m5!3m4!1s0x3a4d4b03ab15d665:0xba2feee5e801c784!8m2!3d13.6380046!4d79.4171787?authuser=0&hl=en&rclk=1,13.6380046,79.4171787,Andhra Pradesh,South
Government primary hospital,Hospital,"Kamepalli - Kondapi Rd, Kamepalli, Andhra Pradesh 523271, India",https://www.google.co.kr/maps/place/Government+primary+hospital/data=!4m5!3m4!1s0x3a4b174977b404cb:0x7e2e20abf88a9f63!8m2!3d15.3405663!4d79.8232447?authuser=0&hl=en&rclk=1,15.3405663,79.8232447,Andhra Pradesh,South
Apollo Clinic Chittoor,Medical Center,"Thotapalyam, Chittoor, Andhra Pradesh 517001, India",https://www.google.co.kr/maps/place/Apollo+Clinic+Chittoor/data=!4m5!3m4!1s0x3bad5c02ca590cb7:0xfa3286320641476!8m2!3d13.2154895!4d79.0985889?authuser=0&hl=en&rclk=1,13.2154895,79.0985889,Andhra Pradesh,South
Lalitha Super Speciality Hospitals,Hospital,"Kothapet Main Rd, Kothapeta, Guntur, Andhra Pradesh 522001, India",https://www.google.co.kr/maps/place/Lalitha+Super+Speciality+Hospitals/data=!4m5!3m4!1s0x3a4a753604648f75:0xfcf9c52530630688!8m2!3d16.295595!4d80.4496025?authuser=0&hl=en&rclk=1,16.295595,80.4496025,Andhra Pradesh,South
"Rainbow Children's Hospital & BirthRight by Rainbow, Vizag",Children's hospital,"Plot No.15A, Survey No.21 & 27 Health City, Chinnagadili, Andhra Pradesh 530040, India","https://www.google.co.kr/maps/place/Rainbow+Children's+Hospital+%26+BirthRight+by+Rainbow,+Vizag/data=!4m5!3m4!1s0x3a395d3f3855c5b7:0xbedafdcebfd12d19!8m2!3d17.7635001!4d83.3111261?authuser=0&hl=en&rclk=1",17.7635001,83.3111261,Andhra Pradesh,South
Andhra Hospitals-Childrens OP Clinic,Hospital,"K Convention Centre, Vasantha Colony, Kanchikacherla, Andhra Pradesh 521180, India",https://www.google.co.kr/maps/place/Andhra+Hospitals-Childrens+OP+Clinic/data=!4m5!3m4!1s0x3a35958c79ca5cf9:0xc29ad5a4114b7228!8m2!3d16.6822811!4d80.3914592?authuser=0&hl=en&rclk=1,16.6822811,80.3914592,Andhra Pradesh,South
HOSPITAL,Hospital,"2FFJ+QR5, Bodipalem, Andhra Pradesh 522315, India",https://www.google.co.kr/maps/place/HOSPITAL/data=!4m5!3m4!1s0x3a4a1496c8c14657:0x9a840a57b4f95af0!8m2!3d16.024384!4d80.4821182?authuser=0&hl=en&rclk=1,16.024384,80.4821182,Andhra Pradesh,South
Hospital,Hospital,"Anantapur - Tadipatri - Guntur Hwy, Edlapadu, Andhra Pradesh 522233, India",https://www.google.co.kr/maps/place/Hospital/data=!4m5!3m4!1s0x3a4a7ba9b519449f:0x3131518b7d527cd8!8m2!3d16.1695538!4d80.2238718?authuser=0&hl=en&rclk=1,16.1695538,80.2238718,Andhra Pradesh,South
Hospital,Hospital,"Netaji Nagar, Nellore, Andhra Pradesh 524004, India",https://www.google.co.kr/maps/place/Hospital/data=!4m5!3m4!1s0x3a4cf2ddbf27e523:0xd04ea6e1cb360ee7!8m2!3d14.4223698!4d79.9568693?authuser=0&hl=en&rclk=1,14.4223698,79.9568693,Andhra Pradesh,South
SIMS Hospital,Medical clinic,"29-6-4, Malladi Vari St, Venkatswara Rao Street, Suryaraopeta, Governor Peta, Vijayawada, Andhra Pradesh 520002, India",https://www.google.co.kr/maps/place/SIMS+Hospital/data=!4m5!3m4!1s0x3a35f00013446e97:0x592c82da38247e0c!8m2!3d16.5114918!4d80.6318824?authuser=0&hl=en&rclk=1,16.5114918,80.6318824,Andhra Pradesh,South
Gov. Hospital,Hospital,"5CJW+RJ2, Vatticherukuru, Andhra Pradesh 522212, India",https://www.google.co.kr/maps/place/Gov.+Hospital/data=!4m5!3m4!1s0x3a4a7328e2099fcd:0x2303dfdf60240c8!8m2!3d16.1820211!4d80.4465106?authuser=0&hl=en&rclk=1,16.1820211,80.4465106,Andhra Pradesh,South
Rainbow Children's Clinic and Birthright by Rainbow Clinic,Children's hospital,"29-4-4, Kodandarami Reddy St, Venkatswara Rao Street, Governor Peta, Vijayawada, Andhra Pradesh 520001, India",https://www.google.co.kr/maps/place/Rainbow+Children's+Clinic+and+Birthright+by+Rainbow+Clinic/data=!4m5!3m4!1s0x3a35f00048b2f779:0x5313cfe969630f59!8m2!3d16.5116207!4d80.6308629?authuser=0&hl=en&rclk=1,16.5116207,80.6308629,Andhra Pradesh,South
Ahalya Nursing Home,Private hospital,"behind Sivalayam Street, Ganeshrao Peta, Kothapeta, Guntur, Andhra Pradesh 522001, India",https://www.google.co.kr/maps/place/Ahalya+Nursing+Home/data=!4m5!3m4!1s0x3a4a754931ccf2b9:0xcb60f8805d9e58b!8m2!3d16.30023!4d80.449249?authuser=0&hl=en&rclk=1,16.30023,80.449249,Andhra Pradesh,South
NRI General Hospital,Private hospital,"NRI Hospital Road, Chinakakani, Mangalagiri, Andhra Pradesh 522503, India",https://www.google.co.kr/maps/place/NRI+General+Hospital/data=!4m5!3m4!1s0x3a35f6b2d024d983:0xfdc50de2d1934190!8m2!3d16.4149147!4d80.5575021?authuser=0&hl=en&rclk=1,16.4149147,80.5575021,Andhra Pradesh,South
Driver,Hospital,"behind American hospital, Kondapalli, Andhra Pradesh 521228, India",https://www.google.co.kr/maps/place/Driver/data=!4m5!3m4!1s0x3a35ebe01e949071:0x23bd2534a735b2a!8m2!3d16.620692!4d80.5420019?authuser=0&hl=en&rclk=1,16.620692,80.5420019,Andhra Pradesh,South
ESIC-Markapur,Hospital,"Ganesh Nagar Road, Shivaji Nagar, Markapur, Andhra Pradesh 523316, India",https://www.google.co.kr/maps/place/ESIC-Markapur/data=!4m5!3m4!1s0x3bb531bd7add88ff:0x12d59e3cb91f6ee!8m2!3d15.7369766!4d79.2671087?authuser=0&hl=en&rclk=1,15.7369766,79.2671087,Andhra Pradesh,South
"Sri Sathya Sai General Hospital, Prasanthi Nilayam",Hospital,"Prasanthi Nilayam, Puttaparthi Main Rd, Anantapur District, Puttaparthi, Andhra Pradesh 515134, India","https://www.google.co.kr/maps/place/Sri+Sathya+Sai+General+Hospital,+Prasanthi+Nilayam/data=!4m5!3m4!1s0x3bb164ca4df4a9df:0x5003751c896dbdc2!8m2!3d14.1631961!4d77.8112936?authuser=0&hl=en&rclk=1",14.1631961,77.8112936,Andhra Pradesh,South
QUEEN'S NRI HOSPITAL,Hospital,"Srinivasa Nagar, Chinna Veedhi, Santha Pet, Vizianagaram, Andhra Pradesh 535001, India",https://www.google.co.kr/maps/place/QUEEN'S+NRI+HOSPITAL/data=!4m5!3m4!1s0x3a3be55dec206273:0x2dca4501667d201a!8m2!3d18.1176058!4d83.401222?authuser=0&hl=en&rclk=1,18.1176058,83.401222,Andhra Pradesh,South
chittoor government hospital,Hospital,"Church St, Thotapalyam, Chittoor, Andhra Pradesh 517001, India",https://www.google.co.kr/maps/place/chittoor+government+hospital/data=!4m5!3m4!1s0x3bad5ea82775cff3:0x6cc5c79bc627caa9!8m2!3d13.2171968!4d79.0933348?authuser=0&hl=en&rclk=1,13.2171968,79.0933348,Andhra Pradesh,South
Hospital,Hospital,"JJ3C+4XC, Podili, Andhra Pradesh 523240, India",https://www.google.co.kr/maps/place/Hospital/data=!4m5!3m4!1s0x3a4ad9147ef18bc1:0x5103a94d527531a4!8m2!3d15.6028175!4d79.6223771?authuser=0&hl=en&rclk=1,15.6028175,79.6223771,Andhra Pradesh,South
Hospital,Hospital,"Unnamed Road, Raganapalem, Chilakaluripet, Andhra Pradesh 522616, India",https://www.google.co.kr/maps/place/Hospital/data=!4m5!3m4!1s0x3a4a63b093d45e9f:0x88fe0f0ff2307c9a!8m2!3d16.0847122!4d80.162294?authuser=0&hl=en&rclk=1,16.0847122,80.162294,Andhra Pradesh,South
Aayush Hospital,Hospital,"Sri Harsha Residency, Ashok Nagar, Sanivarapupeta, Andhra Pradesh 534002, India",https://www.google.co.kr/maps/place/Aayush+Hospital/data=!4m5!3m4!1s0x3a366b113385e209:0x9547594cdb9be0b4!8m2!3d16.7199179!4d81.0918403?authuser=0&hl=en&rclk=1,16.7199179,81.0918403,Andhra Pradesh,South
SRI SRINIVASA HOSPITAL,Hospital,"3/38, Maria Puram, Nagarajupeta, Kadapa, Andhra Pradesh 516001, India",https://www.google.co.kr/maps/place/SRI+SRINIVASA+HOSPITAL/data=!4m5!3m4!1s0x3bb3736ba9c7b74f:0xe75f0b66af496c22!8m2!3d14.4726485!4d78.8230926?authuser=0&hl=en&rclk=1,14.4726485,78.8230926,Andhra Pradesh,South
Government Hospital,Hospital,"Doranala, Andhra Pradesh 523331, India",https://www.google.co.kr/maps/place/Government+Hospital/data=!4m5!3m4!1s0x3bb540c6888d1bfb:0x334e656c828830d3!8m2!3d15.9082799!4d79.0946469?authuser=0&hl=en&rclk=1,15.9082799,79.0946469,Andhra Pradesh,South
Gayatri Hospital,Hospital,"Subramanyam Peta, Babametta, Vizianagaram, Andhra Pradesh 535002, India",https://www.google.co.kr/maps/place/Gayatri+Hospital/data=!4m5!3m4!1s0x3a3be54c547e852b:0x99e01529e1a94f7a!8m2!3d18.110687!4d83.4186762?authuser=0&hl=en&rclk=1,18.110687,83.4186762,Andhra Pradesh,South
Private Hospital,Hospital,"Mokshagundam, Andhra Pradesh 523334, India",https://www.google.co.kr/maps/place/Private+Hospital/data=!4m5!3m4!1s0x3bb4defb0876db5f:0x4e485b32ec93d8ce!8m2!3d15.4556229!4d79.0730796?authuser=0&hl=en&rclk=1,15.4556229,79.0730796,Andhra Pradesh,South
Mukhyamantri Aarogya Kendram,Government hospital,"F3Q3+PGR, Annavarappadu Colony, Ongole, Andhra Pradesh 523001, India",https://www.google.co.kr/maps/place/Mukhyamantri+Aarogya+Kendram/data=!4m5!3m4!1s0x3a4b00e02940ac81:0xea08865528f15f37!8m2!3d15.4893647!4d80.0537755?authuser=0&hl=en&rclk=1,15.4893647,80.0537755,Andhra Pradesh,South
Ramesh Hospital,Hospital,"Krishna, SH-46, Hanuman Junction, Gudivada Road, Satyanarayana Puram, Gudivada, Andhra Pradesh 521301, India",https://www.google.co.kr/maps/place/Ramesh+Hospital/data=!4m5!3m4!1s0x3a361b542767a9f5:0xe458cfb18533909c!8m2!3d16.4390955!4d80.9924786?authuser=0&hl=en&rclk=1,16.4390955,80.9924786,Andhra Pradesh,South
Himalaya Multispeciality Hospital,Hospital,"Door No. 1/81-1, R.S. Road, Yerramukkapalli, Kadapa, Andhra Pradesh 516003, India",https://www.google.co.kr/maps/place/Himalaya+Multispeciality+Hospital/data=!4m5!3m4!1s0x3bb3726cd050cf9b:0x2c1900a1c24544b9!8m2!3d14.460509!4d78.8237507?authuser=0&hl=en&rclk=1,14.460509,78.8237507,Andhra Pradesh,South
ESI Hospital,Government hospital,"Gunadala, Vijayawada, Andhra Pradesh 520004, India",https://www.google.co.kr/maps/place/ESI+Hospital/data=!4m5!3m4!1s0x3a35e52ddaef0d63:0xa0430baf8205402f!8m2!3d16.5194006!4d80.6680577?authuser=0&hl=en&rclk=1,16.5194006,80.6680577,Andhra Pradesh,South
Govt Hospital,Hospital,"P237+752, Yachavaram, Andhra Pradesh 523333, India",https://www.google.co.kr/maps/place/Govt+Hospital/data=!4m5!3m4!1s0x3bb517fb4d8e1d13:0xa57d3c669581e49c!8m2!3d15.7031257!4d79.0128971?authuser=0&hl=en&rclk=1,15.7031257,79.0128971,Andhra Pradesh,South
Madhavaram Government Hospital,Hospital,"Apparaopeta-Madhavarm Road, Madhavaram, Andhra Pradesh 534145, India",https://www.google.co.kr/maps/place/Madhavaram+Government+Hospital/data=!4m5!3m4!1s0x3a37b22feb0e248f:0x77902c57ee8a3bcf!8m2!3d16.8916831!4d81.5937826?authuser=0&hl=en&rclk=1,16.8916831,81.5937826,Andhra Pradesh,South
Government Hospital,Hospital,"X5W9+CMP, Yaddanapudi, Andhra Pradesh 523301, India",https://www.google.co.kr/maps/place/Government+Hospital/data=!4m5!3m4!1s0x3a4a613c3d2926d9:0x8680fd1177d53e07!8m2!3d15.9960977!4d80.1692145?authuser=0&hl=en&rclk=1,15.9960977,80.1692145,Andhra Pradesh,South
Amma Hospital,Hospital,"9-64-2, Ganapathi Rao Road, Kothapet, Islampet, Vijayawada, Andhra Pradesh 520001, India",https://www.google.co.kr/maps/place/Amma+Hospital/data=!4m5!3m4!1s0x3a35efe65dc5b395:0xb0c553c3622cc102!8m2!3d16.521388!4d80.6140859?authuser=0&hl=en&rclk=1,16.521388,80.6140859,Andhra Pradesh,South
Apollo Speciality Hospitals,Hospital,"16/111/113, Muthukur Rd, Pinakini Avenue, Nagar, park Area, Nellore, Andhra Pradesh 524004, India",https://www.google.co.kr/maps/place/Apollo+Speciality+Hospitals/data=!4m5!3m4!1s0x3a4cf34b836caaa9:0xf78df378f8406f7b!8m2!3d14.4383479!4d79.9925387?authuser=0&hl=en&rclk=1,14.4383479,79.9925387,Andhra Pradesh,South
Govt Hospital,Hospital,"44RF+69Q, Kavuru, Andhra Pradesh 522611, India",https://www.google.co.kr/maps/place/Govt+Hospital/data=!4m5!3m4!1s0x3a4a7d15831afaf5:0x137fdc0874a04d7f!8m2!3d16.1405956!4d80.1234849?authuser=0&hl=en&rclk=1,16.1405956,80.1234849,Andhra Pradesh,South
Government Hospital,Government hospital,"MRW8+3JQ, Seethampeta, Andhra Pradesh 532443, India",https://www.google.co.kr/maps/place/Government+Hospital/data=!4m5!3m4!1s0x3a3c630f9465bcdf:0x141bc3562d21cc50!8m2!3d18.6952135!4d83.816608?authuser=0&hl=en&rclk=1,18.6952135,83.816608,Andhra Pradesh,South
Padmavathi Hospital,Hospital,"Siddavatam Rd, Sivanagar, Badvel, Andhra Pradesh 516227, India",https://www.google.co.kr/maps/place/Padmavathi+Hospital/data=!4m5!3m4!1s0x3bb35fa8e7f32db3:0x7371e00cfbece80b!8m2!3d14.7344455!4d79.0604761?authuser=0&hl=en&rclk=1,14.7344455,79.0604761,Andhra Pradesh,South
Sri Sathya Sai General Hospital,Government hospital,"Prasanthi Nilayam, Andhra Pradesh 515134, India",https://www.google.co.kr/maps/place/Sri+Sathya+Sai+General+Hospital/data=!4m5!3m4!1s0x3bb164cbae19b18d:0xf49580dc68f9dbf2!8m2!3d14.1655737!4d77.8074215?authuser=0&hl=en&rclk=1,14.1655737,77.8074215,Andhra Pradesh,South
Government General Hospital,Hospital,"7CXV+Q6M, Sambasiva Pet, Guntur, Andhra Pradesh 522001, India",https://www.google.co.kr/maps/place/Government+General+Hospital/data=!4m5!3m4!1s0x3a4a756505b9e5d9:0x650f322df1702be3!8m2!3d16.2994719!4d80.4430526?authuser=0&hl=en&rclk=1,16.2994719,80.4430526,Andhra Pradesh,South
Kerala Hospital,Hospital,"Tarlupadu Rd, Gandhi Bazar, Markapur, Andhra Pradesh 523316, India",https://www.google.co.kr/maps/place/Kerala+Hospital/data=!4m5!3m4!1s0x3bb531964a1214ff:0x282034c3fc2bb6b5!8m2!3d15.7361535!4d79.269125?authuser=0&hl=en&rclk=1,15.7361535,79.269125,Andhra Pradesh,South
Government General Hospital,Government hospital,"Old Bus Stand, Road, Hanumanpet, Vijayawada, Andhra Pradesh 520002, India",https://www.google.co.kr/maps/place/Government+General+Hospital/data=!4m5!3m4!1s0x3a35efe28d658cab:0x565d78a632347d3d!8m2!3d16.5133387!4d80.6189892?authuser=0&hl=en&rclk=1,16.5133387,80.6189892,Andhra Pradesh,South
Government Hospital,Hospital,"Dronadula, Andhra Pradesh 523190, India",https://www.google.co.kr/maps/place/Government+Hospital/data=!4m5!3m4!1s0x3a4a5e348fa1ee95:0xd770c2014ec24eb!8m2!3d15.913613!4d80.1451081?authuser=0&hl=en&rclk=1,15.913613,80.1451081,Andhra Pradesh,South
Govt Hospital,Hospital,"Mutyalampadu, Andhra Pradesh 522414, India",https://www.google.co.kr/maps/place/Govt+Hospital/data=!4m5!3m4!1s0x3a356b09db3046e7:0xfd54b850231fb185!8m2!3d16.6139748!4d79.7997804?authuser=0&hl=en&rclk=1,16.6139748,79.7997804,Andhra Pradesh,South
Govt.Hospital,Hospital,"4WCH+74R, Challapalli, Andhra Pradesh 521126, India",https://www.google.co.kr/maps/place/Govt.Hospital/data=!4m5!3m4!1s0x3a49f0eee0675b59:0x11eec0e4e5d6d17f!8m2!3d16.1207402!4d80.92777?authuser=0&hl=en&rclk=1,16.1207402,80.92777,Andhra Pradesh,South
Bharathi Multi Speciality Hospital,Hospital,"1/82, Railway Station Rd, Yerramukkapalle, Kadapa, Andhra Pradesh 516001, India",https://www.google.co.kr/maps/place/Bharathi+Multi+Speciality+Hospital/data=!4m5!3m4!1s0x3bb3726cd6d86763:0xc816df4110b89a02!8m2!3d14.4607601!4d78.8237381?authuser=0&hl=en&rclk=1,14.4607601,78.8237381,Andhra Pradesh,South
Govt Hospital,Hospital,"42RR+967, Kondakavuru, Andhra Pradesh 522601, India",https://www.google.co.kr/maps/place/Govt+Hospital/data=!4m5!3m4!1s0x3a4a86466eaefadd:0xb1caf30babf4e711!8m2!3d16.1409215!4d80.0405382?authuser=0&hl=en&rclk=1,16.1409215,80.0405382,Andhra Pradesh,South
Hospital,Hospital,"Arundelpet, Narasaraopeta, Andhra Pradesh 522601, India",https://www.google.co.kr/maps/place/Hospital/data=!4m5!3m4!1s0x3a4a8119771c7089:0xf722f4c66c9db049!8m2!3d16.2343419!4d80.0453417?authuser=0&hl=en&rclk=1,16.2343419,80.0453417,Andhra Pradesh,South
Asram Hospital,Hospital,"Jayaprakash Nagar, Nagendra Colony, Eluru, Andhra Pradesh 534005, India",https://www.google.co.kr/maps/place/Asram+Hospital/data=!4m5!3m4!1s0x3a361529b6673a2d:0x2eb1760f8db220d3!8m2!3d16.7126489!4d81.1211341?authuser=0&hl=en&rclk=1,16.7126489,81.1211341,Andhra Pradesh,South
PHC MOVVA,Hospital,"6WH7+P39, Movva, Andhra Pradesh 521135, India",https://www.google.co.kr/maps/place/PHC+MOVVA/data=!4m5!3m4!1s0x3a49fbeee0e970b7:0x9551dbe15ae35ba9!8m2!3d16.2292791!4d80.9127363?authuser=0&hl=en&rclk=1,16.2292791,80.9127363,Andhra Pradesh,South
Multispeciality,Hospital,"39-1, MG Rd, Governor Peta, Vijayawada, Andhra Pradesh 520002, India",https://www.google.co.kr/maps/place/Multispeciality/data=!4m5!3m4!1s0x3a35faaf9eebb7f1:0x740c14ba8400357e!8m2!3d16.5026035!4d80.6412627?authuser=0&hl=en&rclk=1,16.5026035,80.6412627,Andhra Pradesh,South
Neha Children's Hospital,Hospital,"3P2Q+PXV, Kothapeta, Vinukonda, Andhra Pradesh 522647, India",https://www.google.co.kr/maps/place/Neha+Children's+Hospital/data=!4m5!3m4!1s0x3a4abd8000af75a7:0xa559fe399eef1c7!8m2!3d16.0518616!4d79.739909?authuser=0&hl=en&rclk=1,16.0518616,79.739909,Andhra Pradesh,South
Govt.Hospital,Hospital,"Kurnool - Ongole Main Rd, Nekunambad, Andhra Pradesh 523334, India",https://www.google.co.kr/maps/place/Govt.Hospital/data=!4m5!3m4!1s0x3bb520cddbd8c8cd:0x3855c8d498ff7f93!8m2!3d15.5441386!4d79.104403?authuser=0&hl=en&rclk=1,15.5441386,79.104403,Andhra Pradesh,South
Surya Hospital,Hospital,"FR8J+G6G, Kadapa, Andhra Pradesh 516001, India",https://www.google.co.kr/maps/place/Surya+Hospital/data=!4m5!3m4!1s0x3bb373df8915005b:0xc370e305c477b0ee!8m2!3d14.4663043!4d78.8305863?authuser=0&hl=en&rclk=1,14.4663043,78.8305863,Andhra Pradesh,South
Govt Hospital,Hospital,"3628+RRH, Venkatadri Palem, Andhra Pradesh 523327, India",https://www.google.co.kr/maps/place/Govt+Hospital/data=!4m5!3m4!1s0x3bb54feb7c3ff9b5:0x7a88f6b97a6ac01a!8m2!3d16.0520506!4d79.217095?authuser=0&hl=en&rclk=1,16.0520506,79.217095,Andhra Pradesh,South
"Alla hospital,amaravathi road",Hospital,"6/11, Brodipet, Guntur, Andhra Pradesh 522002, India","https://www.google.co.kr/maps/place/Alla+hospital,amaravathi+road/data=!4m5!3m4!1s0x3a4a7542bfffffff:0xd4b9b938cb61af37!8m2!3d16.3041333!4d80.4340435?authuser=0&hl=en&rclk=1",16.3041333,80.4340435,Andhra Pradesh,South
Penamaluru Primary health Centre,Hospital,"Government hospital Rd, Penamaluru, Andhra Pradesh 521139, India",https://www.google.co.kr/maps/place/Penamaluru+Primary+health+Centre/data=!4m5!3m4!1s0x3a35fb8169a72499:0xc030d6d8ab24877c!8m2!3d16.4655881!4d80.7168424?authuser=0&hl=en&rclk=1,16.4655881,80.7168424,Andhra Pradesh,South
Andhra Hospital Heart And Brain Institute,Hospital,"tagore chamber,, 29, Nakkala Rd, Governor Peta, Vijayawada, Andhra Pradesh 520002, India",https://www.google.co.kr/maps/place/Andhra+Hospital+Heart+And+Brain+Institute/data=!4m5!3m4!1s0x3a35f0003b121423:0x92a0a427f9d8cf46!8m2!3d16.510797!4d80.6319443?authuser=0&hl=en&rclk=1,16.510797,80.6319443,Andhra Pradesh,South
Amrutha Hospitals,Hospital,"Old Club Rd, Gunturvari Thota, Kothapeta, Guntur, Andhra Pradesh 522001, India",https://www.google.co.kr/maps/place/Amrutha+Hospitals/data=!4m5!3m4!1s0x3a4a754b97d5204f:0x617195eccd0bb910!8m2!3d16.2986369!4d80.4527173?authuser=0&hl=en&rclk=1,16.2986369,80.4527173,Andhra Pradesh,South
Government Hospital,Hospital,"Kotha Government Hospital Rd, Amaravathi yards, Chenchupet, Tenali, Andhra Pradesh 522201, India",https://www.google.co.kr/maps/place/Government+Hospital/data=!4m5!3m4!1s0x3a4a08a9ddb7306f:0xd663a3d6b3dca9a2!8m2!3d16.244434!4d80.6317983?authuser=0&hl=en&rclk=1,16.244434,80.6317983,Andhra Pradesh,South
Maharaja District Hospital,Government hospital,"Cantonment, Phase 4, Vizianagaram Cantonment, Vizianagaram, Andhra Pradesh 535003, India",https://www.google.co.kr/maps/place/Maharaja+District+Hospital/data=!4m5!3m4!1s0x3a3be570f280f31b:0x9f7f197af0310d87!8m2!3d18.1107128!4d83.3866177?authuser=0&hl=en&rclk=1,18.1107128,83.3866177,Andhra Pradesh,South
Chandamama Childrens Hospital And Vaccination Center,Children's hospital,"20-7-62, Sundaraiah Bhavan Rd, near APSRTC Depo, Brundavan Nagar, Pandaripuram, Ongole, Andhra Pradesh 523001, India",https://www.google.co.kr/maps/place/Chandamama+Childrens+Hospital+And+Vaccination+Center/data=!4m5!3m4!1s0x3a4b01a70b4c83cf:0x497f08458fc5c31!8m2!3d15.5106985!4d80.0393684?authuser=0&hl=en&rclk=1,15.5106985,80.0393684,Andhra Pradesh,South
Mukhyamantri Aarogya Kendram,Government hospital,"Powerpet, Eluru, Andhra Pradesh 534002, India",https://www.google.co.kr/maps/place/Mukhyamantri+Aarogya+Kendram/data=!4m5!3m4!1s0x3a3614cdc8e49c53:0x51d268aeacab0f60!8m2!3d16.7157094!4d81.1063554?authuser=0&hl=en&rclk=1,16.7157094,81.1063554,Andhra Pradesh,South
Baer Hospital,Hospital,"R88V+R94, Hasthinapuram, Chirala, Andhra Pradesh 523155, India",https://www.google.co.kr/maps/place/Baer+Hospital/data=!4m5!3m4!1s0x3a4a4447618b94bf:0x26bddfae9b9adb7a!8m2!3d15.8170197!4d80.3434602?authuser=0&hl=en&rclk=1,15.8170197,80.3434602,Andhra Pradesh,South
government Hospital,Hospital,"R485+WHC, Panguluru, Andhra Pradesh 523214, India",https://www.google.co.kr/maps/place/government+Hospital/data=!4m5!3m4!1s0x3a4a58a32930bfe9:0x4915fb0f6ad16381!8m2!3d15.8173129!4d80.1088936?authuser=0&hl=en&rclk=1,15.8173129,80.1088936,Andhra Pradesh,South
District Hospital - Eluru,Government hospital,"P37V+HM7, Islampet, Eluru, Andhra Pradesh 534006, India",https://www.google.co.kr/maps/place/District+Hospital+-+Eluru/data=!4m5!3m4!1s0x3a3614b69c189bb1:0x66482566114be68d!8m2!3d16.7139128!4d81.0941782?authuser=0&hl=en&rclk=1,16.7139128,81.0941782,Andhra Pradesh,South
Chebrolu New Government Hospital,Hospital,"Chebrolu, Andhra Pradesh 534411, India",https://www.google.co.kr/maps/place/Chebrolu+New+Government+Hospital/data=!4m5!3m4!1s0x3a36493340a99825:0x77e715e831cb3b7b!8m2!3d16.825184!4d81.3990569?authuser=0&hl=en&rclk=1,16.825184,81.3990569,Andhra Pradesh,South
Sree Mohan Hospitals,Hospital,"Tirupati Road, Near, RTC bustand, Simhapuri Colony, Kadapa, Andhra Pradesh 516001, India",https://www.google.co.kr/maps/place/Sree+Mohan+Hospitals/data=!4m5!3m4!1s0x3bb3720b8852162b:0x653f8a1c4b02f168!8m2!3d14.4654533!4d78.832804?authuser=0&hl=en&rclk=1,14.4654533,78.832804,Andhra Pradesh,South
Government Hospital,Hospital,"Grand Trunk Rd, Old Guntur, Guntur, Andhra Pradesh 522001, India",https://www.google.co.kr/maps/place/Government+Hospital/data=!4m5!3m4!1s0x3a4a758769e7af57:0xc0549a9bf20d37ce!8m2!3d16.2922351!4d80.4539078?authuser=0&hl=en&rclk=1,16.2922351,80.4539078,Andhra Pradesh,South
Urban Health Centre,Hospital,"P7QC+433, Markapur, Andhra Pradesh 523316, India",https://www.google.co.kr/maps/place/Urban+Health+Centre/data=!4m5!3m4!1s0x3bb53197a177b689:0x61713c845c13bdb1!8m2!3d15.7377549!4d79.2701866?authuser=0&hl=en&rclk=1,15.7377549,79.2701866,Andhra Pradesh,South
PHC Thotlavalluru,Hospital,"9Q2J+7V8, Thotlavalluru, Andhra Pradesh 521163, India",https://www.google.co.kr/maps/place/PHC+Thotlavalluru/data=!4m5!3m4!1s0x3a35ff96a9869761:0x588983d4f436c8e2!8m2!3d16.3506501!4d80.7821992?authuser=0&hl=en&rclk=1,16.3506501,80.7821992,Andhra Pradesh,South
Sai Sree Hospital,Hospital,"QH32+93H, Holmus Pet, Proddatur, Andhra Pradesh 516360, India",https://www.google.co.kr/maps/place/Sai+Sree+Hospital/data=!4m5!3m4!1s0x3bb478a414ee9327:0x9d772c8f54d3366f!8m2!3d14.7534252!4d78.5502304?authuser=0&hl=en&rclk=1,14.7534252,78.5502304,Andhra Pradesh,South
AMARA Hospital,Hospital,"SH 31, Karakambadi Rural, Andhra Pradesh 517520, India",https://www.google.co.kr/maps/place/AMARA+Hospital/data=!4m5!3m4!1s0x3a4d49b526af83b1:0x98efce45d62b658d!8m2!3d13.6643359!4d79.5150089?authuser=0&hl=en&rclk=1,13.6643359,79.5150089,Andhra Pradesh,South
Aayush hospital,Hospital,"Vishnu Vardhana Rao St, Suryaraopeta, Governor Peta, Vijayawada, Andhra Pradesh 520002, India",https://www.google.co.kr/maps/place/Aayush+hospital/data=!4m5!3m4!1s0x3a35faaac939cf51:0xaef21dbaf896f9f2!8m2!3d16.5122857!4d80.6343786?authuser=0&hl=en&rclk=1,16.5122857,80.6343786,Andhra Pradesh,South
Guntur Kidney & Multispeciality Hospital,Hospital,"Major District Road, 105, Sitaram Nagar, Guntur, Andhra Pradesh 522001, India",https://www.google.co.kr/maps/place/Guntur+Kidney+%26+Multispeciality+Hospital/data=!4m5!3m4!1s0x3a4a0ab1990b1f73:0xd07014ef8123fc62!8m2!3d16.3044565!4d80.4615997?authuser=0&hl=en&rclk=1,16.3044565,80.4615997,Andhra Pradesh,South
Urban Health Center,Hospital,"Israilpet, manipuram, Guntur, Andhra Pradesh 522001, India",https://www.google.co.kr/maps/place/Urban+Health+Center/data=!4m5!3m4!1s0x3a4a0ab41fa1d947:0x86e904946cdf4097!8m2!3d16.2995891!4d80.4603052?authuser=0&hl=en&rclk=1,16.2995891,80.4603052,Andhra Pradesh,South
Ranga Reddy Hospital,Hospital,"Kurnool - Ongole Main Road, Ganesh Nagar St, Giddalur, Andhra Pradesh 523357, India",https://www.google.co.kr/maps/place/Ranga+Reddy+Hospital/data=!4m5!3m4!1s0x3bb4e69dae91a099:0x9a76433d9e18414e!8m2!3d15.3791112!4d78.9316928?authuser=0&hl=en&rclk=1,15.3791112,78.9316928,Andhra Pradesh,South
Thalli Bidda Express,Government hospital,"srikakulam rims, Srikakulam, Andhra Pradesh, India",https://www.google.co.kr/maps/place/Thalli+Bidda+Express/data=!4m5!3m4!1s0x3a3c15dcbc3abea7:0x9500ccea01fd693f!8m2!3d18.3121653!4d83.8869949?authuser=0&hl=en&rclk=1,18.3121653,83.8869949,Andhra Pradesh,South
Government Hospital,Hospital,"Goverment Hospital Rd, Kacheri Savidi, Poduru, Andhra Pradesh 534327, India",https://www.google.co.kr/maps/place/Government+Hospital/data=!4m5!3m4!1s0x3a37c4ebe3a285e9:0x914ca9ad7578bc72!8m2!3d16.5882694!4d81.7516091?authuser=0&hl=en&rclk=1,16.5882694,81.7516091,Andhra Pradesh,South
Guntur GGH OP Block,Hospital,"Railpet, Guntur, Andhra Pradesh 522001, India",https://www.google.co.kr/maps/place/Guntur+GGH+OP+Block/data=!4m5!3m4!1s0x3a4a7548a23b661d:0x165cd96c0291ae81!8m2!3d16.2997934!4d80.4436494?authuser=0&hl=en&rclk=1,16.2997934,80.4436494,Andhra Pradesh,South
RAMESH HOSPITALS,Medical clinic,"Uppu Rama Rao St, Ramachandra Rao Pet, Eluru, Andhra Pradesh 534002, India",https://www.google.co.kr/maps/place/RAMESH+HOSPITALS/data=!4m5!3m4!1s0x3a3614c8fc566217:0xd148ebabd8fe2fa8!8m2!3d16.7111146!4d81.1008053?authuser=0&hl=en&rclk=1,16.7111146,81.1008053,Andhra Pradesh,South
government hospital,Hospital,"9WCR+5WH, Nekarikallu, Andhra Pradesh 522615, India",https://www.google.co.kr/maps/place/government+hospital/data=!4m5!3m4!1s0x3a357c960f658b33:0xf13a251cc503ed62!8m2!3d16.3704378!4d79.9423701?authuser=0&hl=en&rclk=1,16.3704378,79.9423701,Andhra Pradesh,South
ECHS Polyclinic,Hospital,"Visakhapatnam, Nausena Baugh, Visakhapatnam, Andhra Pradesh 530005, India",https://www.google.co.kr/maps/place/ECHS+Polyclinic/data=!4m5!3m4!1s0x3a3969d63b0b119d:0x5f73d7a3393a4217!8m2!3d17.6874312!4d83.2497785?authuser=0&hl=en&rclk=1,17.6874312,83.2497785,Andhra Pradesh,South
Doctors Plaza,Hospital,"62MW+W55, Arundelpet, Narasaraopeta, Andhra Pradesh 522601, India",https://www.google.co.kr/maps/place/Doctors+Plaza/data=!4m5!3m4!1s0x3a4a81cd30173d51:0x9c07156d8e343ca5!8m2!3d16.2347519!4d80.0454768?authuser=0&hl=en&rclk=1,16.2347519,80.0454768,Andhra Pradesh,South
ECHS Polyclinic,Hospital,"GJ8M+HV4, Durga Agraharam, Arundalpet, Governor Peta, Vijayawada, Andhra Pradesh 520002, India",https://www.google.co.kr/maps/place/ECHS+Polyclinic/data=!4m5!3m4!1s0x3a35e555a54c3d61:0x8c89147f2580edcc!8m2!3d16.5163955!4d80.6347132?authuser=0&hl=en&rclk=1,16.5163955,80.6347132,Andhra Pradesh,South
Madhava Multispeciality Hospital,Hospital,"Behind RTC bus stand, Addanki, Andhra Pradesh 523201, India",https://www.google.co.kr/maps/place/Madhava+Multispeciality+Hospital/data=!4m5!3m4!1s0x3a4af1c6efa1afef:0x27219ef3b99561d1!8m2!3d15.8095537!4d79.9762225?authuser=0&hl=en&rclk=1,15.8095537,79.9762225,Andhra Pradesh,South
Teja,Medical Center,"8C77+8GC, Pattabhipuram, Guntur, Andhra Pradesh 522006, India",https://www.google.co.kr/maps/place/Teja/data=!4m5!3m4!1s0x3a4a757ef869c79d:0x8a58693fdc89424a!8m2!3d16.3133109!4d80.4137574?authuser=0&hl=en&rclk=1,16.3133109,80.4137574,Andhra Pradesh,South
Raasi Hospital,Hospital,"Vishnupuram Station Rd, Wadapally, Telangana 508355, India",https://www.google.co.kr/maps/place/Raasi+Hospital/data=!4m5!3m4!1s0x3a353928cb8cd52b:0xd92f7d5b1a246b60!8m2!3d16.7040807!4d79.6407044?authuser=0&hl=en&rclk=1,16.7040807,79.6407044,Andhra Pradesh,South
Suresh babu hospital,Orthopedic surgeon,"Netaji Nagar 2nd Line, Ponnur, Andhra Pradesh 522124, India",https://www.google.co.kr/maps/place/Suresh+babu+hospital/data=!4m5!3m4!1s0x3a4a11c090f93fb3:0x56a53f8c5ff2066e!8m2!3d16.0649668!4d80.5522701?authuser=0&hl=en&rclk=1,16.0649668,80.5522701,Andhra Pradesh,South
Government General Hospital,Hospital,"MH7V+6MM, Sharada Nagar, Bikasipura, Bengaluru, Andhra Pradesh 515002, India",https://www.google.co.kr/maps/place/Government+General+Hospital/data=!4m5!3m4!1s0x3bb14aefcfffffff:0xdffa594195c81a85!8m2!3d14.6630954!4d77.5941783?authuser=0&hl=en&rclk=1,14.6630954,77.5941783,Andhra Pradesh,South
Indian Hospitals Corporation Limited,General hospital,"22, Greams Rd, Thousand Lights East, Thousand Lights, Chennai, Tamil Nadu 600006, India",https://www.google.co.kr/maps/place/Indian+Hospitals+Corporation+Limited/data=!4m5!3m4!1s0x3a5266442944ea53:0x83062871423229ed!8m2!3d13.0576824!4d80.2553425?authuser=0&hl=en&rclk=1,13.0576824,80.2553425,Andhra Pradesh,South
Andhra Pradesh Medical Council,Medical group,"2nd Floor Dr. NTR University of Health Sciences, ESI Rd, Vijayawada, Andhra Pradesh 520008, India",https://www.google.co.kr/maps/place/Andhra+Pradesh+Medical+Council/data=!4m5!3m4!1s0x3a35e52ce4c6a641:0x20b0f717cc284abf!8m2!3d16.5162926!4d80.6693338?authuser=0&hl=en&rclk=1,16.5162926,80.6693338,Andhra Pradesh,South
Shri Sai Hospital,General hospital,"40/2 Laxminagar Main Road, Old Belgaum, Belagavi, Karnataka 590005, India",https://www.google.co.kr/maps/place/Shri+Sai+Hospital/data=!4m5!3m4!1s0x3bbf66f4434a122f:0xca9b64a594a9be28!8m2!3d15.8346308!4d74.5255915?authuser=0&hl=en&rclk=1,15.8346308,74.5255915,Karnataka,South
BHS Lakeview Hospital,Private hospital,"R.S No. 73/7, C.T.S No. 11888, Gokak Road, opp. Fort Lake, Gandhi Nagar, Belagavi, Karnataka 590016, India",https://www.google.co.kr/maps/place/BHS+Lakeview+Hospital/data=!4m5!3m4!1s0x3bbf66c625965b83:0x21ab45db75b588ce!8m2!3d15.8634235!4d74.5265588?authuser=0&hl=en&rclk=1,15.8634235,74.5265588,Karnataka,South
"Civil Hospital, Belgaum",General hospital,"Kittur Rani Chennamma Circle, Khade Bazar, Sadashiv Nagar, Belagavi, Karnataka 590001, India","https://www.google.co.kr/maps/place/Civil+Hospital,+Belgaum/data=!4m5!3m4!1s0x3bbf66ae02e4b7bd:0xe03143fe040f0a07!8m2!3d15.868246!4d74.5105999?authuser=0&hl=en&rclk=1",15.868246,74.5105999,Karnataka,South
hospitals,Hospital,"Dharwad - Goa Rd, Lotus Layuout, Kusum Nagar, Narayanpura, Dharwad, Karnataka 580008, India",https://www.google.co.kr/maps/place/hospitals/data=!4m5!3m4!1s0x3bb8cd4520afbfa5:0x94f105734e3c5ac0!8m2!3d15.4634597!4d74.9822055?authuser=0&hl=en&rclk=1,15.4634597,74.9822055,Karnataka,South
J G Hospital,Private hospital,"SH 65, Ghatprabha, Karnataka 591306, India",https://www.google.co.kr/maps/place/J+G+Hospital/data=!4m5!3m4!1s0x3bc0ba3e9e628e9d:0x22c8dce7d08c4d51!8m2!3d16.2411092!4d74.752321?authuser=0&hl=en&rclk=1,16.2411092,74.752321,Karnataka,South
Military Hospital,Military hospital,"Thimayya Road, Camp, Belagavi, Karnataka 590009, India",https://www.google.co.kr/maps/place/Military+Hospital/data=!4m5!3m4!1s0x3bbf6404a16f18a7:0x711796c7e2457fc8!8m2!3d15.8615533!4d74.4948275?authuser=0&hl=en&rclk=1,15.8615533,74.4948275,Karnataka,South
Clinic,Hospital,"Unnamed Road, Tippusultan Nagar, Machhe, Belagavi, Karnataka 590014, India",https://www.google.co.kr/maps/place/Clinic/data=!4m5!3m4!1s0x3bbf65212b67b835:0x968ea786d0381320!8m2!3d15.7954006!4d74.4760731?authuser=0&hl=en&rclk=1,15.7954006,74.4760731,Karnataka,South
Vivekananda General Hospital,Private hospital,"944R+356, Backside Chadda Showroom, Deshpande Nagar, Hubli, Karnataka 580029, India",https://www.google.co.kr/maps/place/Vivekananda+General+Hospital/data=!4m5!3m4!1s0x3bb8d744f2f09e63:0x1af09274bead1a06!8m2!3d15.3551569!4d75.1404004?authuser=0&hl=en&rclk=1,15.3551569,75.1404004,Karnataka,South
Venugram Hospital,Hospital,"SBI Colony,, CTS: 785, 2nd Cross, Hindu Nagar (R.C.Nagar),, near 3rd Railway Gate, Belagavi, Karnataka 590006, India",https://www.google.co.kr/maps/place/Venugram+Hospital/data=!4m5!3m4!1s0x3bbf65d517208a65:0xa880d7b2bdfcd42c!8m2!3d15.825752!4d74.497432?authuser=0&hl=en&rclk=1,15.825752,74.497432,Karnataka,South
"Suchirayu Hospital, Hubli",Private hospital,"Gokul Rd, opposite KSRTC Bus Depot, Kallur Layout, Hubli, Karnataka 580030, India","https://www.google.co.kr/maps/place/Suchirayu+Hospital,+Hubli/data=!4m5!3m4!1s0x3bb8d73bf6a02d87:0x6f87c8f3931ba1d8!8m2!3d15.3524487!4d75.1245117?authuser=0&hl=en&rclk=1",15.3524487,75.1245117,Karnataka,South
Kalghatgi Hospital,Hospital,"Chitaguppi Park, Pinto Rd, near Central Telegraph Office, Hubli, Karnataka 580020, India",https://www.google.co.kr/maps/place/Kalghatgi+Hospital/data=!4m5!3m4!1s0x3bb8d74346ead7ef:0x56851cc702a6959f!8m2!3d15.3531448!4d75.1422898?authuser=0&hl=en&rclk=1,15.3531448,75.1422898,Karnataka,South
Sunshine Hospital,Hospital,"Ayodhya Nagar, Sadashiv Nagar, Belagavi, Karnataka 590019, India",https://www.google.co.kr/maps/place/Sunshine+Hospital/data=!4m5!3m4!1s0x3bbf614630c2dc01:0x29b3de73478ee3ce!8m2!3d15.8751573!4d74.5145281?authuser=0&hl=en&rclk=1,15.8751573,74.5145281,Karnataka,South
Kle Hospital,Hospital,"RG89+X4X, Yellur, Karnataka 590005, India",https://www.google.co.kr/maps/place/Kle+Hospital/data=!4m5!3m4!1s0x3bbf69e59dc4063f:0xb23b426d446969cc!8m2!3d15.8174913!4d74.5178688?authuser=0&hl=en&rclk=1,15.8174913,74.5178688,Karnataka,South
Shri Daneshwari Maternity & General Hospital,Hospital,"#1195, Saraf Galli, Shahapur, Belagavi, Karnataka 590001, India",https://www.google.co.kr/maps/place/Shri+Daneshwari+Maternity+%26+General+Hospital/data=!4m5!3m4!1s0x3bbf6692423955c3:0x4874ffae5723cb15!8m2!3d15.8417334!4d74.517913?authuser=0&hl=en&rclk=1,15.8417334,74.517913,Karnataka,South
karnataka health institute,Hospital,"KHI Hospital Rd, Ghatprabha, Karnataka 591306, India",https://www.google.co.kr/maps/place/karnataka+health+institute/data=!4m5!3m4!1s0x3bc0ba6cb04c36f7:0x9a923fedcbcb2999!8m2!3d16.2349945!4d74.7638213?authuser=0&hl=en&rclk=1,16.2349945,74.7638213,Karnataka,South
Sanjeevani Hospital,Hospital,"Cts#3359/Sa/1a, 1st Floor, College Road, College Road, Belagavi, Karnataka 590001, India",https://www.google.co.kr/maps/place/Sanjeevani+Hospital/data=!4m5!3m4!1s0x3bbf669f5095362f:0x65cd59f734b6fcf1!8m2!3d15.8630949!4d74.5077155?authuser=0&hl=en&rclk=1,15.8630949,74.5077155,Karnataka,South
Lakeview Hospital,Hospital,"CTC No.5653/17-20, Shastri Nagar,(Near Goaves, Mahatma Phule Rd, Shastri Nagar, Shahapur, Belagavi, Karnataka 590003, India",https://www.google.co.kr/maps/place/Lakeview+Hospital/data=!4m5!3m4!1s0x3bbf669af4d70b73:0x7a1eb0d6b3557114!8m2!3d15.8424923!4d74.509682?authuser=0&hl=en&rclk=1,15.8424923,74.509682,Karnataka,South
ESI Hospital,Hospital,"Belagavi, Ashok Nagar, Shivaji Nagar, Belagavi, Karnataka 590016, India",https://www.google.co.kr/maps/place/ESI+Hospital/data=!4m5!3m4!1s0x3bbf66cba697b4c7:0x1c7ce1dd9cacf186!8m2!3d15.872101!4d74.5268217?authuser=0&hl=en&rclk=1,15.872101,74.5268217,Karnataka,South
Natu Hospital,Hospital,"1528, Maruti Galli, opposite Bank Of Baroda, Raviwar Peth, Belagavi, Karnataka 590001, India",https://www.google.co.kr/maps/place/Natu+Hospital/data=!4m5!3m4!1s0x3bbf66bb528d79db:0x4b86d6bd16ac6141!8m2!3d15.8576373!4d74.5113121?authuser=0&hl=en&rclk=1,15.8576373,74.5113121,Karnataka,South
Hospital,Hospital,"FQQ9+W64, Raibag, Karnataka 591317, India",https://www.google.co.kr/maps/place/Hospital/data=!4m5!3m4!1s0x3bc0c5778e1d702f:0x3ca59b7ca12f1207!8m2!3d16.4897593!4d74.7680894?authuser=0&hl=en&rclk=1,16.4897593,74.7680894,Karnataka,South
Karnatak Health Institute,Medical clinic,"Tal: Gokak, Dist:Belgaum, Karnataka, India 591306, India",https://www.google.co.kr/maps/place/Karnatak+Health+Institute/data=!4m5!3m4!1s0x3bc0ba6c924099b3:0x138611ba20e2ee0!8m2!3d16.233532!4d74.764157?authuser=0&hl=en&rclk=1,16.233532,74.764157,Karnataka,South
Shri Daneshwari Surgical And General Hospital,Hospital,"Saraf Galli, Shahapur, Belagavi, Karnataka 590003, India",https://www.google.co.kr/maps/place/Shri+Daneshwari+Surgical+And+General+Hospital/data=!4m5!3m4!1s0x3bbf6691be50b895:0xa4208444810468fa!8m2!3d15.8418237!4d74.5154106?authuser=0&hl=en&rclk=1,15.8418237,74.5154106,Karnataka,South
USW Hospital,Hospital,"SH 53, Ugar Khurd, Ugar, Karnataka 591316, India",https://www.google.co.kr/maps/place/USW+Hospital/data=!4m5!3m4!1s0x3bc0d718505fd8a9:0x5cba794803e89cd1!8m2!3d16.6544469!4d74.8180099?authuser=0&hl=en&rclk=1,16.6544469,74.8180099,Karnataka,South
Belgaum Childrens Hospital Pvt Ltd,Hospital,"Kirloskar Rd, Nanawadi, Belagavi, Karnataka 590002, India",https://www.google.co.kr/maps/place/Belgaum+Childrens+Hospital+Pvt+Ltd/data=!4m5!3m4!1s0x3bbf6423b0a3c847:0x6c0de18f341c1c73!8m2!3d15.8463259!4d74.4916821?authuser=0&hl=en&rclk=1,15.8463259,74.4916821,Karnataka,South
Kapileshwar Orthopedic Trauma And Surgical Center,Hospital,"Shriram Complex, Dr SPM Rd, Shastri Nagar, Shahapur, Belagavi, Karnataka 590001, India",https://www.google.co.kr/maps/place/Kapileshwar+Orthopedic+Trauma+And+Surgical+Center/data=!4m5!3m4!1s0x3bbf6697d3ba3043:0x8f2c83c41f57572b!8m2!3d15.8509987!4d74.5138536?authuser=0&hl=en&rclk=1,15.8509987,74.5138536,Karnataka,South
Sharada Hospital,Hospital,"3442b, Samadevi Galli, Khade Bazar, Raviwar Peth, Belagavi, Karnataka 590001, India",https://www.google.co.kr/maps/place/Sharada+Hospital/data=!4m5!3m4!1s0x3bbf66a5a20b4d2d:0x2d37e07017d3a975!8m2!3d15.8619738!4d74.507556?authuser=0&hl=en&rclk=1,15.8619738,74.507556,Karnataka,South
Hospital,Government hospital,"Government Hospital. post:Suranagi. Taluk:, Shirahatti, Karnataka, India",https://www.google.co.kr/maps/place/Hospital/data=!4m5!3m4!1s0x3bb90e6be2f53aff:0xc6af101ae0f96a37!8m2!3d15.0510678!4d75.5566671?authuser=0&hl=en&rclk=1,15.0510678,75.5566671,Karnataka,South
SDM Hospital,Hospital,"Vidyagiri, Dharwad, Karnataka 580004, India",https://www.google.co.kr/maps/place/SDM+Hospital/data=!4m5!3m4!1s0x3bb8d2630babffb3:0x94cf3d05e4c9007b!8m2!3d15.4182042!4d75.0483185?authuser=0&hl=en&rclk=1,15.4182042,75.0483185,Karnataka,South
Dakshata Hospitals Private Limited,Hospital,"Sublaxmi Building, College Road, College Road, Belagavi, Karnataka 590001, India",https://www.google.co.kr/maps/place/Dakshata+Hospitals+Private+Limited/data=!4m5!3m4!1s0x3bbf669f5095362f:0x68cf4d11c98bb2b0!8m2!3d15.863969!4d74.5080788?authuser=0&hl=en&rclk=1,15.863969,74.5080788,Karnataka,South
"SeCURE Hospital, Hubballi",Hospital,"Gokul Rd, beside new bus stand, Dollars colony, Chaitanya Nagar, Rajendra Nagar, Hubli, Karnataka 580030, India","https://www.google.co.kr/maps/place/SeCURE+Hospital,+Hubballi/data=!4m5!3m4!1s0x3bb8d7314dae0de1:0x977379937338e52f!8m2!3d15.3489091!4d75.1150237?authuser=0&hl=en&rclk=1",15.3489091,75.1150237,Karnataka,South
Dhanush Hospital,General hospital,"Station Rd, Kaulpet, Bagalkot, Karnataka 587101, India",https://www.google.co.kr/maps/place/Dhanush+Hospital/data=!4m5!3m4!1s0x3bc77888612c31bb:0x34c222264c9a6275!8m2!3d16.1826209!4d75.6980005?authuser=0&hl=en&rclk=1,16.1826209,75.6980005,Karnataka,South
Shanti Hospital,General hospital,"Near Old IB, Extension Area, Bagalkot, Karnataka 587101, India",https://www.google.co.kr/maps/place/Shanti+Hospital/data=!4m5!3m4!1s0x3bc7788a0da718cf:0x119ef3777ac716f6!8m2!3d16.186115!4d75.695178?authuser=0&hl=en&rclk=1,16.186115,75.695178,Karnataka,South
hospital,Government hospital,"main road, Ulga, Karnataka 581328, India",https://www.google.co.kr/maps/place/hospital/data=!4m5!3m4!1s0x3bbef56ebe99d065:0x8da83f06f8e539b5!8m2!3d14.8798542!4d74.2445882?authuser=0&hl=en&rclk=1,14.8798542,74.2445882,Karnataka,South
Dr Naik Hospital,Hospital,"Bus Stand Road, Munuvalli, Karnataka 591117, India",https://www.google.co.kr/maps/place/Dr+Naik+Hospital/data=!4m5!3m4!1s0x3bb8afb825de8e73:0x615f80aebbdf6906!8m2!3d15.8510256!4d75.1198943?authuser=0&hl=en&rclk=1,15.8510256,75.1198943,Karnataka,South
District hospital gadag,General hospital,"Gadag, Karnataka 582103, India",https://www.google.co.kr/maps/place/District+hospital+gadag/data=!4m5!3m4!1s0x3bb8fc15aea62415:0x62283f7ed3dd4030!8m2!3d15.3809618!4d75.6008034?authuser=0&hl=en&rclk=1,15.3809618,75.6008034,Karnataka,South
Kle Societys Belgaum Cancer Hospital,Hospital,"9666A-2/D, behind BUDA office, Ashok Nagar, Shivaji Nagar, Belagavi, Karnataka 590016, India",https://www.google.co.kr/maps/place/Kle+Societys+Belgaum+Cancer+Hospital/data=!4m5!3m4!1s0x3bbf61531d69f8cf:0x36469512c2fe219a!8m2!3d15.8721444!4d74.5255992?authuser=0&hl=en&rclk=1,15.8721444,74.5255992,Karnataka,South
Chinmayi Hospital,General hospital,"Udupi Dist, Church Road, Kundapura, Karnataka 576201, India",https://www.google.co.kr/maps/place/Chinmayi+Hospital/data=!4m5!3m4!1s0x3bbc8e07c8b525e9:0x8a029feb383a9d1d!8m2!3d13.6288568!4d74.6890996?authuser=0&hl=en&rclk=1,13.6288568,74.6890996,Karnataka,South
Rajiv Gandhi Rural Hospital And Mrc,Hospital,"Main Rd, Yamakanmardi, Karnataka 591246, India",https://www.google.co.kr/maps/place/Rajiv+Gandhi+Rural+Hospital+And+Mrc/data=!4m5!3m4!1s0x3bc099eaea6dadbf:0xd379336b237f00fb!8m2!3d16.1276692!4d74.5211659?authuser=0&hl=en&rclk=1,16.1276692,74.5211659,Karnataka,South
Ganga Hospital,Hospital,"Extension Rd, Laxmi Extn Phase 4, Gokak, Karnataka 591307, India",https://www.google.co.kr/maps/place/Ganga+Hospital/data=!4m5!3m4!1s0x3bc0afd186abb3cd:0x2dbb88772b099f65!8m2!3d16.162091!4d74.8210657?authuser=0&hl=en&rclk=1,16.162091,74.8210657,Karnataka,South
ESI HOSPITAL,Hospital,"Hubli Toll Naka, Near, Saraswatpur, Dharwad, Karnataka 580002, India",https://www.google.co.kr/maps/place/ESI+HOSPITAL/data=!4m5!3m4!1s0x3bb8d286fd73b1e1:0xd1c8e27cc1dafedc!8m2!3d15.4451226!4d75.0112581?authuser=0&hl=en&rclk=1,15.4451226,75.0112581,Karnataka,South
Kulgod Multispeciality Hospital,Hospital,"Basav marg, Ramdurg, Karnataka 591123, India",https://www.google.co.kr/maps/place/Kulgod+Multispeciality+Hospital/data=!4m5!3m4!1s0x3bb8a113ab690869:0xc1e938b968452379!8m2!3d15.9464075!4d75.2976892?authuser=0&hl=en&rclk=1,15.9464075,75.2976892,Karnataka,South
Hubli Institute of Nursing Sciences and Hubli Co-Operative Hospital,Hospital,"Shree Shakti Rd, near Apsara Talkies, New Hubli, Hubli, Karnataka 580020, India",https://www.google.co.kr/maps/place/Hubli+Institute+of+Nursing+Sciences+and+Hubli+Co-Operative+Hospital/data=!4m5!3m4!1s0x3bb8d767f7247b27:0x9088b3d7a4b22897!8m2!3d15.3475954!4d75.1439024?authuser=0&hl=en&rclk=1,15.3475954,75.1439024,Karnataka,South
Dr Balesh Kappalguddi,Hospital,"5R7C+J5Q, Gokak, Karnataka 591307, India",https://www.google.co.kr/maps/place/Dr+Balesh+Kappalguddi/data=!4m5!3m4!1s0x3bc0afd143bdb13b:0x1ad4220265e4221!8m2!3d16.1640901!4d74.8204941?authuser=0&hl=en&rclk=1,16.1640901,74.8204941,Karnataka,South
Hospital,Medical clinic,"Vidyanagar Rd, Sirsi, Karnataka 581401, India",https://www.google.co.kr/maps/place/Hospital/data=!4m5!3m4!1s0x3bbeaf7b82d90975:0xc13dbad0ad98f300!8m2!3d14.6306985!4d74.8390767?authuser=0&hl=en&rclk=1,14.6306985,74.8390767,Karnataka,South
Choudhari Hospital Multi Speciality,Private hospital,"Shikarkhana Road, near LIC office, Vijayapura, Karnataka 586104, India",https://www.google.co.kr/maps/place/Choudhari+Hospital+Multi+Speciality/data=!4m5!3m4!1s0x3bc65576f15547dd:0xcdfb89352605d199!8m2!3d16.8303341!4d75.7293247?authuser=0&hl=en&rclk=1,16.8303341,75.7293247,Karnataka,South
Dr B B Ghodageri,Hospital,"5R8F+4FW, Adi Jambav Nagar, Gokak, Karnataka 591307, India",https://www.google.co.kr/maps/place/Dr+B+B+Ghodageri/data=!4m5!3m4!1s0x3bc0afd387d0c277:0x92b7944d618501bb!8m2!3d16.1653524!4d74.8236912?authuser=0&hl=en&rclk=1,16.1653524,74.8236912,Karnataka,South
Dr Navadgi Nursing Home,Hospital,"Q4F5+4FP, Saundatti-Yellamma, Karnataka 591126, India",https://www.google.co.kr/maps/place/Dr+Navadgi+Nursing+Home/data=!4m5!3m4!1s0x3bb8b0fdee7aef13:0x4144c31aa4ae8179!8m2!3d15.7728283!4d75.1087081?authuser=0&hl=en&rclk=1,15.7728283,75.1087081,Karnataka,South
Kles Hospital Icu Gokak,Hospital,"Main Rd, Gokak, Karnataka 591307, India",https://www.google.co.kr/maps/place/Kles+Hospital+Icu+Gokak/data=!4m5!3m4!1s0x3bc09ee037e2c06d:0x568f8d2d61505658!8m2!3d16.1593732!4d74.8170754?authuser=0&hl=en&rclk=1,16.1593732,74.8170754,Karnataka,South
Clinic,Private hospital,"84FG+62F, Nekar Nagar, Chanbasweshwar Nagar, Hubli, Karnataka 580024, India",https://www.google.co.kr/maps/place/Clinic/data=!4m5!3m4!1s0x3bb8d7a74dcf293f:0x3e3adcd5658ee494!8m2!3d15.3230531!4d75.1250508?authuser=0&hl=en&rclk=1,15.3230531,75.1250508,Karnataka,South
Jayaratna Maternity And Laparoscopy Surgical Hospital,Hospital,"5R77+JHR, Mahalingeshwar Nagar, Gokak, Karnataka 591307, India",https://www.google.co.kr/maps/place/Jayaratna+Maternity+And+Laparoscopy+Surgical+Hospital/data=!4m5!3m4!1s0x3bc0afda2339e7d5:0xaa02245e3ab7cb36!8m2!3d16.1641157!4d74.8139011?authuser=0&hl=en&rclk=1,16.1641157,74.8139011,Karnataka,South
Spandana Multispeciality Hospital,Hospital,"Raikar Building, Nadagouda Road, Bagalkot, Karnataka 587101, India",https://www.google.co.kr/maps/place/Spandana+Multispeciality+Hospital/data=!4m5!3m4!1s0x3bc778895f229193:0x3c193a70140d11d3!8m2!3d16.1819409!4d75.6966862?authuser=0&hl=en&rclk=1,16.1819409,75.6966862,Karnataka,South
Hospital,Hospital,"Gokak Falls Rd, opp. LIC Office, Gokak, Karnataka 591307, India",https://www.google.co.kr/maps/place/Hospital/data=!4m5!3m4!1s0x3bc0aff3f260dee7:0xf672989e740b52ce!8m2!3d16.1620353!4d74.8118523?authuser=0&hl=en&rclk=1,16.1620353,74.8118523,Karnataka,South
Dr Agarwal Hospital,Hospital,"F8F5+88R, Talikoti, Karnataka 586214, India",https://www.google.co.kr/maps/place/Dr+Agarwal+Hospital/data=!4m5!3m4!1s0x3bc7dd71a4668c55:0xe5da1761deede313!8m2!3d16.4733713!4d76.308261?authuser=0&hl=en&rclk=1,16.4733713,76.308261,Karnataka,South
Dr R G Karudagimath Memorial Nursing Home Badami,Hospital,"SH 14, TIPPU NAGAR, Station Road, Badami, Karnataka 587201, India",https://www.google.co.kr/maps/place/Dr+R+G+Karudagimath+Memorial+Nursing+Home+Badami/data=!4m5!3m4!1s0x3bb8871a7aef3e17:0xf54878e1eda9c6a5!8m2!3d15.9251059!4d75.6783929?authuser=0&hl=en&rclk=1,15.9251059,75.6783929,Karnataka,South
hospital,Hospital,"F94X+P3C, Hirekerur, Karnataka 581111, India",https://www.google.co.kr/maps/place/hospital/data=!4m5!3m4!1s0x3bbbdc37a6c877ad:0xc8d16ae759b919a9!8m2!3d14.4568108!4d75.3976427?authuser=0&hl=en&rclk=1,14.4568108,75.3976427,Karnataka,South
"Jindal Sanjeevani Multispeciality Hospital, Bellary",Hospital,"Vijaya Vittala Nagara, Toranagallu Sandur, Bellary, Karnataka 583123, India","https://www.google.co.kr/maps/place/Jindal+Sanjeevani+Multispeciality+Hospital,+Bellary/data=!4m5!3m4!1s0x3bb7701e8700afa9:0x69463266f1fb30bd!8m2!3d15.1963757!4d76.6589939?authuser=0&hl=en&rclk=1",15.1963757,76.6589939,Karnataka,South
"Sahyadri Narayana Multispeciality Hospital, Shimoga",Hospital,"NT Road, Harakere, Shivamogga, Karnataka 577202, India","https://www.google.co.kr/maps/place/Sahyadri+Narayana+Multispeciality+Hospital,+Shimoga/data=!4m5!3m4!1s0x3bbba8f68a191711:0x1e3cb4858d1ceb3b!8m2!3d13.9007265!4d75.5583661?authuser=0&hl=en&rclk=1",13.9007265,75.5583661,Karnataka,South
Manipal Hospital,Hospital,"Udyavara, Udupi, Karnataka 574118, India",https://www.google.co.kr/maps/place/Manipal+Hospital/data=!4m5!3m4!1s0x3bbcbaf8d24c1903:0x5361f50f774340b9!8m2!3d13.301099!4d74.7360302?authuser=0&hl=en&rclk=1,13.301099,74.7360302,Karnataka,South
Shri Mallikarjun Multispeciality Hospital Harugeri,Hospital,"Athani-Gokak Rd, Main Road, Harugeri, Karnataka 591220, India",https://www.google.co.kr/maps/place/Shri+Mallikarjun+Multispeciality+Hospital+Harugeri/data=!4m5!3m4!1s0x3bc0cd3ea150e985:0x1c6091b5738985c2!8m2!3d16.5187792!4d74.9489691?authuser=0&hl=en&rclk=1,16.5187792,74.9489691,Karnataka,South
KMC Hospital,Private hospital,"Nandigudda Rd, Attavar, Mangalore, Karnataka 575001, India",https://www.google.co.kr/maps/place/KMC+Hospital/data=!4m5!3m4!1s0x3ba35bb660448f91:0xe815832743fe5d15!8m2!3d12.8589894!4d74.8481104?authuser=0&hl=en&rclk=1,12.8589894,74.8481104,Karnataka,South
Unity Hospital,Hospital,"Unity Care and Health Services Pvt Ltd., P.B No.535, Highlands, Mangalore, Karnataka 575002, India",https://www.google.co.kr/maps/place/Unity+Hospital/data=!4m5!3m4!1s0x3ba35a34e4cee1c5:0x5589a59aadaeca0a!8m2!3d12.8676609!4d74.8540711?authuser=0&hl=en&rclk=1,12.8676609,74.8540711,Karnataka,South
Naikwadi Medical Center,Hospital,"Ghataprabha Rd, Hukkeri, Karnataka 591306, India",https://www.google.co.kr/maps/place/Naikwadi+Medical+Center/data=!4m5!3m4!1s0x3bc0b09043807719:0xbfb8a1abc47ab70b!8m2!3d16.2282663!4d74.7940474?authuser=0&hl=en&rclk=1,16.2282663,74.7940474,Karnataka,South
The Bangalore Hospital,General hospital,"202, Rashtriya Vidyalaya Rd, 2nd Block, Basavanagudi, Bengaluru, Karnataka 560004, India",https://www.google.co.kr/maps/place/The+Bangalore+Hospital/data=!4m5!3m4!1s0x3bae158e750221f1:0xf18e3d80c3d298aa!8m2!3d12.9377405!4d77.5804336?authuser=0&hl=en&rclk=1,12.9377405,77.5804336,Karnataka,South
Athena Hospital,Hospital,"1, Falnir Rd, Bendoor, Mangalore, Karnataka 575002, India",https://www.google.co.kr/maps/place/Athena+Hospital/data=!4m5!3m4!1s0x3ba35a4af8ccf2d5:0xf9223c92233df351!8m2!3d12.868088!4d74.8481609?authuser=0&hl=en&rclk=1,12.868088,74.8481609,Karnataka,South
Hospital,Hospital,"Adivala, Hiriyur, Madras Bombay Trunk Rd, Adivala, Karnataka 577511, India",https://www.google.co.kr/maps/place/Hospital/data=!4m5!3m4!1s0x3bb062a0c49bac99:0x5fa6be43c7fa47f5!8m2!3d13.9140366!4d76.6595667?authuser=0&hl=en&rclk=1,13.9140366,76.6595667,Karnataka,South
Ssjmect Ashirwad Nursing And Maternity Home,Hospital,"Athani-Gokak Rd, Main Road, Harugeri, Karnataka 591220, India",https://www.google.co.kr/maps/place/Ssjmect+Ashirwad+Nursing+And+Maternity+Home/data=!4m5!3m4!1s0x3bc0cd3c35a39b93:0x1378297a41309047!8m2!3d16.517008!4d74.9473962?authuser=0&hl=en&rclk=1,16.517008,74.9473962,Karnataka,South
Jeevan Maternity And Surgical Hospital Manjari,Hospital,"CHJP+C4X, Chikodi, Karnataka 591213, India",https://www.google.co.kr/maps/place/Jeevan+Maternity+And+Surgical+Hospital+Manjari/data=!4m5!3m4!1s0x3bc0e9f8e3af2d03:0xdc310a9bd3e7febf!8m2!3d16.4311227!4d74.5853448?authuser=0&hl=en&rclk=1,16.4311227,74.5853448,Karnataka,South
Maternity Hospital,Hospital,"Doddapet, Ranebennur, Karnataka 581115, India",https://www.google.co.kr/maps/place/Maternity+Hospital/data=!4m5!3m4!1s0x3bb97e6356814b9d:0x31a0f0d7ac1b971a!8m2!3d14.6225711!4d75.6328326?authuser=0&hl=en&rclk=1,14.6225711,75.6328326,Karnataka,South
Manipal Hospital,Hospital,"Udupi-Manipal Hwy, Madhav Nagar, Saralebettu, Udupi, Karnataka 576104, India",https://www.google.co.kr/maps/place/Manipal+Hospital/data=!4m5!3m4!1s0x3bbca4aca94a91d5:0xceba7bd54bd1e518!8m2!3d13.3531538!4d74.7891692?authuser=0&hl=en&rclk=1,13.3531538,74.7891692,Karnataka,South
BR LIFE,Hospital,"8PQX+GM9, Thenkpete, Maruthi Veethika, Udupi, Karnataka 576101, India",https://www.google.co.kr/maps/place/BR+LIFE/data=!4m5!3m4!1s0x3bbcbb24b6239561:0xaa56da00544803da!8m2!3d13.338787!4d74.7492452?authuser=0&hl=en&rclk=1,13.338787,74.7492452,Karnataka,South
New Government Hospital,Hospital,"SH 14, Manvi Rural, Karnataka 584123, India",https://www.google.co.kr/maps/place/New+Government+Hospital/data=!4m5!3m4!1s0x3bb7d1b51f8d1199:0xf6a93aee9a7f405c!8m2!3d15.9783381!4d77.0579231?authuser=0&hl=en&rclk=1,15.9783381,77.0579231,Karnataka,South
Victoria Hospital,Government hospital,"Mysore Rd, near City Market, New Tharagupet, Bengaluru, Karnataka 560002, India",https://www.google.co.kr/maps/place/Victoria+Hospital/data=!4m5!3m4!1s0x3bae15e2d61081e7:0x6e7d0833b6fa721e!8m2!3d12.9634744!4d77.5737641?authuser=0&hl=en&rclk=1,12.9634744,77.5737641,Karnataka,South
"Sankara Vision Centre, Channagiri",Hospital,"Sy.no.56/A, Jawali complex, ground floor, Birur Road, Channagiri Rural, Karnataka 577213, India","https://www.google.co.kr/maps/place/Sankara+Vision+Centre,+Channagiri/data=!4m5!3m4!1s0x3bba5b1f2b03ca41:0x509593eaaac4d462!8m2!3d14.0168177!4d75.9348894?authuser=0&hl=en&rclk=1",14.0168177,75.9348894,Karnataka,South
Manipal hospital,Hospital,"Babuguda Rd, St Joseph Nagar, Attavar, Mangalore, Karnataka 575002, India",https://www.google.co.kr/maps/place/Manipal+hospital/data=!4m5!3m4!1s0x3ba35bd37ec600f1:0x73ccd7d3b8f7bdde!8m2!3d12.8574853!4d74.8530947?authuser=0&hl=en&rclk=1,12.8574853,74.8530947,Karnataka,South
Women and Children Hospital,Government hospital,"NH 69, Sagar, Karnataka 577401, India",https://www.google.co.kr/maps/place/Women+and+Children+Hospital/data=!4m5!3m4!1s0x3bbb8b46b9780851:0xc9f307173f81a87e!8m2!3d14.1663878!4d75.0424542?authuser=0&hl=en&rclk=1,14.1663878,75.0424542,Karnataka,South
Annapurna Multisepciality Hospital,Hospital,"Haluvalli, Karnataka 591304, India",https://www.google.co.kr/maps/place/Annapurna+Multisepciality+Hospital/data=!4m5!3m4!1s0x3bc729f6efc02439:0x6f319e90db4009ff!8m2!3d16.7242074!4d75.0648487?authuser=0&hl=en&rclk=1,16.7242074,75.0648487,Karnataka,South
Padma Nursing Home,Hospital,"MVCP+59J, Karnataka 591303, India",https://www.google.co.kr/maps/place/Padma+Nursing+Home/data=!4m5!3m4!1s0x3bc0d43020b88fa7:0x93ece0edc5c455e9!8m2!3d16.6704657!4d74.8858869?authuser=0&hl=en&rclk=1,16.6704657,74.8858869,Karnataka,South
Rangadore Memorial Hospital,Hospital,"1st Cross Road Shankarapuram, Basavanagudi, Bengaluru, Karnataka 560004, India",https://www.google.co.kr/maps/place/Rangadore+Memorial+Hospital/data=!4m5!3m4!1s0x3bae1592c0000001:0x92435e0cc1f579e1!8m2!3d12.95345!4d77.5712082?authuser=0&hl=en&rclk=1,12.95345,77.5712082,Karnataka,South
SPARSH Hospital,Specialized hospital,"SPARSH Super Speciality Hospital, 146, Infantry Rd, Vasanth Nagar, Bengaluru, Karnataka 560001, India",https://www.google.co.kr/maps/place/SPARSH+Hospital/data=!4m5!3m4!1s0x3bae1662b5e4f303:0x83e17841b11f5631!8m2!3d12.9832825!4d77.59475?authuser=0&hl=en&rclk=1,12.9832825,77.59475,Karnataka,South
Mahantesh Multi Speciality Hospital,Hospital,"arun nilaya, near, Joshi Galli, Ilkal, Karnataka 587125, India",https://www.google.co.kr/maps/place/Mahantesh+Multi+Speciality+Hospital/data=!4m5!3m4!1s0x3bb80c9645523273:0x96ab3f265204be71!8m2!3d15.9696887!4d76.1109551?authuser=0&hl=en&rclk=1,15.9696887,76.1109551,Karnataka,South
Bangalore Baptist Hospital,Hospital,"Bellary Rd, Vinayakanagar, Hebbal, Bengaluru, Karnataka 560024, India",https://www.google.co.kr/maps/place/Bangalore+Baptist+Hospital/data=!4m5!3m4!1s0x3bae17be2817e0c7:0xeed76978487c758!8m2!3d13.0358406!4d77.5895705?authuser=0&hl=en&rclk=1,13.0358406,77.5895705,Karnataka,South
Hospital,Hospital,"Dr Nalatawad's ENT hospital, Karnataka 587313, India",https://www.google.co.kr/maps/place/Hospital/data=!4m5!3m4!1s0x3bc74184041978e9:0x152845f91740ce4d!8m2!3d16.3254315!4d75.2892232?authuser=0&hl=en&rclk=1,16.3254315,75.2892232,Karnataka,South
Maternity hospital,Hospital,"SH 19, Shiva Nagara, Lingsugur, Karnataka 584122, India",https://www.google.co.kr/maps/place/Maternity+hospital/data=!4m5!3m4!1s0x3bc801729284700d:0xfa71b37b45a5f566!8m2!3d16.1600146!4d76.5278435?authuser=0&hl=en&rclk=1,16.1600146,76.5278435,Karnataka,South
Padma Hospital Terdal,Hospital,"F3V3+X9X, Terdal, Karnataka 587315, India",https://www.google.co.kr/maps/place/Padma+Hospital+Terdal/data=!4m5!3m4!1s0x3bc733da4939e4d5:0xcf9a110c0d160d57!8m2!3d16.4949899!4d75.0534963?authuser=0&hl=en&rclk=1,16.4949899,75.0534963,Karnataka,South
Benaka Health Centre,Private hospital,"Main Road, Ujire, Dakshina Kannada, Karnataka 574240, India",https://www.google.co.kr/maps/place/Benaka+Health+Centre/data=!4m5!3m4!1s0x3ba4b63907ea21fb:0x3c01931118375884!8m2!3d12.996343!4d75.3216926?authuser=0&hl=en&rclk=1,12.996343,75.3216926,Karnataka,South
SECURE Hospital,Hospital,"#1659, Sitaranga Healthcare Complex, NS Road, Lakshmipuram, Mysuru, Karnataka 570004, India",https://www.google.co.kr/maps/place/SECURE+Hospital/data=!4m5!3m4!1s0x3baf7003ea1587dd:0xee02922cf4f5628b!8m2!3d12.2952596!4d76.6482062?authuser=0&hl=en&rclk=1,12.2952596,76.6482062,Karnataka,South
Jaydeva Hospital,Government hospital,"B-8, B T M I Stage, Mahatma Gandhi Rd, KEB Colony, Bengaluru, Karnataka 560074, India",https://www.google.co.kr/maps/place/Jaydeva+Hospital/data=!4m5!3m4!1s0x3bae16773e7dc413:0x350240386002607b!8m2!3d12.9182795!4d77.5992673?authuser=0&hl=en&rclk=1,12.9182795,77.5992673,Karnataka,South
"Narayana Multispeciality Hospital, Mysore",General hospital,"CAH/1, 3rd Phase, Devanur, 2nd Stage, R.S.Naidu Nagar, Mysuru, Karnataka 570019, India","https://www.google.co.kr/maps/place/Narayana+Multispeciality+Hospital,+Mysore/data=!4m5!3m4!1s0x3baf71a12b5ff6e3:0xfa137a5dcf03a77b!8m2!3d12.3452462!4d76.6730436?authuser=0&hl=en&rclk=1",12.3452462,76.6730436,Karnataka,South
Ashraya Hospital,Private hospital,"1977/1-2, Shamanur Rd, MCC A Block, Davanagere, Karnataka 577004, India",https://www.google.co.kr/maps/place/Ashraya+Hospital/data=!4m5!3m4!1s0x3bba257a29b0a79b:0x2791b2999fd134e5!8m2!3d14.4569039!4d75.9087141?authuser=0&hl=en&rclk=1,14.4569039,75.9087141,Karnataka,South
Holy Cross Hospital in chikmagalur,Private hospital,"KM Rd, Jyothinagar, Karnataka Housing Board Layout, Chikmagalur, Karnataka 577101, India",https://www.google.co.kr/maps/place/Holy+Cross+Hospital+in+chikmagalur/data=!4m5!3m4!1s0x3bbad9f703ead1f3:0xc2ef8f64fd68701a!8m2!3d13.338613!4d75.803534?authuser=0&hl=en&rclk=1,13.338613,75.803534,Karnataka,South
Fortis Hospital Rajajinagar Bangalore - Karnataka,Private hospital,"111, West of Chord Road Opp Rajajinagar, 1st Block, Junction, Bengaluru, Karnataka 560086, India",https://www.google.co.kr/maps/place/Fortis+Hospital+Rajajinagar+Bangalore+-+Karnataka/data=!4m5!3m4!1s0x3bae3d9b1881ccf5:0x99e927bc3d89ce3c!8m2!3d13.0021849!4d77.5490498?authuser=0&hl=en&rclk=1,13.0021849,77.5490498,Karnataka,South
Columbia Asia Hospital Mysuru,General hospital,"No. 85-86, Bangalore-Mysore Ring Road Junction Bannimantapa 'A' Layout, Siddique Nagar, Mandi Mohalla, Mysuru, Karnataka 570015, India",https://www.google.co.kr/maps/place/Columbia+Asia+Hospital+Mysuru/data=!4m5!3m4!1s0x3baf7092496f2c85:0xd84f0cc826a451aa!8m2!3d12.3499753!4d76.6601803?authuser=0&hl=en&rclk=1,12.3499753,76.6601803,Karnataka,South
St. Philomena's Hospital,General hospital,"No 4, Mother Theresa Rd, Near Life Style, Vivek Nagar Post, Bengaluru, Karnataka 560047, India",https://www.google.co.kr/maps/place/St.+Philomena's+Hospital/data=!4m5!3m4!1s0x3bae142bac7a3b7f:0xb9d552e81e7e808!8m2!3d12.965306!4d77.6110231?authuser=0&hl=en&rclk=1,12.965306,77.6110231,Karnataka,South
Citi Hospital,Private hospital,"25/91 20th Main Road, Chord Rd, 2nd Block, Rajajinagar, Bengaluru, Karnataka 560010, India",https://www.google.co.kr/maps/place/Citi+Hospital/data=!4m5!3m4!1s0x3bae3ded6cfb0e1f:0xb50ba0c3d38b1258!8m2!3d12.9956285!4d77.5510286?authuser=0&hl=en&rclk=1,12.9956285,77.5510286,Karnataka,South
Wenlock District Hospital,Government hospital,"Hampankatta, Mangalore, Karnataka 575001, India",https://www.google.co.kr/maps/place/Wenlock+District+Hospital/data=!4m5!3m4!1s0x3ba35a4cf3b55ca3:0xd1a7e005cb1aa688!8m2!3d12.867383!4d74.843131?authuser=0&hl=en&rclk=1,12.867383,74.843131,Karnataka,South
Cauvery Heart and Multispeciality Hospital,Private hospital,"Malavalli - Mysore Rd, Near Teresian College, Siddhartha Layout, Mysuru, Karnataka 570011, India",https://www.google.co.kr/maps/place/Cauvery+Heart+and+Multispeciality+Hospital/data=!4m5!3m4!1s0x3baf71ce2ddb55f7:0x72acb6b7ea44a8c6!8m2!3d12.3051006!4d76.6958165?authuser=0&hl=en&rclk=1,12.3051006,76.6958165,Karnataka,South
Mazumdar Shaw Medical Center,General hospital,"Anekal, 258/A, Hosur Rd, Bommasandra Industrial Area, Bengaluru, Karnataka 560099, India",https://www.google.co.kr/maps/place/Mazumdar+Shaw+Medical+Center/data=!4m5!3m4!1s0x3bae6c33ea16001d:0x51693da9325cf807!8m2!3d12.8067882!4d77.6947966?authuser=0&hl=en&rclk=1,12.8067882,77.6947966,Karnataka,South
Dr Channal's Arogyadham Hospital,Hospital,"Nipani-Mahalingpur Rd, Hallur, Karnataka 587312, India",https://www.google.co.kr/maps/place/Dr+Channal's+Arogyadham+Hospital/data=!4m5!3m4!1s0x3bc7363497cc8a79:0x74bf0bab91d324c!8m2!3d16.3930137!4d75.1063964?authuser=0&hl=en&rclk=1,16.3930137,75.1063964,Karnataka,South
Chirayu Hospital,General hospital,"Court Rd, Opp Gescom Office, Revansiddeshwar Colony, Khuba Plot, Brhampur, Gulbarga, Karnataka 585102, India",https://www.google.co.kr/maps/place/Chirayu+Hospital/data=!4m5!3m4!1s0x3bc8c0ab48558f31:0x4df59d498a6f0652!8m2!3d17.3233902!4d76.8296211?authuser=0&hl=en&rclk=1,17.3233902,76.8296211,Karnataka,South
Ramaiah Memorial Hospital,Specialized hospital,"New BEL Rd, M S Ramaiah Nagar, MSRIT Post, Bengaluru, Karnataka 560054, India",https://www.google.co.kr/maps/place/Ramaiah+Memorial+Hospital/data=!4m5!3m4!1s0x3bae17dc7777e56d:0x3bfb44b6b12ec9d0!8m2!3d13.0281563!4d77.5698782?authuser=0&hl=en&rclk=1,13.0281563,77.5698782,Karnataka,South
Government Hospital,Government hospital,"District hospital, Athani Rd, Shastri Nagar, Vijayapura, Karnataka 586102, India",https://www.google.co.kr/maps/place/Government+Hospital/data=!4m5!3m4!1s0x3bc6ff9f96252025:0x2c8347293c90de79!8m2!3d16.8282892!4d75.6915571?authuser=0&hl=en&rclk=1,16.8282892,75.6915571,Karnataka,South
"Fortis Hospital, Nagarbhavi, Bangalore",Private hospital,"Building No. 119, Survey No, 23, 80 Feet Main Rd, 2nd Stage, Naagarabhaavi, Bengaluru, Karnataka 560072, India","https://www.google.co.kr/maps/place/Fortis+Hospital,+Nagarbhavi,+Bangalore/data=!4m5!3m4!1s0x3bae16773c548eed:0xff00fb1e264b6969!8m2!3d12.9610433!4d77.5116184?authuser=0&hl=en&rclk=1",12.9610433,77.5116184,Karnataka,South
Dipali Hospital,Hospital,"College Rd, Basaveshwara Extension, Hosapete, Karnataka 583201, India",https://www.google.co.kr/maps/place/Dipali+Hospital/data=!4m5!3m4!1s0x3bb9d4192c6d88e3:0x70f97556a16d6214!8m2!3d15.2741441!4d76.3832972?authuser=0&hl=en&rclk=1,15.2741441,76.3832972,Karnataka,South
Nayak Hospital,General hospital,"3367, 5th Cross Rd, Gayatrinagar, Rajajinagar, Bengaluru, Karnataka 560021, India",https://www.google.co.kr/maps/place/Nayak+Hospital/data=!4m5!3m4!1s0x3bae1626f4219d8b:0x1bb58909c78790b1!8m2!3d12.99934!4d77.5606264?authuser=0&hl=en&rclk=1,12.99934,77.5606264,Karnataka,South
Rural India Health Project,Hospital,"SH 88B, Ammathi Town, Karnataka 571211, India",https://www.google.co.kr/maps/place/Rural+India+Health+Project/data=!4m5!3m4!1s0x3ba5b02e54086979:0x9be1bcb06b2ac018!8m2!3d12.2423063!4d75.8617973?authuser=0&hl=en&rclk=1,12.2423063,75.8617973,Karnataka,South
"Columbia Asia Hospital Hebbal, Bangalore",Private hospital,"Kirloskar Business Park, Bellary Rd, Hebbal Kempapura, Bengaluru, Karnataka 560024, India","https://www.google.co.kr/maps/place/Columbia+Asia+Hospital+Hebbal,+Bangalore/data=!4m5!3m4!1s0x3bae178f26a5ddf9:0x930a4b59c8b80796!8m2!3d13.0509529!4d77.593821?authuser=0&hl=en&rclk=1",13.0509529,77.593821,Karnataka,South
Chinmaya Mission Hospital,General hospital,"1, 1, Chinmaya Mission Hospital Rd, Opp. Krishna Temple, Defence Colony, Indiranagar, Bengaluru, Karnataka 560038, India",https://www.google.co.kr/maps/place/Chinmaya+Mission+Hospital/data=!4m5!3m4!1s0x3bae16ae5f7d018f:0x5ac5e27509b39791!8m2!3d12.9778862!4d77.6461979?authuser=0&hl=en&rclk=1,12.9778862,77.6461979,Karnataka,South
hospital,Hospital,"Unnamed Road, Bagali, Karnataka 583131, India",https://www.google.co.kr/maps/place/hospital/data=!4m5!3m4!1s0x3bb9915eec893271:0x8660c1584a7e36fb!8m2!3d14.8447984!4d75.9810282?authuser=0&hl=en&rclk=1,14.8447984,75.9810282,Karnataka,South
Civil Hospital,Hospital,"court road, Gajabarwadi, Hukkeri, Karnataka 591309, India",https://www.google.co.kr/maps/place/Civil+Hospital/data=!4m5!3m4!1s0x3bc0bd23b8bf48db:0xd76347c1e55e1f72!8m2!3d16.2362553!4d74.6027446?authuser=0&hl=en&rclk=1,16.2362553,74.6027446,Karnataka,South
METRI HOSPITAL,Hospital,"bay pass, Hanuman Temple Rd, Desar Wada, Athani, Karnataka 591304, India",https://www.google.co.kr/maps/place/METRI+HOSPITAL/data=!4m5!3m4!1s0x3bc72bf0f7a01a01:0xe259bb97945ae3c8!8m2!3d16.7293522!4d75.0616648?authuser=0&hl=en&rclk=1,16.7293522,75.0616648,Karnataka,South
Basaweshwar Teaching and General Hospital - BTGH,General hospital,"Sedam Rd, Rajapur, Gulbarga, Karnataka 585105, India",https://www.google.co.kr/maps/place/Basaweshwar+Teaching+and+General+Hospital+-+BTGH/data=!4m5!3m4!1s0x3bc8c0cb48dad3d5:0xf1f775186724de1c!8m2!3d17.3257865!4d76.8536728?authuser=0&hl=en&rclk=1,17.3257865,76.8536728,Karnataka,South
Manipal Hospital,Hospital,"98, HAL Old Airport Rd, Kodihalli, Bengaluru, Karnataka 560017, India",https://www.google.co.kr/maps/place/Manipal+Hospital/data=!4m5!3m4!1s0x3bae13c0c0c6206b:0x12d8d4c39197c7dd!8m2!3d12.9583911!4d77.6488364?authuser=0&hl=en&rclk=1,12.9583911,77.6488364,Karnataka,South
"Fortis La Femme, Richmond Town",Private hospital,"No:62, Richmond Road, Mother Teresa Rd, behind Sacred Heart Church Entry from, Richmond Town, Bengaluru, Karnataka 560025, India","https://www.google.co.kr/maps/place/Fortis+La+Femme,+Richmond+Town/data=!4m5!3m4!1s0x3bae142ac1c81093:0xa2fc9609c496d0c4!8m2!3d12.9657298!4d77.6097608?authuser=0&hl=en&rclk=1",12.9657298,77.6097608,Karnataka,South
Hospital,Hospital,"78FV+MMF, Hornadu, Karnataka 577181, India",https://www.google.co.kr/maps/place/Hospital/data=!4m5!3m4!1s0x3bbb37de4b362539:0xd53d9288df0ed1d2!8m2!3d13.2741803!4d75.3441638?authuser=0&hl=en&rclk=1,13.2741803,75.3441638,Karnataka,South
Bhagwan Mahaveer Jain Hospital,General hospital,"17, Millers Rd, Kaverappa Layout, Vasanth Nagar, Bengaluru, Karnataka 560052, India",https://www.google.co.kr/maps/place/Bhagwan+Mahaveer+Jain+Hospital/data=!4m5!3m4!1s0x3bae1642c63e2c23:0x730cce157da6d9cb!8m2!3d12.9915398!4d77.5954375?authuser=0&hl=en&rclk=1,12.9915398,77.5954375,Karnataka,South
Essential Hospital,General hospital,"Aladamara Papareddy Palya, Old Outer Ring Rd, ITI HBCS Layout, Papareddipalya, Annapurneshwari Nagar, Bengaluru, Karnataka 560072, India",https://www.google.co.kr/maps/place/Essential+Hospital/data=!4m5!3m4!1s0x3bae3c318748a2b3:0x536f6887641d9de4!8m2!3d12.9748198!4d77.5096173?authuser=0&hl=en&rclk=1,12.9748198,77.5096173,Karnataka,South
"Apollo BGS Hospitals, Mysuru",Private hospital,"Adichunchanagiri Road, Jayanagar, Kuvempu Nagara, Mysuru, Karnataka 570023, India","https://www.google.co.kr/maps/place/Apollo+BGS+Hospitals,+Mysuru/data=!4m5!3m4!1s0x3baf7aab67734a87:0x9a88cfb78df5e7c7!8m2!3d12.295964!4d76.6325376?authuser=0&hl=en&rclk=1",12.295964,76.6325376,Karnataka,South
Hospital P H U,Hospital,"5FMW+MXV, NiDuvale, Karnataka 577122, India",https://www.google.co.kr/maps/place/Hospital+P+H+U/data=!4m5!3m4!1s0x3bbb33f2719f3dd5:0xc8ab7ebf857e9991!8m2!3d13.1842405!4d75.497435?authuser=0&hl=en&rclk=1,13.1842405,75.497435,Karnataka,South
"Fortis Hospital, Cunningham Road, Bangalore",Hospital,"14 Cunningham Road near Sigma Central Mall, Vasanth Nagar, Bengaluru, Karnataka 560052, India","https://www.google.co.kr/maps/place/Fortis+Hospital,+Cunningham+Road,+Bangalore/data=!4m5!3m4!1s0x3bae166847800b0f:0x5670f48c68782ac8!8m2!3d12.988318!4d77.594415?authuser=0&hl=en&rclk=1",12.988318,77.594415,Karnataka,South
Justice K.S. Hegde Hospital,Hospital,"Deralakatte, Mangalore, Karnataka 575018, India",https://www.google.co.kr/maps/place/Justice+K.S.+Hegde+Hospital/data=!4m5!3m4!1s0x3ba35ea50fcd3c59:0xb7441b882731ec2!8m2!3d12.8078662!4d74.8882412?authuser=0&hl=en&rclk=1,12.8078662,74.8882412,Karnataka,South
People Tree Hospitals,Hospital,"2, Tumkur Rd, Next to Yeshwanthpur Metro Stop, Goraguntepalya, Yeswanthpur, Bengaluru, Karnataka 560022, India",https://www.google.co.kr/maps/place/People+Tree+Hospitals/data=!4m5!3m4!1s0x3bae3d6b320b9f7b:0x5bd2ca61e09a2786!8m2!3d13.028795!4d77.5394651?authuser=0&hl=en&rclk=1,13.028795,77.5394651,Karnataka,South
Sanjeevini Hospital,Hospital,"MCC A Block, Davanagere, Karnataka 577004, India",https://www.google.co.kr/maps/place/Sanjeevini+Hospital/data=!4m5!3m4!1s0x3bba257748426cd1:0x4df0ecd3274ca126!8m2!3d14.4581613!4d75.9124438?authuser=0&hl=en&rclk=1,14.4581613,75.9124438,Karnataka,South
hospital,Hospital,"G8QQ+7PR, Hasargundgi, Karnataka 585306, India",https://www.google.co.kr/maps/place/hospital/data=!4m5!3m4!1s0x3bc92e795eb29bdf:0x311920bce61a24c0!8m2!3d17.5382381!4d77.3392694?authuser=0&hl=en&rclk=1,17.5382381,77.3392694,Karnataka,South
Bowring and Lady Curzon Hospital,Government hospital,"Lady Curzon Rd, Shivaji Nagar, Bengaluru, Karnataka 560001, India",https://www.google.co.kr/maps/place/Bowring+and+Lady+Curzon+Hospital/data=!4m5!3m4!1s0x3bae1663b446cb89:0x2a8952c4f01fa407!8m2!3d12.982188!4d77.6040572?authuser=0&hl=en&rclk=1,12.982188,77.6040572,Karnataka,South
Shakuntala Multispeciality Hospital,Hospital,"Railway Station, 122B1, Basaveshwara Cir Rd, Bagalkot, Karnataka 587101, India",https://www.google.co.kr/maps/place/Shakuntala+Multispeciality+Hospital/data=!4m5!3m4!1s0x3bc7788bb5fc57d1:0x6a0c11b040d91cda!8m2!3d16.1797765!4d75.6986711?authuser=0&hl=en&rclk=1,16.1797765,75.6986711,Karnataka,South
Mitra Hospital,Private hospital,"Old Post Office Rd, Kadekoppala, Chitpady, Udupi, Karnataka 576101, India",https://www.google.co.kr/maps/place/Mitra+Hospital/data=!4m5!3m4!1s0x3bbcbb6eb9fb29a3:0xf619d947084ba00f!8m2!3d13.3369438!4d74.7504978?authuser=0&hl=en&rclk=1,13.3369438,74.7504978,Karnataka,South
Minto Ophthalmic Hospital,Government hospital,"Chamrajpet, Tippu Sultan Palace Rd, Opposite V V Puram Police Station, New Tharagupet, Bengaluru, Karnataka 560002, India",https://www.google.co.kr/maps/place/Minto+Ophthalmic+Hospital/data=!4m5!3m4!1s0x3bae15fccffffffd:0x37f21079460c481c!8m2!3d12.9608878!4d77.5718855?authuser=0&hl=en&rclk=1,12.9608878,77.5718855,Karnataka,South
Hospital,Government hospital,"48XQ+HF5, T.Begur, Karnataka 562123, India",https://www.google.co.kr/maps/place/Hospital/data=!4m5!3m4!1s0x3bae28da2509432f:0xa905aa651ac189ac!8m2!3d13.1488752!4d77.3387416?authuser=0&hl=en&rclk=1,13.1488752,77.3387416,Karnataka,South
Yenopoya Hospital,Hospital,"Kankanady, Mangalore, Karnataka 575002, India",https://www.google.co.kr/maps/place/Yenopoya+Hospital/data=!4m5!3m4!1s0x3ba35a32e6c0cb63:0x3bf7a9601e759bd3!8m2!3d12.8671776!4d74.8593368?authuser=0&hl=en&rclk=1,12.8671776,74.8593368,Karnataka,South
Rajarajeshwari Hospital,General hospital,"202, Mysore Rd, Kengeri Satellite Town, Kambipura, Karnataka 560074, India",https://www.google.co.kr/maps/place/Rajarajeshwari+Hospital/data=!4m5!3m4!1s0x3ba5000a6767bf3f:0x792b2373a74fe015!8m2!3d12.8962674!4d77.4617612?authuser=0&hl=en&rclk=1,12.8962674,77.4617612,Karnataka,South
Vanivilas Hospital,Maternity hospital,"Victoria Hospital Compound, Sultan Rd, Kalasipalya, Bengaluru, Karnataka 560002, India",https://www.google.co.kr/maps/place/Vanivilas+Hospital/data=!4m5!3m4!1s0x3bae15e34e311e51:0x3801142368cdfdb!8m2!3d12.9614477!4d77.5740093?authuser=0&hl=en&rclk=1,12.9614477,77.5740093,Karnataka,South
Medstar Hospital,Hospital,"614, 171/3, Kodigehalli Main Rd, opp. Chairmans Club, Shanthivana, Sanjeevini Nagar, Bengaluru, Karnataka 560092, India",https://www.google.co.kr/maps/place/Medstar+Hospital/data=!4m5!3m4!1s0x3bae18201fe1768d:0xede689ff5282b99a!8m2!3d13.0580162!4d77.5859943?authuser=0&hl=en&rclk=1,13.0580162,77.5859943,Karnataka,South
Abhaya Hospital,Hospital,"Bus Stop, No. 17, Dr. M H Mari Gowda Road, Opp. 9th Cross, Hosur Rd, Wilson Garden, Bengaluru, Karnataka 560027, India",https://www.google.co.kr/maps/place/Abhaya+Hospital/data=!4m5!3m4!1s0x3bae15b2e1059559:0xd245be7db1d5e1a!8m2!3d12.9463525!4d77.594799?authuser=0&hl=en&rclk=1,12.9463525,77.594799,Karnataka,South
Dr Katti Hospital,Hospital,"Kaulpet, Bagalkot, Karnataka 587101, India",https://www.google.co.kr/maps/place/Dr+Katti+Hospital/data=!4m5!3m4!1s0x3bc778f40c66595f:0x357dcfd9f74c381!8m2!3d16.1807826!4d75.6860444?authuser=0&hl=en&rclk=1,16.1807826,75.6860444,Karnataka,South
Mallya Hospital,Private hospital,"2, Vittal Mallya Rd, Ashok Nagar, Bengaluru, Karnataka 560001, India",https://www.google.co.kr/maps/place/Mallya+Hospital/data=!4m5!3m4!1s0x3bae1677e83810b3:0x57833242f73501e6!8m2!3d12.968064!4d77.5950677?authuser=0&hl=en&rclk=1,12.968064,77.5950677,Karnataka,South
Bharathy Hospital,General hospital,"4, Nagarabhavi Main Rd, opposite Cordial School, North Vijay Nagar, Govindaraja Nagar Ward, Prashant Nagar, Vijayanagar, Bengaluru, Karnataka 560079, India",https://www.google.co.kr/maps/place/Bharathy+Hospital/data=!4m5!3m4!1s0x3bae3dc4b03518db:0xdd5defb6b9099485!8m2!3d12.976131!4d77.5326745?authuser=0&hl=en&rclk=1,12.976131,77.5326745,Karnataka,South
Hospital,Hospital,"Unnamed Road, Humnabad, Karnataka 585330, India",https://www.google.co.kr/maps/place/Hospital/data=!4m5!3m4!1s0x3bcf28e58fdfcc9b:0xe47d9570a0ecccbd!8m2!3d17.7735068!4d77.133322?authuser=0&hl=en&rclk=1,17.7735068,77.133322,Karnataka,South
K.C. General Hospital,Government hospital,"5th Cross Road, Malleshwara, Bengaluru, Karnataka 560003, India",https://www.google.co.kr/maps/place/K.C.+General+Hospital/data=!4m5!3m4!1s0x3bae1624498c8b85:0xd95533c6e2c6bddb!8m2!3d12.9961428!4d77.569358?authuser=0&hl=en&rclk=1,12.9961428,77.569358,Karnataka,South
"Dr TMA Pai Hospital, Udupi",Private hospital,"Court Rd, opp. Old Taluk Office, Brahmagiri, Udupi, Karnataka 576101, India","https://www.google.co.kr/maps/place/Dr+TMA+Pai+Hospital,+Udupi/data=!4m5!3m4!1s0x3bbcbb6d0b05aa6d:0x7299e9dc4acda3cc!8m2!3d13.3323983!4d74.7470072?authuser=0&hl=en&rclk=1",13.3323983,74.7470072,Karnataka,South
NU Hospitals (West),Hospital,"Near to ISKCON, 4/1, Chord Rd, Rajajinagar, Bengaluru, Karnataka 560010, India",https://www.google.co.kr/maps/place/NU+Hospitals+(West)/data=!4m5!3m4!1s0x3bae3d785db91f89:0x8d697ed0f2a9f270!8m2!3d13.0119306!4d77.5528517?authuser=0&hl=en&rclk=1,13.0119306,77.5528517,Karnataka,South
Narayana Health City,Hospital,"Anekal Taluk, 258/A, Hosur Rd, Bommasandra Industrial Area, Bengaluru, Karnataka 560099, India",https://www.google.co.kr/maps/place/Narayana+Health+City/data=!4m5!3m4!1s0x3bae6d92c697eb31:0x77ddda80dabce1ec!8m2!3d12.8083141!4d77.6944144?authuser=0&hl=en&rclk=1,12.8083141,77.6944144,Karnataka,South
Arogyadhama Hospital Unit Of Shivanagouda Hosp Pvt,Hospital,"4RPP+8J3, Karnataka 583219, India",https://www.google.co.kr/maps/place/Arogyadhama+Hospital+Unit+Of+Shivanagouda+Hosp+Pvt/data=!4m5!3m4!1s0x3bb71337ef62cc33:0x1795e23eba82cf50!8m2!3d15.1357583!4d76.8365522?authuser=0&hl=en&rclk=1,15.1357583,76.8365522,Karnataka,South
"Fortis Hospital, Bannerghatta Main, Bangalore",Private hospital,"154, 9, Bannerghatta Main Rd, Opposite IIM, Sahyadri Layout, Bilekahalli, Bengaluru, Karnataka 560076, India","https://www.google.co.kr/maps/place/Fortis+Hospital,+Bannerghatta+Main,+Bangalore/data=!4m5!3m4!1s0x3bae15237055f411:0x7308c26631aa9e25!8m2!3d12.8948227!4d77.5986196?authuser=0&hl=en&rclk=1",12.8948227,77.5986196,Karnataka,South
Sri Matha Hospital,Hospital,"Church, Near Kundapura, Church Road, Kundapura, Karnataka 576201, India",https://www.google.co.kr/maps/place/Sri+Matha+Hospital/data=!4m5!3m4!1s0x3bbc8e07b851699d:0x7f2b53fc0015544!8m2!3d13.6283223!4d74.688923?authuser=0&hl=en&rclk=1,13.6283223,74.688923,Karnataka,South
Kls Super Speciality Hospital,Hospital,"K.L.S. School Of Nursing, (GNM), ISR Rd, Basaveshwara Extension, Hosapete, Karnataka 583203, India",https://www.google.co.kr/maps/place/Kls+Super+Speciality+Hospital/data=!4m5!3m4!1s0x3bb9d41f4a35eb39:0xeca158fe456d471e!8m2!3d15.2736711!4d76.3855965?authuser=0&hl=en&rclk=1,15.2736711,76.3855965,Karnataka,South
"Aster RV Hospital, JP Nagar Bangalore",Hospital,"CA, 37, 24th Main Rd, ITI Layout, 1st Phase, J. P. Nagar, Bengaluru, Karnataka 560078, India","https://www.google.co.kr/maps/place/Aster+RV+Hospital,+JP+Nagar+Bangalore/data=!4m5!3m4!1s0x3bae15aef47cc555:0x19fc4ef2704d71a9!8m2!3d12.9108391!4d77.5851861?authuser=0&hl=en&rclk=1",12.9108391,77.5851861,Karnataka,South
Bahmani Hospital,Hospital,"8RRV+9Q7, Khonialawa, Mominpura, Gulbarga, Karnataka 585104, India",https://www.google.co.kr/maps/place/Bahmani+Hospital/data=!4m5!3m4!1s0x3bc8c746920f3773:0xb28fd17eefba65b0!8m2!3d17.3409028!4d76.8444112?authuser=0&hl=en&rclk=1,17.3409028,76.8444112,Karnataka,South
Koosamma Shambhu Shetty Memorial Haji Abdullah Mother & Child Hospital,Hospital,"Thenkpete, Maruthi Veethika, Udupi, Karnataka 576101, India",https://www.google.co.kr/maps/place/Koosamma+Shambhu+Shetty+Memorial+Haji+Abdullah+Mother+%26+Child+Hospital/data=!4m5!3m4!1s0x3bbcbb6ee1a13667:0x5b30641005084fce!8m2!3d13.3384383!4d74.7495469?authuser=0&hl=en&rclk=1,13.3384383,74.7495469,Karnataka,South
Unity Hospital,Private hospital,"Jawaharlal Nehru Road, Stage 5, Rajarajeshwari Nagar, Bengaluru, Karnataka 560098, India",https://www.google.co.kr/maps/place/Unity+Hospital/data=!4m5!3m4!1s0x3bae3fa93be84a91:0xe9ccd231e7f59796!8m2!3d12.9107405!4d77.5208151?authuser=0&hl=en&rclk=1,12.9107405,77.5208151,Karnataka,South
Adarsha Hospital,Hospital,"NH 66, Kundapura, Karnataka 576201, India",https://www.google.co.kr/maps/place/Adarsha+Hospital/data=!4m5!3m4!1s0x3bbc8e018358a6e9:0x78cdd6d2098ce2bf!8m2!3d13.6356368!4d74.7009829?authuser=0&hl=en&rclk=1,13.6356368,74.7009829,Karnataka,South
DECCAN HOSPITAL,General hospital,"Ashwini Extension, opp. KSRTC Bus Depot, Chintamani, Karnataka 563125, India",https://www.google.co.kr/maps/place/DECCAN+HOSPITAL/data=!4m5!3m4!1s0x3bb2045eb744034b:0xfbefc73438aa3952!8m2!3d13.3922613!4d78.0475063?authuser=0&hl=en&rclk=1,13.3922613,78.0475063,Karnataka,South
Hosmat Hospital,Hospital,"Magrath Road, 45, Richmond Rd, Bengaluru, Karnataka 560025, India",https://www.google.co.kr/maps/place/Hosmat+Hospital/data=!4m5!3m4!1s0x3bae1681f62906a3:0xec3c6d9b2be43a08!8m2!3d12.969157!4d77.6133273?authuser=0&hl=en&rclk=1,12.969157,77.6133273,Karnataka,South
A.M. Hospital,Private hospital,"No. 20/1, Second Cross, Widia Layout, Chandra Layout Main Road, Vijayanagar, Bengaluru, Karnataka 560040, India",https://www.google.co.kr/maps/place/A.M.+Hospital/data=!4m5!3m4!1s0x3bae3e76e98bf37d:0xfa91d3178277ed7e!8m2!3d12.9600685!4d77.5315288?authuser=0&hl=en&rclk=1,12.9600685,77.5315288,Karnataka,South
Specialist Hospital,Hospital,"216, 7th Main Rd, HRBR Layout 1st Block, HRBR Layout, Kalyan Nagar, Bengaluru, Karnataka 560043, India",https://www.google.co.kr/maps/place/Specialist+Hospital/data=!4m5!3m4!1s0x3bae17286449c9f1:0x81656445b256f3e3!8m2!3d13.0169312!4d77.6432499?authuser=0&hl=en&rclk=1,13.0169312,77.6432499,Karnataka,South
Aayug Multi Speciality Hospital,General hospital,"35/11, Varthur Rd, Vaikuntam Layout, Lakshminarayana Pura, AECS Layout, Marathahalli, Bengaluru, Karnataka 560037, India",https://www.google.co.kr/maps/place/Aayug+Multi+Speciality+Hospital/data=!4m5!3m4!1s0x3bae123a017f5f49:0x31c1a546261a28ce!8m2!3d12.9555566!4d77.7112914?authuser=0&hl=en&rclk=1,12.9555566,77.7112914,Karnataka,South
