Company_Name,Category,Address,Url,Latitude,Longitude,State,Territory
Prozone Gym & Fitness Point,Fitness center,"New India Colony, Nikol, Ahmedabad, Gujarat 382345, India",https://www.google.co.kr/maps/place/Prozone+Gym+%26+Fitness+Point/data=!4m5!3m4!1s0x395e872576bdc9bf:0x9ae032cadabb4f3c!8m2!3d23.0612589!4d72.6715763?authuser=0&hl=en&rclk=1,23.0612589,72.6715763,Gujarat,West 2
Sky Fitness GYM & Personal Training Center,Gym,"Krishna Apartment, Near, Aradhana School Rd, below State Bank Of India Branch & ATM, Sector 28, Gandhinagar, Gujarat 382028, India",https://www.google.co.kr/maps/place/Sky+Fitness+GYM+%26+Personal+Training+Center/data=!4m5!3m4!1s0x395c2b9ab331abf1:0x4366486b9139d684!8m2!3d23.2443854!4d72.65148?authuser=0&hl=en&rclk=1,23.2443854,72.65148,Gujarat,West 2
Panchani Fitness,Gym,"4th Floor, Plam Arcade, Shukan Cross Road, Nikol - Naroda Rd, Ahmedabad, Gujarat 382350, India",https://www.google.co.kr/maps/place/Panchani+Fitness/data=!4m5!3m4!1s0x395e8720243b1f63:0xd02892a6b2cdd2a7!8m2!3d23.050384!4d72.6645374?authuser=0&hl=en&rclk=1,23.050384,72.6645374,Gujarat,West 2
FITNESS ARCHITECT INDIA.FRANCHISE,Gym,"1st floor, Heritage Square Panchayat, Gulbai Tekra Rd, Ahmedabad, Gujarat 380009, India",https://www.google.co.kr/maps/place/FITNESS+ARCHITECT+INDIA.FRANCHISE/data=!4m5!3m4!1s0x395e85f8b4b3459b:0xb776b4c5c723fb93!8m2!3d23.0265907!4d72.5526936?authuser=0&hl=en&rclk=1,23.0265907,72.5526936,Gujarat,West 2
Brave Lion's Den MMA Fitness Gym,Fitness center,"Plot No-863,2nd Floor, Vishvkarma Shopping Center, Sector 21, Gandhinagar, Gujarat 382021, India",https://www.google.co.kr/maps/place/Brave+Lion's+Den+MMA+Fitness+Gym/data=!4m5!3m4!1s0x395c2b0b5a04ff0f:0x5c7d8e23a4b39093!8m2!3d23.233935!4d72.6678532?authuser=0&hl=en&rclk=1,23.233935,72.6678532,Gujarat,West 2
V4 FITNESS,Gym,"301, 401 UJJAM ENCLAVE, Zadeshwar Rd, opp. CHAMUNDA MATA TEMPLE, Bharuch, Gujarat 392011, India",https://www.google.co.kr/maps/place/V4+FITNESS/data=!4m5!3m4!1s0x3be0218821865133:0x32771b5340a76b8b!8m2!3d21.7168711!4d73.0274207?authuser=0&hl=en&rclk=1,21.7168711,73.0274207,Gujarat,West 2
Fit India Gym,Fitness center,"J 445-446, Siddharth Elegance Besides Roses Nursery, Guru Gobindsinhji Marg, Nizampura, Vadodara, Gujarat 390024, India",https://www.google.co.kr/maps/place/Fit+India+Gym/data=!4m5!3m4!1s0x395fc9c99b38d87b:0xe3c41aad2738bbcc!8m2!3d22.3383638!4d73.1741644?authuser=0&hl=en&rclk=1,22.3383638,73.1741644,Gujarat,West 2
Kiran's Fitness Studio,Fitness center,"B/211,Shantiniketan Business Centre, near Gangotri Circle, Nikol, Ahmedabad, Gujarat 382350, India",https://www.google.co.kr/maps/place/Kiran's+Fitness+Studio/data=!4m5!3m4!1s0x395e8693a6fdf5d5:0x6d4d73205fda1999!8m2!3d23.0454536!4d72.6696263?authuser=0&hl=en&rclk=1,23.0454536,72.6696263,Gujarat,West 2
Fitness Factory,Gym,"Nadiad-Khambhat Highway Rd, Police Quarters, Nagarkuva, Petlad, Gujarat 388450, India",https://www.google.co.kr/maps/place/Fitness+Factory/data=!4m5!3m4!1s0x395e537c161ea6eb:0x317534fb1af392e5!8m2!3d22.4827285!4d72.8087307?authuser=0&hl=en&rclk=1,22.4827285,72.8087307,Gujarat,West 2
Fitness Zone Gym,Gym,"4th Floor,jaymadi shanti smruti complex,Nr.India colony,opp.Litle wing school, Bopal - Ghuma Rd, Bopal, Ahmedabad, Gujarat 380058, India",https://www.google.co.kr/maps/place/Fitness+Zone+Gym/data=!4m5!3m4!1s0x395e9b81536096fd:0xcd96154d6a382172!8m2!3d23.033542!4d72.466158?authuser=0&hl=en&rclk=1,23.033542,72.466158,Gujarat,West 2
Life fitness,Gym,"Paldi Gaam, Paldi, Ahmedabad, Gujarat 380007, India",https://www.google.co.kr/maps/place/Life+fitness/data=!4m5!3m4!1s0x395e850c240824e9:0x7039d111fe03abad!8m2!3d23.011157!4d72.5630675?authuser=0&hl=en&rclk=1,23.011157,72.5630675,Gujarat,West 2
RAJPUTANA GYM & FITNESS ACADEMY,Fitness center,"VALLABH VIDHYA NAGAR, SILVER OAK COMPLEX, Nana Bazaar, Vallabh Vidyanagar, Gujarat 388120, India",https://www.google.co.kr/maps/place/RAJPUTANA+GYM+%26+FITNESS+ACADEMY/data=!4m5!3m4!1s0x395e4e72fdea7681:0xcd434dae0c011c95!8m2!3d22.5571288!4d72.9250348?authuser=0&hl=en&rclk=1,22.5571288,72.9250348,Gujarat,West 2
FITGENE,Fitness center,"309, 3rd floor, Ashirwad Paras Complex, Bh. Sales India Showroom, Prahlad Nagar, Ahmedabad, Gujarat 380015, India",https://www.google.co.kr/maps/place/FITGENE/data=!4m5!3m4!1s0x395e9b27bfa94863:0x7a7dc5be614eb9e!8m2!3d23.0107344!4d72.5070154?authuser=0&hl=en&rclk=1,23.0107344,72.5070154,Gujarat,West 2
FITNESS POINT GYM,Gym,"Town Hall Rd, Ketivadi, Vallabh Vidyanagar, Anand, Gujarat 388120, India",https://www.google.co.kr/maps/place/FITNESS+POINT+GYM/data=!4m5!3m4!1s0x395e4fb865f38df1:0x2d3684e987388d0f!8m2!3d22.5499429!4d72.9309218?authuser=0&hl=en&rclk=1,22.5499429,72.9309218,Gujarat,West 2
Kratus Fitness,Gym,"Gujarat State Highway 123, sardar chawk,Amarnagar Road, Jetpur, Gujarat 360370, India",https://www.google.co.kr/maps/place/Kratus+Fitness/data=!4m5!3m4!1s0x395819e4f4f894eb:0x6fcf25f2377eebb2!8m2!3d21.74536!4d70.614014?authuser=0&hl=en&rclk=1,21.74536,70.614014,Gujarat,West 2
SK Fitness Studio,Fitness center,"3rd Floor Chhatrala City Center, Kadodara, Gujarat 394327, India",https://www.google.co.kr/maps/place/SK+Fitness+Studio/data=!4m5!3m4!1s0x3be045b06ecf3339:0x5346732e1a1d2a30!8m2!3d21.1787567!4d72.9624596?authuser=0&hl=en&rclk=1,21.1787567,72.9624596,Gujarat,West 2
THE ROYAL FITNESS GYM Best gym for ahmedabad,Fitness center,"Atul Indian motors 3rd floor.,sakti engg BRTS WORKSHOP, Narol Rd, Ahmedabad, Gujarat 380028, India",https://www.google.co.kr/maps/place/THE+ROYAL+FITNESS+GYM+Best+gym+for+ahmedabad/data=!4m5!3m4!1s0x395e850a137bd2f1:0x326eaf46922f2ca6!8m2!3d22.9822722!4d72.5853576?authuser=0&hl=en&rclk=1,22.9822722,72.5853576,Gujarat,West 2
Akshar Fitness,Gymnasium Cz,"3 rd floor nana bazar, road, Vallabh Vidyanagar, Gujarat 388120, India",https://www.google.co.kr/maps/place/Akshar+Fitness/data=!4m5!3m4!1s0x395e4ff58ab4c7f5:0xc04d0555e432177!8m2!3d22.5533871!4d72.9288809?authuser=0&hl=en&rclk=1,22.5533871,72.9288809,Gujarat,West 2
Lion Fitness Gym,Gym,"Mahalaxmi Street Number 2, Salabatpura, Surat, Gujarat 395003, India",https://www.google.co.kr/maps/place/Lion+Fitness+Gym/data=!4m5!3m4!1s0x3be04f1f6cb245e3:0xc6da5e4d856ef668!8m2!3d21.1890574!4d72.8324294?authuser=0&hl=en&rclk=1,21.1890574,72.8324294,Gujarat,West 2
Ekdant Fitness Centre,Fitness center,"Gangotri Complex, 4th floor Garden Road, opp. Bus Stand, Godhra, Gujarat 389001, India",https://www.google.co.kr/maps/place/Ekdant+Fitness+Centre/data=!4m5!3m4!1s0x39609a460b0b9947:0xbc200cb33d52bbc4!8m2!3d22.7788349!4d73.6196095?authuser=0&hl=en&rclk=1,22.7788349,73.6196095,Gujarat,West 2
O2 Fitness Gym,Gym,"Ganesh Colony, Anand, Gujarat 388001, India",https://www.google.co.kr/maps/place/O2+Fitness+Gym/data=!4m5!3m4!1s0x395e4e81496eb8f5:0x7372803755eed6b8!8m2!3d22.5564956!4d72.9507357?authuser=0&hl=en&rclk=1,22.5564956,72.9507357,Gujarat,West 2
Fit India Gym Surat Branch,Gym,"Near, 406-408, 4th Floor, Platinum Plaza, Kathiyavadi, Un, Gujarat 394210, India",https://www.google.co.kr/maps/place/Fit+India+Gym+Surat+Branch/data=!4m5!3m4!1s0x3be0513b94476357:0x749d1f7fb2a6551b!8m2!3d21.1113547!4d72.8658006?authuser=0&hl=en&rclk=1,21.1113547,72.8658006,Gujarat,West 2
JOLVA FIRST FITNESS,Fitness center,"JOLVA GATE NO 1, Jolva, Gujarat 392130, India",https://www.google.co.kr/maps/place/JOLVA+FIRST+FITNESS/data=!4m5!3m4!1s0x395f7e4975eafa45:0x973c376a49d481e2!8m2!3d21.714738!4d72.655317?authuser=0&hl=en&rclk=1,21.714738,72.655317,Gujarat,West 2
Life Fitness,Gym,"Junagadh Rd, Shikshak Colony, Rayon Factory Area, Veraval, Gujarat 362265, India",https://www.google.co.kr/maps/place/Life+Fitness/data=!4m5!3m4!1s0x3bfd3235c69a20f9:0x6eb18b7a6c71d3a8!8m2!3d20.9192695!4d70.3578991?authuser=0&hl=en&rclk=1,20.9192695,70.3578991,Gujarat,West 2
Plus Fitness 24/7 Memnagar,Gym,"Level 1, Yash Aryan Building, 15, Memnagar Rd, Memnagar, Ahmedabad, Gujarat 380052, India",https://www.google.co.kr/maps/place/Plus+Fitness+24%2F7+Memnagar/data=!4m5!3m4!1s0x395e84a6ec1df4ed:0xc036e08798da709b!8m2!3d23.0521461!4d72.538237?authuser=0&hl=en&rclk=1,23.0521461,72.538237,Gujarat,West 2
FITNESS 2000 UDHNA DARWAJA,Gym,"HIRA BUILDING, NEAR UDHANA DARWAJA POLICE CHOWKI UDHANA DARWAJA, Ring Rd, Surat, Gujarat 395002, India",https://www.google.co.kr/maps/place/FITNESS+2000+UDHNA+DARWAJA/data=!4m5!3m4!1s0x3be04fb525c8d219:0x48f6a22f0ce1a06c!8m2!3d21.1837424!4d72.83024?authuser=0&hl=en&rclk=1,21.1837424,72.83024,Gujarat,West 2
LIFE FITNESS PRO,Gym,"Ghevar Complex, Shree Sindhivinayak Complex, Opp, Rahasya Society, Arihant Nagar, Shahibag, Ahmedabad, Gujarat 380003, India",https://www.google.co.kr/maps/place/LIFE+FITNESS+PRO/data=!4m5!3m4!1s0x395e85edadbc8bed:0xc96b5e7a1ff0540!8m2!3d23.0567164!4d72.5992364?authuser=0&hl=en&rclk=1,23.0567164,72.5992364,Gujarat,West 2
Yuj Complete Fitness Studio,Gym,"339X+CGQ, Ward 5, Adipur, Gandhidham, Gujarat 370205, India",https://www.google.co.kr/maps/place/Yuj+Complete+Fitness+Studio/data=!4m5!3m4!1s0x3950b9b2dad76415:0xffc43addf19c8b99!8m2!3d23.0685775!4d70.0988637?authuser=0&hl=en&rclk=1,23.0685775,70.0988637,Gujarat,West 2
Fitness Quest GYM ( Jarod),Gymnastics center,"Halol - Vadodara Rd, Jarod, Gujarat 391510, India",https://www.google.co.kr/maps/place/Fitness+Quest+GYM+(+Jarod)/data=!4m5!3m4!1s0x395fd3b3f841626d:0x451cbbd55d62fa03!8m2!3d22.4358489!4d73.3289817?authuser=0&hl=en&rclk=1,22.4358489,73.3289817,Gujarat,West 2
Life Fitness Gym - Paldi,Gym,"101, Scarlet business hub, opp. Aankur high school, near Paldi, Bhatta, Paldi, Ahmedabad, Gujarat 380007, India",https://www.google.co.kr/maps/place/Life+Fitness+Gym+-+Paldi/data=!4m5!3m4!1s0x395e850440022b0d:0x1d659d0b7d7649c!8m2!3d23.0080478!4d72.5603754?authuser=0&hl=en&rclk=1,23.0080478,72.5603754,Gujarat,West 2
national gym,Gymnasium Cz,"Jay Prakash Narayan Marg, Vesu, Surat, Gujarat 395007, India",https://www.google.co.kr/maps/place/national+gym/data=!4m5!3m4!1s0x3be0520af7e8b147:0xb1b200346f860665!8m2!3d21.1427998!4d72.7873484?authuser=0&hl=en&rclk=1,21.1427998,72.7873484,Gujarat,West 2
NEW LIFE FITNESS GYM,Gym,"H.P ges Godaun, T2-T3 veon plaza palan pur jakat naka opp shanidev mandir Adajan surat Palanpur Road, Ugat Rd, Surat, Gujarat 395009, India",https://www.google.co.kr/maps/place/NEW+LIFE+FITNESS+GYM/data=!4m5!3m4!1s0x3be04d8d7f35c103:0x362c1d7a4d0bc270!8m2!3d21.210839!4d72.7820555?authuser=0&hl=en&rclk=1,21.210839,72.7820555,Gujarat,West 2
Vraj Fitness Gym,Gym,"Pethapur Village Rd, Pethapur, Gandhinagar, Gujarat 382041, India",https://www.google.co.kr/maps/place/Vraj+Fitness+Gym/data=!4m5!3m4!1s0x395c2c8667358ee9:0xd81adb5e38596f24!8m2!3d23.2667064!4d72.6671302?authuser=0&hl=en&rclk=1,23.2667064,72.6671302,Gujarat,West 2
Evolution Fitness Studio,Gym,"4, Anjar - Adipur - Gandhidham Rd, Chitrakut Society 2, Vir Bhaghat Singh Nagar, Anjar, Gujarat 370110, India",https://www.google.co.kr/maps/place/Evolution+Fitness+Studio/data=!4m5!3m4!1s0x3950c7439895b2cf:0x3922f1802e6dfa59!8m2!3d23.1009391!4d70.0349507?authuser=0&hl=en&rclk=1,23.1009391,70.0349507,Gujarat,West 2
Mega Fitness Gym,Gym,"Raiya Rd, opposite Aalap Green City, Rameshvar Park, Indian Park, Rajkot, Gujarat 360005, India",https://www.google.co.kr/maps/place/Mega+Fitness+Gym/data=!4m5!3m4!1s0x3959c97e828616b5:0x9ed591de09b1db62!8m2!3d22.3011477!4d70.7585186?authuser=0&hl=en&rclk=1,22.3011477,70.7585186,Gujarat,West 2
The Muscular Fitness GYM,Gym,"Mankuva-Kodki Rd, Mankuwa, Gujarat 370030, India",https://www.google.co.kr/maps/place/The+Muscular+Fitness+GYM/data=!4m5!3m4!1s0x39511931244fc2a3:0x432254f1b7351758!8m2!3d23.209639!4d69.565363?authuser=0&hl=en&rclk=1,23.209639,69.565363,Gujarat,West 2
Shape Up Fitness,Gym,"Ananta Samruddhi,Ajwaroad, near NH-8, Vadodara, Gujarat 390019, India",https://www.google.co.kr/maps/place/Shape+Up+Fitness/data=!4m5!3m4!1s0x395fcf44f72d5697:0xfc86a3d6c365f9a7!8m2!3d22.32583!4d73.2581693?authuser=0&hl=en&rclk=1,22.32583,73.2581693,Gujarat,West 2
Refresh Fitness Center,Gym,"Joshipura Market Rd, Joshipura, Junagadh, Gujarat 362001, India",https://www.google.co.kr/maps/place/Refresh+Fitness+Center/data=!4m5!3m4!1s0x3958021f950efb95:0x7dd9df7131ca5547!8m2!3d21.5306407!4d70.4537307?authuser=0&hl=en&rclk=1,21.5306407,70.4537307,Gujarat,West 2
The Empire Fitness Zone,Gym,"Thakkarbapa Nagar Rd, Thakkarbapanagar, India Colony, Ahmedabad, Gujarat 382345, India",https://www.google.co.kr/maps/place/The+Empire+Fitness+Zone/data=!4m5!3m4!1s0x395e87981eaec4c1:0x5774c4ef461fefb1!8m2!3d23.039265!4d72.6399745?authuser=0&hl=en&rclk=1,23.039265,72.6399745,Gujarat,West 2
"Fitness Track Gym ( Best Gym & Fitness Center In Waghodia Road , Vadodara )",Gym,"5th Floor, Nathdwara Avenue, Opp. Rukashmani Party Plot Nr. Parivar Cross road, Dabhoi - Waghodia Ring Rd, Waghodia, Vadodara, Gujarat 390025, India","https://www.google.co.kr/maps/place/Fitness+Track+Gym+(+Best+Gym+%26+Fitness+Center+In+Waghodia+Road+,+Vadodara+)/data=!4m5!3m4!1s0x395fc570d5c3818f:0x4cf70f67a92bfc4d!8m2!3d22.290076!4d73.2355406?authuser=0&hl=en&rclk=1",22.290076,73.2355406,Gujarat,West 2
Perfect Fitness Gym,Gym,"Jetpur Rd, Hirpara Wadi, Dhoraji, Gujarat 360410, India",https://www.google.co.kr/maps/place/Perfect+Fitness+Gym/data=!4m5!3m4!1s0x39581fbda79f9bbf:0xa3dac97582feba02!8m2!3d21.7338401!4d70.4503002?authuser=0&hl=en&rclk=1,21.7338401,70.4503002,Gujarat,West 2
Swas Gym,Gym,"1st floor ,Indira nivas, Pratap Rd, above bank of baroda, Dandia Bazar, Vadodara, Gujarat 390001, India",https://www.google.co.kr/maps/place/Swas+Gym/data=!4m5!3m4!1s0x395fcf58ae10306d:0x73cb097406433cec!8m2!3d22.3013516!4d73.1993594?authuser=0&hl=en&rclk=1,22.3013516,73.1993594,Gujarat,West 2
Vibe The Fitness Studio,Gym,"Bodakdev, Ahmedabad, Gujarat 380054, India",https://www.google.co.kr/maps/place/Vibe+The+Fitness+Studio/data=!4m5!3m4!1s0x395e9b459bf64199:0xa7badc6323b9b0d6!8m2!3d23.0405947!4d72.507763?authuser=0&hl=en&rclk=1,23.0405947,72.507763,Gujarat,West 2
Jason Fitness,Gym,"Jason Fitness, 2nd floor, Baroi Rd, Mahavir Nagar, Mundra, Gujarat 370421, India",https://www.google.co.kr/maps/place/Jason+Fitness/data=!4m5!3m4!1s0x3950d5aa73307d77:0x6115fcd71311860c!8m2!3d22.8421094!4d69.7333223?authuser=0&hl=en&rclk=1,22.8421094,69.7333223,Gujarat,West 2
PATEL GYM & FITNESS CENTER,Gym,"101, Avadh Complex Panchavati Rd, Near Patel Bhel, Amin Marg, above Rameshwar Drug House, Corner, Sirvar Park, Kotecha Nagar, Rajkot, Gujarat 360001, India",https://www.google.co.kr/maps/place/PATEL+GYM+%26+FITNESS+CENTER/data=!4m5!3m4!1s0x3959cb1121853fbf:0xc0487a1488d903c8!8m2!3d22.2885599!4d70.7822981?authuser=0&hl=en&rclk=1,22.2885599,70.7822981,Gujarat,West 2
VR Fitness Gym,Gym,"5JX5+P22, Gandhinagar, Gujarat 382423, India",https://www.google.co.kr/maps/place/VR+Fitness+Gym/data=!4m5!3m4!1s0x395c29838bac095b:0x8e82ee82710c1d14!8m2!3d23.199252!4d72.6075157?authuser=0&hl=en&rclk=1,23.199252,72.6075157,Gujarat,West 2
Vaja Fitness,Gym,"3rd Floor, Omkar Complex, above the Kalupur bank, Opp. Bus-stand, Rd, 390019, Waghodia, Vadodara, Gujarat 390019, India",https://www.google.co.kr/maps/place/Vaja+Fitness/data=!4m5!3m4!1s0x395fc57eedbd646f:0x43d236f6720fe537!8m2!3d22.3006165!4d73.2335398?authuser=0&hl=en&rclk=1,22.3006165,73.2335398,Gujarat,West 2
FITNESS FUEL GYM,Gym,"2ND FLOOR, Shreeji Complex, Gurukul Rd, OPP. SWAMINARAYAN TEMPLE, Nilmani Society, Memnagar, Ahmedabad, Gujarat 380052, India",https://www.google.co.kr/maps/place/FITNESS+FUEL+GYM/data=!4m5!3m4!1s0x395e84bab31bffff:0x267e9b43545350dd!8m2!3d23.0467191!4d72.5332239?authuser=0&hl=en&rclk=1,23.0467191,72.5332239,Gujarat,West 2
OMG Ginmasio,Gym,"4th-5th floor, H. R. Stone, Anand - Vidyanagar Rd, opp. Mazda bakery, Anand, Gujarat 388001, India",https://www.google.co.kr/maps/place/OMG+Ginmasio/data=!4m5!3m4!1s0x395e4fc007a59363:0x7fe5df146886d208!8m2!3d22.5540999!4d72.9484992?authuser=0&hl=en&rclk=1,22.5540999,72.9484992,Gujarat,West 2
Powermax fitness,Gym,"Shop 147, First floor, Ambika Complex, Nr, 150 Feet Ring Rd, Near Raiya Chowkdi, Rajkot, 360007, India",https://www.google.co.kr/maps/place/Powermax+fitness/data=!4m5!3m4!1s0x3959c97dd38d142f:0xaf49d2ed37b559d0!8m2!3d22.3012465!4d70.7681495?authuser=0&hl=en&rclk=1,22.3012465,70.7681495,Gujarat,West 2
SFW The GYM | Best Gym in Kalol,Gym,"4th flr City Mall 2, Navjivan Mill Compound, Kalol, Gujarat 382721, India",https://www.google.co.kr/maps/place/SFW+The+GYM+%7C+Best+Gym+in+Kalol/data=!4m5!3m4!1s0x395c256c37d933c9:0xe9264f1982b75ccc!8m2!3d23.2413672!4d72.5031533?authuser=0&hl=en&rclk=1,23.2413672,72.5031533,Gujarat,West 2
Mother Fitness Care,Gym,"3G2M+PH9, Memnagar, Ahmedabad, Gujarat 380052, India",https://www.google.co.kr/maps/place/Mother+Fitness+Care/data=!4m5!3m4!1s0x395e84a5dd2a8dc5:0x2bcdc18f8867131!8m2!3d23.051789!4d72.533973?authuser=0&hl=en&rclk=1,23.051789,72.533973,Gujarat,West 2
"Fitness Track Gym ( Best Gym & Fitness Center In Tarsali , Vadodara )",Gym,"3rd & 4th Floor, Pancham Avenue,Beside Essar Petrol Pump, Sussen, Susen - Tarsali Ring Rd, Vadodara, Gujarat 390009, India","https://www.google.co.kr/maps/place/Fitness+Track+Gym+(+Best+Gym+%26+Fitness+Center+In+Tarsali+,+Vadodara+)/data=!4m5!3m4!1s0x395fc5b51588ab19:0xe829cae97a624f09!8m2!3d22.256778!4d73.207461?authuser=0&hl=en&rclk=1",22.256778,73.207461,Gujarat,West 2
SV GYM AND FITNESS CENTER,Fitness center,"opp. JIO OFFICE, Rakhiyal, Gujarat 382315, India",https://www.google.co.kr/maps/place/SV+GYM+AND+FITNESS+CENTER/data=!4m5!3m4!1s0x395dd73188d67003:0x87b6dd4150d0a80d!8m2!3d23.2515953!4d72.8982553?authuser=0&hl=en&rclk=1,23.2515953,72.8982553,Gujarat,West 2
Sardar Patel Municipalty Gym,Gym,"2HR7+2R2, Navrangpura, Ahmedabad, Gujarat 380014, India",https://www.google.co.kr/maps/place/Sardar+Patel+Municipalty+Gym/data=!4m5!3m4!1s0x395e848b1f55226f:0xcbf911234b2793c2!8m2!3d23.0400214!4d72.5645175?authuser=0&hl=en&rclk=1,23.0400214,72.5645175,Gujarat,West 2
Payback GYM Defining Fitness,Gym,"Dwarkesh Complex, bus stop, 1st floor, nr. Shivam Park, Bhuj, Gujarat 370020, India",https://www.google.co.kr/maps/place/Payback+GYM+Defining+Fitness/data=!4m5!3m4!1s0x3950e1942fcf0de5:0xef53af606f1e6a03!8m2!3d23.2339162!4d69.6974896?authuser=0&hl=en&rclk=1,23.2339162,69.6974896,Gujarat,West 2
Central Fitness Gym,Gym,"15,1st floor, himalaya heights, b/sbachpan school, 100 Feet Rd, Anand, Gujarat 388001, India",https://www.google.co.kr/maps/place/Central+Fitness+Gym/data=!4m5!3m4!1s0x395e4e8628616c61:0x1da2c9d932c2278!8m2!3d22.562518!4d72.9498343?authuser=0&hl=en&rclk=1,22.562518,72.9498343,Gujarat,West 2
Vo2 + Fitness,Gym,"A-318, 3rd Floor, Sakar-7, Nehru Bridge, Corner, Ashram Rd, Ahmedabad, Gujarat 380009, India",https://www.google.co.kr/maps/place/Vo2+%2B+Fitness/data=!4m5!3m4!1s0x395e852f62103e45:0xd8cf8fe428afd59b!8m2!3d23.0272137!4d72.5717318?authuser=0&hl=en&rclk=1,23.0272137,72.5717318,Gujarat,West 2
The Black Stallion Gym,Gym,"Bhammar St, Qadri Mohalla, Brahmpuri, Kodinar, Gujarat 362720, India",https://www.google.co.kr/maps/place/The+Black+Stallion+Gym/data=!4m5!3m4!1s0x3be2d9484339fe71:0xfc31ba5088a4ff15!8m2!3d20.7941621!4d70.7021338?authuser=0&hl=en&rclk=1,20.7941621,70.7021338,Gujarat,West 2
Muscle villa gym,Gym,"Ranjit Rd, opp. Bank Of India, Rajgorfali-2, Panchasar, Kadiawad, Jamnagar, Gujarat 361001, India",https://www.google.co.kr/maps/place/Muscle+villa+gym/data=!4m5!3m4!1s0x39576b9d2a04dcd3:0xe20ea0af141d9570!8m2!3d22.4679968!4d70.0761729?authuser=0&hl=en&rclk=1,22.4679968,70.0761729,Gujarat,West 2
Gladiator gym and fitness,Gym,"A/12 swarthak appt Ellorapark oppt Domino's, beside royal Enfield showroom, Vadodara, Gujarat 390007, India",https://www.google.co.kr/maps/place/Gladiator+gym+and+fitness/data=!4m5!3m4!1s0x395fc91d3f25d6cf:0x60b7b5443bafa060!8m2!3d22.3162337!4d73.1600748?authuser=0&hl=en&rclk=1,22.3162337,73.1600748,Gujarat,West 2
Aton Total Fitness Gym,Gym,"B/S Gajanan Hights, Nr, Darbar Chokdi, Manjalpur, Vadodara, Gujarat 390011, India",https://www.google.co.kr/maps/place/Aton+Total+Fitness+Gym/data=!4m5!3m4!1s0x395fc6751210718b:0xee59abf8b394cc0d!8m2!3d22.2736298!4d73.1802197?authuser=0&hl=en&rclk=1,22.2736298,73.1802197,Gujarat,West 2
Ayu Fitness Center,Gym,"Jamnagar,, Nandanvan Society, Jamnagar, Gujarat 361005, India",https://www.google.co.kr/maps/place/Ayu+Fitness+Center/data=!4m5!3m4!1s0x39576adbc471b44b:0x55ea93189d10324f!8m2!3d22.4461245!4d70.0662769?authuser=0&hl=en&rclk=1,22.4461245,70.0662769,Gujarat,West 2
R Fitness,Gym,"Sadguru Tirthdham, near street no 5,nehru nagar main road, Raiya Rd, Rajkot, Gujarat 360007, India",https://www.google.co.kr/maps/place/R+Fitness/data=!4m5!3m4!1s0x3959cbc16182ef39:0xe1b0221d6bc40f72!8m2!3d22.2996431!4d70.78008?authuser=0&hl=en&rclk=1,22.2996431,70.78008,Gujarat,West 2
S F Fitness,Gym,"Shop No.201, 2nd floor, Gold Star Complex, Opp Dr. Anjana Tandel, Shroff Building, Taiwad, Road, Nani Khatriwad, Valsad, Gujarat 396001, India",https://www.google.co.kr/maps/place/S+F+Fitness/data=!4m5!3m4!1s0x3be0e982076ee8c3:0xb92fd3c873d04216!8m2!3d20.6128682!4d72.9275802?authuser=0&hl=en&rclk=1,20.6128682,72.9275802,Gujarat,West 2
FITNESS ARCHITECT GURUKUL,Gym,"07'th Floor Pushti Heights, Gurukul Rd, opp. Shivam Snacks, Ahmedabad, Gujarat 380052, India",https://www.google.co.kr/maps/place/FITNESS+ARCHITECT+GURUKUL/data=!4m5!3m4!1s0x395e8534b2133eed:0x5466c2f771cd46c5!8m2!3d23.0500004!4d72.5334677?authuser=0&hl=en&rclk=1,23.0500004,72.5334677,Gujarat,West 2
Concept 1 Gym & Fitness,Gym,"1st Floor, Dream Iconia, Near Eva Mall, Vrajdham Mandir Road, Manjalpur, Vadodara, Gujarat 390011, India",https://www.google.co.kr/maps/place/Concept+1+Gym+%26+Fitness/data=!4m5!3m4!1s0x395fc5e0bb3ac77f:0xf910c4f5e5bac72c!8m2!3d22.2721652!4d73.1874435?authuser=0&hl=en&rclk=1,22.2721652,73.1874435,Gujarat,West 2
Zed fitness studio,Gym,"Bhat, Ahmedabad, Gujarat 382428, India",https://www.google.co.kr/maps/place/Zed+fitness+studio/data=!4m5!3m4!1s0x395e81ae19274bcd:0x316c32327ef47291!8m2!3d23.1160911!4d72.6324006?authuser=0&hl=en&rclk=1,23.1160911,72.6324006,Gujarat,West 2
4 Fitness The Gym,Fitness center,"B401 Swagat Rainforest 2, Gujarat 382421, India",https://www.google.co.kr/maps/place/4+Fitness+The+Gym/data=!4m5!3m4!1s0x395c2b4860240189:0x9302c324ada6463b!8m2!3d23.1818272!4d72.6371699?authuser=0&hl=en&rclk=1,23.1818272,72.6371699,Gujarat,West 2
Power of One Fitness Gym,Gym,"Vimawala Arcade, 3rd Floor, Anand-Vidyanagar Road., near Big Bazar, Anand, Gujarat 388001, India",https://www.google.co.kr/maps/place/Power+of+One+Fitness+Gym/data=!4m5!3m4!1s0x395e4e7fa58ac75b:0xfe05277cd7054958!8m2!3d22.5525053!4d72.9437028?authuser=0&hl=en&rclk=1,22.5525053,72.9437028,Gujarat,West 2
Focus The Gym,Gym,"3rd floor, hariom arcade, s.v school road nr jakatnaka, Kadi, 382715, India",https://www.google.co.kr/maps/place/Focus+The+Gym/data=!4m5!3m4!1s0x395c199e3eb12279:0xf2dccf7ce41966b9!8m2!3d23.2863149!4d72.3267727?authuser=0&hl=en&rclk=1,23.2863149,72.3267727,Gujarat,West 2
"Fitness Track Gym ( Best Gym & Fitness Center In Vasna - Bhayli , Vadodara )",Gym,"5th floor, shyamal sapphire, Opp. chocolate room, Nr.Nilamber Circle,, Vasna- 30 Mtr.road, Vasana, Gotri, Vadodara, Gujarat 390007, India","https://www.google.co.kr/maps/place/Fitness+Track+Gym+(+Best+Gym+%26+Fitness+Center+In+Vasna+-+Bhayli+,+Vadodara+)/data=!4m5!3m4!1s0x395fc87e18aba31d:0xe3b303a0258c591!8m2!3d22.298519!4d73.139633?authuser=0&hl=en&rclk=1",22.298519,73.139633,Gujarat,West 2
Body Tone Fitness Studio,Fitness center,"FF 17,18 & 19 Wing C, Siddharth Excellance, Vasna Rd, opposite D Mart, Vadodara, Gujarat 390007, India",https://www.google.co.kr/maps/place/Body+Tone+Fitness+Studio/data=!4m5!3m4!1s0x395fc620bf0febeb:0xcfaf216e23daafb2!8m2!3d22.2950519!4d73.1529539?authuser=0&hl=en&rclk=1,22.2950519,73.1529539,Gujarat,West 2
The Get Fit Gym,Gym,"Vatsalya Vatika, Bill Rd, Atladara, Vadodara, Gujarat 391410, India",https://www.google.co.kr/maps/place/The+Get+Fit+Gym/data=!4m5!3m4!1s0x395fc787de491ee5:0x3beeaaac37dc57fe!8m2!3d22.2630661!4d73.1471946?authuser=0&hl=en&rclk=1,22.2630661,73.1471946,Gujarat,West 2
Two Zero Fitness Studio(F2O),Gym,"Himalaya Arcade 207-A, opp. Vastrapur Lake, Vastrapur, Ahmedabad, Gujarat 380015, India",https://www.google.co.kr/maps/place/Two+Zero+Fitness+Studio(F2O)/data=!4m5!3m4!1s0x395e857dc44a81a3:0xb728d667ac7402a2!8m2!3d23.0371016!4d72.5292458?authuser=0&hl=en&rclk=1,23.0371016,72.5292458,Gujarat,West 2
M.R.GYM,Gym,"M R Gym,Adarsh Towen,chalthan National Highway 48 surat, Chalthan, Gujarat 394305, India",https://www.google.co.kr/maps/place/M.R.GYM/data=!4m5!3m4!1s0x3be05b3ea89dfbab:0xcd79279882d704f!8m2!3d21.1497568!4d72.9641182?authuser=0&hl=en&rclk=1,21.1497568,72.9641182,Gujarat,West 2
"Fitness Track Gym ( Best Gym & Fitness Center In Sama , Vadodara )",Gym,"1st Floor, Vismay Complex, Near GIPCL Circle, Chanakyapuri Rd, Raghuvir Nagar, Vadodara, Gujarat 390008, India","https://www.google.co.kr/maps/place/Fitness+Track+Gym+(+Best+Gym+%26+Fitness+Center+In+Sama+,+Vadodara+)/data=!4m5!3m4!1s0x395fcf2f9dd8c75d:0x28c1ad60019b09b4!8m2!3d22.3373883!4d73.1927789?authuser=0&hl=en&rclk=1",22.3373883,73.1927789,Gujarat,West 2
Prevention Fitness,Gym,"Near, 4th Floor, Krishna Icon, Town Hall Rd, Vivekanand Wadi, Anand, Gujarat 388001, India",https://www.google.co.kr/maps/place/Prevention+Fitness/data=!4m5!3m4!1s0x395e4e81a707c47b:0xc17f212cec7def56!8m2!3d22.553939!4d72.949925?authuser=0&hl=en&rclk=1,22.553939,72.949925,Gujarat,West 2
Varsha's Fitness Studio,Gymnastics center,"X-40, Airport Rd, Sardarnagar, Hansol, Ahmedabad, Gujarat 382475, India",https://www.google.co.kr/maps/place/Varsha's+Fitness+Studio/data=!4m5!3m4!1s0x395e815976c6e48f:0x3b6e1f1bb2cc8181!8m2!3d23.0826934!4d72.6200272?authuser=0&hl=en&rclk=1,23.0826934,72.6200272,Gujarat,West 2
YouFITGYM Palanpur,Gym,"Second Floor, Rudra Arcade Aroma Circle Deesa, Highway, Palanpur, Gujarat 385001, India",https://www.google.co.kr/maps/place/YouFITGYM+Palanpur/data=!4m5!3m4!1s0x395cebd93d5ef17f:0x8b976e87059bd3a3!8m2!3d24.1751864!4d72.4155414?authuser=0&hl=en&rclk=1,24.1751864,72.4155414,Gujarat,West 2
Silverback gym (Fight for fitness),Gym,"Vrundavan Arcade, 4th, Station Rd, Patan, Gujarat 384265, India",https://www.google.co.kr/maps/place/Silverback+gym+(Fight+for+fitness)/data=!4m5!3m4!1s0x395c871f91d42409:0xb81e8e2be285ad62!8m2!3d23.8525369!4d72.1281671?authuser=0&hl=en&rclk=1,23.8525369,72.1281671,Gujarat,West 2
Fitness Hunger,Gym,"opposite shaligram Plus, Thaltej, Ahmedabad, Gujarat 380059, India",https://www.google.co.kr/maps/place/Fitness+Hunger/data=!4m5!3m4!1s0x395e9b5955237c5b:0xc84f053494abbaf1!8m2!3d23.0474564!4d72.503597?authuser=0&hl=en&rclk=1,23.0474564,72.503597,Gujarat,West 2
Deep fitness gym,Gym,"PXCM+94H, GACL Colony, Bharuch, Gujarat 392001, India",https://www.google.co.kr/maps/place/Deep+fitness+gym/data=!4m5!3m4!1s0x3be027579f3770ff:0xacc5fe0cb19aa5!8m2!3d21.7209498!4d72.982858?authuser=0&hl=en&rclk=1,21.7209498,72.982858,Gujarat,West 2
Golden fitness,Gym,"Raj Plaza, Gurukul Rd, Memnagar, Ahmedabad, Gujarat 380052, India",https://www.google.co.kr/maps/place/Golden+fitness/data=!4m5!3m4!1s0x395e85346593a8ff:0xbda27e19ebb06d0b!8m2!3d23.0509404!4d72.5339083?authuser=0&hl=en&rclk=1,23.0509404,72.5339083,Gujarat,West 2
3FitnessTheGym,Fitness center,"3rd Floor, Dandev Complex, Swaminarayan Marg, Rajula, Gujarat 365560, India",https://www.google.co.kr/maps/place/3FitnessTheGym/data=!4m5!3m4!1s0x3be2453d8b445a63:0x748ab700bf35c76b!8m2!3d21.0324233!4d71.4506425?authuser=0&hl=en&rclk=1,21.0324233,71.4506425,Gujarat,West 2
CFS Gym,Gym,"Silicon Shoppers, 2nd floor, S Zone Rd, Chandanvan Society, Udhana Village, Udhna, Surat, Gujarat 396210, India",https://www.google.co.kr/maps/place/CFS+Gym/data=!4m5!3m4!1s0x3be04fcad5c72c45:0xfc8c653058b4a2c0!8m2!3d21.1726143!4d72.8383091?authuser=0&hl=en&rclk=1,21.1726143,72.8383091,Gujarat,West 2
Fitness 5,Gym,"Near, Karuna nidhan University main Road, Kotecha Cir, Rajkot, Gujarat 360005, India",https://www.google.co.kr/maps/place/Fitness+5/data=!4m5!3m4!1s0x3959ca256cd1467f:0x12cad708c1b6605e!8m2!3d22.290622!4d70.777776?authuser=0&hl=en&rclk=1,22.290622,70.777776,Gujarat,West 2
My fitness gym,Gym,"Pethapur, Gandhinagar, Gujarat 382610, India",https://www.google.co.kr/maps/place/My+fitness+gym/data=!4m5!3m4!1s0x395c2dc4d265c90b:0x33fb36c90ee3c5a0!8m2!3d23.2660276!4d72.6694009?authuser=0&hl=en&rclk=1,23.2660276,72.6694009,Gujarat,West 2
Slimline Fitness Private Limited,Fitness center,"6, Sunrise Park, Opposite Advait Complex, Near Sandesh Press, Vastrapur, Sunrise Park, Ahmedabad, Gujarat 380054, India",https://www.google.co.kr/maps/place/Slimline+Fitness+Private+Limited/data=!4m5!3m4!1s0x395e84b1a6aaaaab:0x1c5db20dbe6c448c!8m2!3d23.0435875!4d72.5281777?authuser=0&hl=en&rclk=1,23.0435875,72.5281777,Gujarat,West 2
Neha's Fitness Studio & Online Training,Gym,"201/202, K-158, Sindhu Bhavan Road, Opp Bajrang Supermarket, Abv ICICI Bank, Bodakdev, Ahmedabad, Gujarat 380054, India",https://www.google.co.kr/maps/place/Neha's+Fitness+Studio+%26+Online+Training/data=!4m5!3m4!1s0x395e84d650f214ed:0x845b24d7528382ba!8m2!3d23.040437!4d72.504512?authuser=0&hl=en&rclk=1,23.040437,72.504512,Gujarat,West 2
Fitness Zone Gym,Gym,"NH 27, Anand Nagar, Morbi, Gujarat 363641, India",https://www.google.co.kr/maps/place/Fitness+Zone+Gym/data=!4m5!3m4!1s0x39598d27f7068f9b:0xbec29db0f26b055f!8m2!3d22.82163!4d70.8604703?authuser=0&hl=en&rclk=1,22.82163,70.8604703,Gujarat,West 2
The Fitness Factory Gym,Fitness center,"Jalaram-4, University Road, Panchayat Chowk, Rajkot, Gujarat 360005, India",https://www.google.co.kr/maps/place/The+Fitness+Factory+Gym/data=!4m5!3m4!1s0x3959cbd290e88e33:0xf44a3729866f7e06!8m2!3d22.2885178!4d70.7669328?authuser=0&hl=en&rclk=1,22.2885178,70.7669328,Gujarat,West 2
Hello fitness magazine,Fitness center,"Sargam Shopping Center, Somanath Society, Umra Gam, Athwa, Surat, Gujarat 395007, India",https://www.google.co.kr/maps/place/Hello+fitness+magazine/data=!4m5!3m4!1s0x3be04dbf74607cbf:0x7591289a839a7aac!8m2!3d21.1721507!4d72.789922?authuser=0&hl=en&rclk=1,21.1721507,72.789922,Gujarat,West 2
Anand Fitness Centre,Gym,"52R5+WRP, Bhildi, Gujarat 385530, India",https://www.google.co.kr/maps/place/Anand+Fitness+Centre/data=!4m5!3m4!1s0x395ca184fefcfff5:0xdd6f37f6689d0664!8m2!3d24.1923424!4d72.0095883?authuser=0&hl=en&rclk=1,24.1923424,72.0095883,Gujarat,West 2
Pahelvaan.com Gym and Fitness,Gym,"1st floor,, 187-188, Ved Transcube Plaza, Central Bus station, Sayajigunj, Vadodara, Gujarat 390020, India",https://www.google.co.kr/maps/place/Pahelvaan.com+Gym+and+Fitness/data=!4m5!3m4!1s0x395fc8b32baadb41:0xb05ce01f881671ca!8m2!3d22.313479!4d73.181969?authuser=0&hl=en&rclk=1,22.313479,73.181969,Gujarat,West 2
Bijli Fitness Gym,Gym,"Maruti Palace, 4th Floor, Dandi Rd, Eru Char Rasta, Navsari, Gujarat 396450, India",https://www.google.co.kr/maps/place/Bijli+Fitness+Gym/data=!4m5!3m4!1s0x3be0f7a685f08891:0x7af311b286f0cf08!8m2!3d20.9217664!4d72.9078227?authuser=0&hl=en&rclk=1,20.9217664,72.9078227,Gujarat,West 2
Life Fitness Gym,Gym,"GJ SH 6, Gujarat 392012, India",https://www.google.co.kr/maps/place/Life+Fitness+Gym/data=!4m5!3m4!1s0x395f8731b7bc9c83:0xd2a2016b0a69db78!8m2!3d21.7105248!4d72.8493541?authuser=0&hl=en&rclk=1,21.7105248,72.8493541,Gujarat,West 2
GYM TOWN,Gym,"Opp. Mahalaxmi heights, 80 Feet Rd, near amusement park, Jamnagar, Gujarat, India",https://www.google.co.kr/maps/place/GYM+TOWN/data=!4m5!3m4!1s0x39571562927966d9:0x751eda042c9c539c!8m2!3d22.4736293!4d70.0456074?authuser=0&hl=en&rclk=1,22.4736293,70.0456074,Gujarat,West 2
"B Star Gym, Anand",Gym,"4th-5th floor, H. R. Stone, Anand - Vidyanagar Rd, opp. Mazda bakery, Anand, Gujarat 388001, India","https://www.google.co.kr/maps/place/B+Star+Gym,+Anand/data=!4m5!3m4!1s0x395e4f822bd3ea57:0x458b5031c17f50f9!8m2!3d22.5540801!4d72.9484282?authuser=0&hl=en&rclk=1",22.5540801,72.9484282,Gujarat,West 2
Fitness empire,Gym,"A - 201, shaligram Lakeview, Ahmedabad, Gujarat 382421, India",https://www.google.co.kr/maps/place/Fitness+empire/data=!4m5!3m4!1s0x395e8396eaae2743:0xcaa07fe8abe0d268!8m2!3d23.1358255!4d72.5496191?authuser=0&hl=en&rclk=1,23.1358255,72.5496191,Gujarat,West 2
Fitness,Gym,"Fitness centre, Dabhoda, Gujarat 384325, India",https://www.google.co.kr/maps/place/Fitness/data=!4m5!3m4!1s0x395cffdf1baa8e3b:0xc04135d663af1f8c!8m2!3d23.9447107!4d72.6976812?authuser=0&hl=en&rclk=1,23.9447107,72.6976812,Gujarat,West 2
SUNNY FITNESS,Gym,"18 Vivekanand Society, Ved Rd, Katargam, Surat, Gujarat 395004, India",https://www.google.co.kr/maps/place/SUNNY+FITNESS/data=!4m5!3m4!1s0x3be04eb74a296ff1:0xf8c5d0de0208bd7f!8m2!3d21.2349795!4d72.8223201?authuser=0&hl=en&rclk=1,21.2349795,72.8223201,Gujarat,West 2
પાન માવા સેન્ટર,Gym,"Modhuka road, Vinchhiya - Modhuka - Gadhada Rd, Vinchhiya, Gujarat 360055, India",https://www.google.co.kr/maps/place/%E0%AA%AA%E0%AA%BE%E0%AA%A8+%E0%AA%AE%E0%AA%BE%E0%AA%B5%E0%AA%BE+%E0%AA%B8%E0%AB%87%E0%AA%A8%E0%AB%8D%E0%AA%9F%E0%AA%B0/data=!4m5!3m4!1s0x3958fde4994145e5:0xf52a61efb901dade!8m2!3d22.2081543!4d71.3804373?authuser=0&hl=en&rclk=1,22.2081543,71.3804373,Gujarat,West 2
Noble fitness,Gym,"Vallabh Vidyanagar, Anand, Gujarat 388120, India",https://www.google.co.kr/maps/place/Noble+fitness/data=!4m5!3m4!1s0x395e4dd93b047249:0x7acb211d80ae5ce0!8m2!3d22.545045!4d72.9292873?authuser=0&hl=en&rclk=1,22.545045,72.9292873,Gujarat,West 2
Ten11 fitness lounge,Fitness center,"Om orbit mall, Shaktinagar, Adani Power Rd, Mundra, Gujarat 370421, India",https://www.google.co.kr/maps/place/Ten11+fitness+lounge/data=!4m5!3m4!1s0x3950d57e62bad4d3:0x7e833cf13ad25af9!8m2!3d22.8390191!4d69.7053584?authuser=0&hl=en&rclk=1,22.8390191,69.7053584,Gujarat,West 2
Rainbow Fitness Centre,Gym,"Swastik society, Near Viral Bag,, Opp.Pratap palace,, Shantivan Apartment., Park colony., Jamnagar, Gujarat 361008, India",https://www.google.co.kr/maps/place/Rainbow+Fitness+Centre/data=!4m5!3m4!1s0x39576aa949671cd3:0xd5f6c155ce193752!8m2!3d22.478735!4d70.0575922?authuser=0&hl=en&rclk=1,22.478735,70.0575922,Gujarat,West 2
S Meera Fitness,Gym,"Gf-1, Garden View,Opp M.S University, Kalaghoda Circle,Sayajigunj, Vadodara, Gujarat 390005, India",https://www.google.co.kr/maps/place/S+Meera+Fitness/data=!4m5!3m4!1s0x395fc8b04a7bddb9:0x30ce7207a41a73ab!8m2!3d22.3088216!4d73.1876497?authuser=0&hl=en&rclk=1,22.3088216,73.1876497,Gujarat,West 2
Nexa fitness family gym,Gym,"201, Second Floor, Business Arcade, Plot No 08, DC-2, Gandhidham 370240, Subhash Nagar, Gandhidham, Gujarat 370201, India",https://www.google.co.kr/maps/place/Nexa+fitness+family+gym/data=!4m5!3m4!1s0x3950b9f8634af53d:0x7533a36d866cdcc8!8m2!3d23.0786225!4d70.11625?authuser=0&hl=en&rclk=1,23.0786225,70.11625,Gujarat,West 2
Optimum Fitness,Gym,"Vinayak gold complex ajwaroad Vadodara, Vadodara, Gujarat 390019, India",https://www.google.co.kr/maps/place/Optimum+Fitness/data=!4m5!3m4!1s0x395fcf925e2e55ed:0x4999d3b44a29fd72!8m2!3d22.3189815!4d73.2499423?authuser=0&hl=en&rclk=1,22.3189815,73.2499423,Gujarat,West 2
Infinity Fitness,Gym,"Trinity Complex, 3rd, New IPCL Rd, near Dasama cross road, Gorwa, Vadodara, Gujarat 390023, India",https://www.google.co.kr/maps/place/Infinity+Fitness/data=!4m5!3m4!1s0x395fc8e8a3d657c3:0xddd3006263bc71b4!8m2!3d22.330271!4d73.153838?authuser=0&hl=en&rclk=1,22.330271,73.153838,Gujarat,West 2
Italiya Fitness,Fitness center,"Hirabag Circle, Tapsil Society, Hirabaugh, Surat, Gujarat 395006, India",https://www.google.co.kr/maps/place/Italiya+Fitness/data=!4m5!3m4!1s0x3be04fa0b4ee5845:0x1c5568c014385fa6!8m2!3d21.2152518!4d72.8621097?authuser=0&hl=en&rclk=1,21.2152518,72.8621097,Gujarat,West 2
Shiv Fitness Training,Gym,"Renton Village, Rajpipla, Gujarat 393145, India",https://www.google.co.kr/maps/place/Shiv+Fitness+Training/data=!4m5!3m4!1s0x396007af881b5e35:0x37aa05dd243873d9!8m2!3d21.870913!4d73.5076185?authuser=0&hl=en&rclk=1,21.870913,73.5076185,Gujarat,West 2
Gym personal training/ kickboxing,Fitness center,"Zundal area, Gujarat 382481, India",https://www.google.co.kr/maps/place/Gym+personal+training%2F+kickboxing/data=!4m5!3m4!1s0x395e83baedbf8c35:0x1fd4feefabf76996!8m2!3d23.1464156!4d72.5876896?authuser=0&hl=en&rclk=1,23.1464156,72.5876896,Gujarat,West 2
Sfw The Gym | Gotri - Vadodara,Gym,"Labh icon, Gotri - Vasna Rd, Saiyed Vasna, Vadodara, Gujarat 390007, India",https://www.google.co.kr/maps/place/Sfw+The+Gym+%7C+Gotri+-+Vadodara/data=!4m5!3m4!1s0x395fc974d042a363:0x3d87eb8b0666fa78!8m2!3d22.3067204!4d73.1379309?authuser=0&hl=en&rclk=1,22.3067204,73.1379309,Gujarat,West 2
Fitness,Gym,"B-5, B-5, Ring Rd, Yogi Society, Pangat Park, Waghodia, Vadodara, Gujarat 390019, India",https://www.google.co.kr/maps/place/Fitness/data=!4m5!3m4!1s0x395fc57a7492149d:0xb6f4c8e2303242f5!8m2!3d22.2934044!4d73.2368609?authuser=0&hl=en&rclk=1,22.2934044,73.2368609,Gujarat,West 2
Life Fitness Point,Gymnasium Cz,"A 404, 80 Feet Ring Rd, Sanidhya Park, 80 Feet Ring Rd, Sanidhya Park, Nikol, Ahmedabad, Gujarat 382350, India",https://www.google.co.kr/maps/place/Life+Fitness+Point/data=!4m5!3m4!1s0x395e8719443747c9:0x3693b26aeae8b398!8m2!3d23.0457796!4d72.6694275?authuser=0&hl=en&rclk=1,23.0457796,72.6694275,Gujarat,West 2
Planet Fitness,Gym,"3rd floor, Western city complex, Pij Road, Napad, Nadiad, Gujarat 387002, India",https://www.google.co.kr/maps/place/Planet+Fitness/data=!4m5!3m4!1s0x395e5b088be1eb9d:0xd2d66f7019f54797!8m2!3d22.6917313!4d72.8547973?authuser=0&hl=en&rclk=1,22.6917313,72.8547973,Gujarat,West 2
The Fitness Zone Gym,Gym,"3rd Floor, S.V.Complex, Beside Raj Bank, Near, 150 Feet Ring Rd, Indira Circle, Rajkot, Gujarat 360005, India",https://www.google.co.kr/maps/place/The+Fitness+Zone+Gym/data=!4m5!3m4!1s0x3959cb1ce4445d59:0xfc641d4f7e9196fc!8m2!3d22.287952!4d70.7717319?authuser=0&hl=en&rclk=1,22.287952,70.7717319,Gujarat,West 2
Biomax India Pvt Ltd,Fitness center,"211 Unique Builidng, 4 Sardar Nagar, Dr Yagnik Road, Dr Yagnik Road, near Astron Chowk, Rajkot, Gujarat 360001, India",https://www.google.co.kr/maps/place/Biomax+India+Pvt+Ltd/data=!4m5!3m4!1s0x3959ca19b942ac15:0xad425152055a335d!8m2!3d22.2921885!4d70.7922071?authuser=0&hl=en&rclk=1,22.2921885,70.7922071,Gujarat,West 2
Fit & Shine nutrition & fitness centre,Fitness center,"Ganesh Meridian, D-705, Sarkhej - Gandhinagar Hwy, opp. kargil petrol pump, Sola, Ahmedabad, Gujarat 382481, India",https://www.google.co.kr/maps/place/Fit+%26+Shine+nutrition+%26+fitness+centre/data=!4m5!3m4!1s0x395e8386ad955dc5:0xf648179942b4fa50!8m2!3d23.0751887!4d72.5256887?authuser=0&hl=en&rclk=1,23.0751887,72.5256887,Gujarat,West 2
Airforce gym,Gym,"F2G8+6R3, Govardhanpur, Jamnagar, Gujarat 361003, India",https://www.google.co.kr/maps/place/Airforce+gym/data=!4m5!3m4!1s0x395715633a4102f9:0x3d661faf89204590!8m2!3d22.4755223!4d70.0170453?authuser=0&hl=en&rclk=1,22.4755223,70.0170453,Gujarat,West 2
Cult Satellite,Fitness center,"Sarthik Complex, 2nd Floor, Satellite Rd, Ramdev Nagar, Ahmedabad, Gujarat 380015, India",https://www.google.co.kr/maps/place/Cult+Satellite/data=!4m5!3m4!1s0x395e9be24612ac7f:0x7d7a41d510881096!8m2!3d23.026685!4d72.5092973?authuser=0&hl=en&rclk=1,23.026685,72.5092973,Gujarat,West 2
EAZY GYM - EMS FITNESS STUDIO,Gym,"Shakti Arcade, Eazy Gym, Ground Floor, Dr Yagnik Rd, beside Hotel Sentosa, Rajkot, Gujarat 360001, India",https://www.google.co.kr/maps/place/EAZY+GYM+-+EMS+FITNESS+STUDIO/data=!4m5!3m4!1s0x3959ca2333f330a9:0x7be1f969e65ea02e!8m2!3d22.2971412!4d70.7914968?authuser=0&hl=en&rclk=1,22.2971412,70.7914968,Gujarat,West 2
One life fitness,Gym,"Sector-6, Near Apana Bazar, beside nagrik bank, Gandhinagar, Gujarat 382006, India",https://www.google.co.kr/maps/place/One+life+fitness/data=!4m5!3m4!1s0x395c2b6b83c9b8c9:0x16ce665383a33ad2!8m2!3d23.211054!4d72.6364103?authuser=0&hl=en&rclk=1,23.211054,72.6364103,Gujarat,West 2
Fitness Point Gym (B_Fit),Fitness center,"Mahindar Pura Shanti Main Rd, near Diamond Apartment, opposite Bank Of Baroda, Hatthupura, Hathupura, Sayedpura, Surat, Gujarat 395003, India",https://www.google.co.kr/maps/place/Fitness+Point+Gym+(B_Fit)/data=!4m5!3m4!1s0x3be04ef4f3057aeb:0x5e9a2a9775c52e46!8m2!3d21.2040257!4d72.8299509?authuser=0&hl=en&rclk=1,21.2040257,72.8299509,Gujarat,West 2
KP FITNESS GYM,Gym,"102,103,first floor,oasis corner,dhanmore, Katargam, Surat, Gujarat 395004, India",https://www.google.co.kr/maps/place/KP+FITNESS+GYM/data=!4m5!3m4!1s0x3be04fac30221f8f:0xd7d57cb8c211eb96!8m2!3d21.2281242!4d72.8337698?authuser=0&hl=en&rclk=1,21.2281242,72.8337698,Gujarat,West 2
AT's Gym & Fitness,Gym,"Bihari Nagar-4,Near Bhavani Maa temple,Dabhor Road, Veraval, Gujarat 362266, India",https://www.google.co.kr/maps/place/AT's+Gym+%26+Fitness/data=!4m5!3m4!1s0x3bfd32464c250edb:0x776cd9301f231f6c!8m2!3d20.9314615!4d70.3593947?authuser=0&hl=en&rclk=1,20.9314615,70.3593947,Gujarat,West 2
Fitavenue,Fitness center,"Rds, Fitavenue, 238, 2nd Floor, Iscon Emporio, Nr. Star Bazaar, Jodhpur Cross Rd, Satellite, Ahmedabad, Gujarat 380015, India",https://www.google.co.kr/maps/place/Fitavenue/data=!4m5!3m4!1s0x395e85ae59616e4d:0x585f1dc016087170!8m2!3d23.0270253!4d72.5244326?authuser=0&hl=en&rclk=1,23.0270253,72.5244326,Gujarat,West 2
K&Q Fitness,Gym,"Shankar Complex, 2nd Floor, Sanala Rd, opp. Dr Bavarva Hospital, Ram chowk, Morbi, Gujarat 363641, India",https://www.google.co.kr/maps/place/K%26Q+Fitness/data=!4m5!3m4!1s0x39598cdebd024add:0x253e0be4bd3b2405!8m2!3d22.8149462!4d70.8311239?authuser=0&hl=en&rclk=1,22.8149462,70.8311239,Gujarat,West 2
"Avengers Fitness Gym , Bopal",Fitness center,"Angan Complex, 3rd & 4th Floor, near Goverment Tubewell, Bopal, Ahmedabad, Gujarat 380058, India","https://www.google.co.kr/maps/place/Avengers+Fitness+Gym+,+Bopal/data=!4m5!3m4!1s0x395e9b03f643f78b:0x1389031eaab8bf7d!8m2!3d23.030526!4d72.473246?authuser=0&hl=en&rclk=1",23.030526,72.473246,Gujarat,West 2
M Zone Fitness,Fitness center,"153, Nr. Love Temple, Off, Kalavad Rd, near AG Chowk, Ravipark Society, Rajkot, Gujarat 360005, India",https://www.google.co.kr/maps/place/M+Zone+Fitness/data=!4m5!3m4!1s0x3959ca1a805234c1:0xb32be4815d1c18d8!8m2!3d22.2755645!4d70.7563292?authuser=0&hl=en&rclk=1,22.2755645,70.7563292,Gujarat,West 2
Muscle Craft Gym,Gym,"370230, Swaminarayan Nagar, Meghpar Borichi, Gujarat, India",https://www.google.co.kr/maps/place/Muscle+Craft+Gym/data=!4m5!3m4!1s0x3950b8f1615306bf:0xacb5fd80e67ae62f!8m2!3d23.0872001!4d70.080448?authuser=0&hl=en&rclk=1,23.0872001,70.080448,Gujarat,West 2
Body Carpenter Gym,Gym,"4th Floor, Vardhaman House, Opposite Rajhans Society Near Shambhu Cafe, H.L, College Road, Navrangpura, Ahmedabad, Gujarat 380009, India",https://www.google.co.kr/maps/place/Body+Carpenter+Gym/data=!4m5!3m4!1s0x395e85691bb5416f:0xd5cf5c85c4a6410b!8m2!3d23.0315915!4d72.5552671?authuser=0&hl=en&rclk=1,23.0315915,72.5552671,Gujarat,West 2
@ Featherfit Gym (Only For Ladies),Fitness center,"B/27 SainathPark Society Near Prakash bakery, Vasna Rd, opp. Kalyan Party Plot, Vadodara, Gujarat 390007, India",https://www.google.co.kr/maps/place/'@+Featherfit+Gym+(Only+For+Ladies)'/data=!4m5!3m4!1s0x395fc724edc139a5:0x96a92c0fc4558cc!8m2!3d22.2944228!4d73.147226?authuser=0&hl=en&rclk=1,22.2944228,73.147226,Gujarat,West 2
Gladiator Fitness,Fitness center,"Causeway Link Rd, Dabholi Village, Surat, Gujarat 395004, India",https://www.google.co.kr/maps/place/Gladiator+Fitness/data=!4m5!3m4!1s0x3be04ea7e84e82d9:0xfd31552209c5623a!8m2!3d21.2309944!4d72.8055198?authuser=0&hl=en&rclk=1,21.2309944,72.8055198,Gujarat,West 2
MR Fitness,Gym,"Super Mall Infocity, Shop No SF 216 2nd floor, 2, Infocity Rd, Infocity, Gandhinagar, Gujarat 382007, India",https://www.google.co.kr/maps/place/MR+Fitness/data=!4m5!3m4!1s0x395c2a39c4aa1305:0x8d5b836bb2b0256a!8m2!3d23.1964643!4d72.6327124?authuser=0&hl=en&rclk=1,23.1964643,72.6327124,Gujarat,West 2
Golden Fitness The Family Gym,Fitness center,"Raj Plaza, Gurukul Rd, Memnagar, Ahmedabad, Gujarat 380052, India",https://www.google.co.kr/maps/place/Golden+Fitness+The+Family+Gym/data=!4m5!3m4!1s0x395e8503dc314af3:0xe6441c597f8e3f66!8m2!3d23.0508527!4d72.5338636?authuser=0&hl=en&rclk=1,23.0508527,72.5338636,Gujarat,West 2
pure fitness gym,Gym,"42/2 vishavakarma bhuvan, opp. smc intekwell, Jahangir Pura, Surat, Gujarat 395005, India",https://www.google.co.kr/maps/place/pure+fitness+gym/data=!4m5!3m4!1s0x3be04dacb33b7e5d:0xe5384c4d9903bf7d!8m2!3d21.2340821!4d72.7899496?authuser=0&hl=en&rclk=1,21.2340821,72.7899496,Gujarat,West 2
Box4Fitness,Gym,"Gandhinagar Sports Academy Near Parinam Circle, opposite birsamunda bhavan, Sector 8, Gandhinagar, Gujarat 382007, India",https://www.google.co.kr/maps/place/Box4Fitness/data=!4m5!3m4!1s0x395c2b505836107b:0x743238862a5a77a9!8m2!3d23.2079698!4d72.6550245?authuser=0&hl=en&rclk=1,23.2079698,72.6550245,Gujarat,West 2
Bliss Fitness Studio By Neetu Singh,Gym,"505 Dwarkesh Business Hub Above Tomato's Restaurant Visat, Sarkhej - Gandhinagar Hwy, Motera, Ahmedabad, Gujarat 380005, India",https://www.google.co.kr/maps/place/Bliss+Fitness+Studio+By+Neetu+Singh/data=!4m5!3m4!1s0x395e830f84707efb:0xe669049996bf3103!8m2!3d23.1093541!4d72.6034049?authuser=0&hl=en&rclk=1,23.1093541,72.6034049,Gujarat,West 2
Fitness Planet,Gym,"B /25, purushottam nagar soc,nr althan garden,surat Near siddhraj jaysinh SMC garden Gate no 6, Gujarat 395017, India",https://www.google.co.kr/maps/place/Fitness+Planet/data=!4m5!3m4!1s0x3be04e014e710a25:0xf55aaa0838249499!8m2!3d21.1488306!4d72.8039009?authuser=0&hl=en&rclk=1,21.1488306,72.8039009,Gujarat,West 2
Accel fit,Fitness center,"Bh, Crystal Mall Rajkot, Kalawad Road, Jyoti Nagar Main Rd, Opposite Rani Tower, Ghanshyam Nagar, Rajkot, Gujarat 360005, India",https://www.google.co.kr/maps/place/Accel+fit/data=!4m5!3m4!1s0x3959cbb5162d491d:0x4f746e5bb5af24b6!8m2!3d22.279956!4d70.7630132?authuser=0&hl=en&rclk=1,22.279956,70.7630132,Gujarat,West 2
AR FITNESS,Fitness center,"Science Square Complex, Sola, Ahmedabad, Gujarat 380060, India",https://www.google.co.kr/maps/place/AR+FITNESS/data=!4m5!3m4!1s0x395e9dcdada751e9:0xf930aa98bbce54dc!8m2!3d23.0756991!4d72.5098853?authuser=0&hl=en&rclk=1,23.0756991,72.5098853,Gujarat,West 2
All Time Fitness,Gym,"Shop No. 30, Plot No. 138, Sector-8 C.L. Sharma Complex, Oslo Circle Road, Sector 8, Gandhidham, Gujarat 370201, India",https://www.google.co.kr/maps/place/All+Time+Fitness/data=!4m5!3m4!1s0x3950b9f79a93ccad:0xc3d6c9b16baa88a4!8m2!3d23.0614964!4d70.1313332?authuser=0&hl=en&rclk=1,23.0614964,70.1313332,Gujarat,West 2
Public open gym,Gym,"8Q2R+Q48, Race Course, Sadar, Rajkot, Gujarat 360001, India",https://www.google.co.kr/maps/place/Public+open+gym/data=!4m5!3m4!1s0x3959c91c9d521cb7:0x8a886e3d5b3b6e33!8m2!3d22.3019199!4d70.7903235?authuser=0&hl=en&rclk=1,22.3019199,70.7903235,Gujarat,West 2
She Fitness Centre,Gym,"Polyclinic Centre, Premchand Nagar Rd, Vastrapur, Ahmedabad, Gujarat 380015, India",https://www.google.co.kr/maps/place/She+Fitness+Centre/data=!4m5!3m4!1s0x395e84b7cb29c877:0x66565bad998257a8!8m2!3d23.0360472!4d72.5174909?authuser=0&hl=en&rclk=1,23.0360472,72.5174909,Gujarat,West 2
The Golden Gym,Gym,"2nd floor, Jilla Panchayat Rd, above Raymond Show Room, near bus stand, Amreli Irrigation Division, D.L.B. Society, Amreli, Gujarat 365601, India",https://www.google.co.kr/maps/place/The+Golden+Gym/data=!4m5!3m4!1s0x3958813bd8fa10c1:0xe00c5745019a3071!8m2!3d21.6030345!4d71.2205476?authuser=0&hl=en&rclk=1,21.6030345,71.2205476,Gujarat,West 2
STARK FITNESS AND SPORTS,Gym,"103 Pride Square, Pushkar Dham Main Rd, near j k chowk, opp. Aalap Avenue, Rajkot, Gujarat 360005, India",https://www.google.co.kr/maps/place/STARK+FITNESS+AND+SPORTS/data=!4m5!3m4!1s0x3959cbaf165384eb:0x7e214e26f69c9da5!8m2!3d22.2855856!4d70.7560851?authuser=0&hl=en&rclk=1,22.2855856,70.7560851,Gujarat,West 2
Neel's Fitness,Gym,"""Atithi Party Plot"", 150ft. Ring Road, Beside Mangalam Hospital, Nr. K.K.V., Hall, Rajkot, Gujarat 360002, India",https://www.google.co.kr/maps/place/Neel's+Fitness/data=!4m5!3m4!1s0x3959ca30e564824b:0x7916ef760a2db271!8m2!3d22.2845194!4d70.7740429?authuser=0&hl=en&rclk=1,22.2845194,70.7740429,Gujarat,West 2
BB FITNESS GYM,Fitness center,"3rd floor SHAGUN BANQUET, opp. JALARAM HOSPITAL, Warasiya, Vadodara, Gujarat 390006, India",https://www.google.co.kr/maps/place/BB+FITNESS+GYM/data=!4m5!3m4!1s0x395fcf0c5d44ae19:0x59df7e95990f5d2d!8m2!3d22.3090526!4d73.218463?authuser=0&hl=en&rclk=1,22.3090526,73.218463,Gujarat,West 2
nyc fitness,Boxing gym,"Songadh, Gujarat 394670, India",https://www.google.co.kr/maps/place/nyc+fitness/data=!4m5!3m4!1s0x3bdfd130dbb7abbf:0x47bcd198bb9ea17b!8m2!3d21.1661621!4d73.5687172?authuser=0&hl=en&rclk=1,21.1661621,73.5687172,Gujarat,West 2
Life Fitness Gyms,Gym,"301/302, SHANTI NIKETAN BUSINESS CENTER ,, GANGOTRI CIRCLE ,NIKOL., Ahmedabad, Gujarat 382350, India",https://www.google.co.kr/maps/place/Life+Fitness+Gyms/data=!4m5!3m4!1s0x395e87195d3fef69:0x29dd9086b503cc47!8m2!3d23.0455264!4d72.6694166?authuser=0&hl=en&rclk=1,23.0455264,72.6694166,Gujarat,West 2
Power Fitness,Gym,"Basement, Ansh Enclave Nr. Maruti Spandan, Ananad - Borsad Rd, opposite Aakruti Nagar Society, Anand, Gujarat 388001, India",https://www.google.co.kr/maps/place/Power+Fitness/data=!4m5!3m4!1s0x395e4db7edf2f369:0xea35128630a13685!8m2!3d22.5346572!4d72.954269?authuser=0&hl=en&rclk=1,22.5346572,72.954269,Gujarat,West 2
Rmc gym,Gym,"Nandanavan Society, Ram Park, Rajkot, Gujarat 360005, India",https://www.google.co.kr/maps/place/Rmc+gym/data=!4m5!3m4!1s0x3959ca336a569ad5:0xc19820a599c8eae2!8m2!3d22.2827668!4d70.7660706?authuser=0&hl=en&rclk=1,22.2827668,70.7660706,Gujarat,West 2
Dreamland G.Y.M,Fitness center,"Modasa Bypass Rd Below Dreamland Theatre, Farms Area, Om Nagar Society, Modasa, Gujarat 383315, India",https://www.google.co.kr/maps/place/Dreamland+G.Y.M/data=!4m5!3m4!1s0x395df1d676d0198b:0x4fbb07b87b53b8f6!8m2!3d23.450995!4d73.3152508?authuser=0&hl=en&rclk=1,23.450995,73.3152508,Gujarat,West 2
Tiger Fitness,Boxing gym,"44H8+4PG, Janki Nagar, Mangrol, Gujarat 362225, India",https://www.google.co.kr/maps/place/Tiger+Fitness/data=!4m5!3m4!1s0x3bfd43ff552e9177:0x279b0e6a08f4b37a!8m2!3d21.127801!4d70.1168298?authuser=0&hl=en&rclk=1,21.127801,70.1168298,Gujarat,West 2
W8 Fitness,Gym,"4th floor, Central Bazzar, near Shivam Traders, Navsari, Gujarat 396445, India",https://www.google.co.kr/maps/place/W8+Fitness/data=!4m5!3m4!1s0x3be0f7aa0b745d4d:0x88e826b9bbf023f4!8m2!3d20.9366761!4d72.9405069?authuser=0&hl=en&rclk=1,20.9366761,72.9405069,Gujarat,West 2
Platinum Fitness Zone,Gym,"Shop No. 208, 2nd Floor, Platinum Industrial Park, opp. Jaimin Park Society, near Vatva Over Bridge, Vatva, Ahmedabad, Gujarat 382445, India",https://www.google.co.kr/maps/place/Platinum+Fitness+Zone/data=!4m5!3m4!1s0x395e8999657467f7:0xa5a0bcc75979637!8m2!3d22.9577393!4d72.6257793?authuser=0&hl=en&rclk=1,22.9577393,72.6257793,Gujarat,West 2
Fitness villa Gym Polaris,Gym,"shop no 454,453 4th floor polaris mall puna brts, Canal Rd, near resma house, Punagam, Varachha, Surat, Gujarat 395010, India",https://www.google.co.kr/maps/place/Fitness+villa+Gym+Polaris/data=!4m5!3m4!1s0x3be04feaf14b4a2f:0x1eb9c3d85e19fcaa!8m2!3d21.1980076!4d72.8747643?authuser=0&hl=en&rclk=1,21.1980076,72.8747643,Gujarat,West 2
O2 Fitness Gym,Gym,"3th floor, city point complex, above icici bank, Mahendranagar, Morbi - 2, Gujarat 363641, India",https://www.google.co.kr/maps/place/O2+Fitness+Gym/data=!4m5!3m4!1s0x39598d59bbabf6b3:0x9ed838a0e93b070b!8m2!3d22.8429041!4d70.8576342?authuser=0&hl=en&rclk=1,22.8429041,70.8576342,Gujarat,West 2
Lee-on fitness,Gym,"Sanala Rd, Savsar Plot, Sardar Nagar, Morbi, Gujarat 363641, India",https://www.google.co.kr/maps/place/Lee-on+fitness/data=!4m5!3m4!1s0x39598d3db9d0be57:0x12596df660407d1f!8m2!3d22.8137422!4d70.8300056?authuser=0&hl=en&rclk=1,22.8137422,70.8300056,Gujarat,West 2
X Fitness Gym,Gym,"Titanium Suncity building Santiniketan Park, Radhika Park, Rajkot, Gujarat 360005, India",https://www.google.co.kr/maps/place/X+Fitness+Gym/data=!4m5!3m4!1s0x3959c9a5d11ca58b:0x9d60426cae48f165!8m2!3d22.303678!4d70.763583?authuser=0&hl=en&rclk=1,22.303678,70.763583,Gujarat,West 2
Gym Lounge Premium - New Ranip,Gym,"Floor 6, Savn Square Nr Chenpur Gam, New Ranip, Ahmedabad, Gujarat 382480, India",https://www.google.co.kr/maps/place/Gym+Lounge+Premium+-+New+Ranip/data=!4m5!3m4!1s0x395e832e16a17ddb:0x93cf6e4ad29864f1!8m2!3d23.0996872!4d72.5596737?authuser=0&hl=en&rclk=1,23.0996872,72.5596737,Gujarat,West 2
Mahila Gymnasium (RMC's Gym for Ladies)asmita,Gymnastics center,"150 Feet Ring Rd, Chandra Park, Rajkot, Gujarat 360005, India",https://www.google.co.kr/maps/place/Mahila+Gymnasium+(RMC's+Gym+for+Ladies)asmita/data=!4m5!3m4!1s0x3959ca47eb98f409:0xf5fb982fe0495bc7!8m2!3d22.2760642!4d70.7775843?authuser=0&hl=en&rclk=1,22.2760642,70.7775843,Gujarat,West 2
SFW The Gym- Gota,Gym,"601, NY Square, NR Vandematram Cross Rd, above SBI Bank, Gota, Ahmedabad, Gujarat 382481, India",https://www.google.co.kr/maps/place/SFW+The+Gym-+Gota/data=!4m5!3m4!1s0x395e831be9d7ab85:0xf0e146628be69104!8m2!3d23.0990976!4d72.5510233?authuser=0&hl=en&rclk=1,23.0990976,72.5510233,Gujarat,West 2
Forever Fitness,Gym,"3rd Floor, Siddharth Annexe-1, Sama-Savli Rd, above Domino Pizza, Vemali, Vadodara, Gujarat 390024, India",https://www.google.co.kr/maps/place/Forever+Fitness/data=!4m5!3m4!1s0x395fcf386f9ab301:0xdedf28e640eb162e!8m2!3d22.3514571!4d73.2012014?authuser=0&hl=en&rclk=1,22.3514571,73.2012014,Gujarat,West 2
Diyus Fitness Point,Gym,"2nd floor, Nothplaza building beside - 4d mall, Chandkheda, GJ SH 41, Motera, Ahmedabad, Gujarat 380005, India",https://www.google.co.kr/maps/place/Diyus+Fitness+Point/data=!4m5!3m4!1s0x395c43beef36e949:0xde44cfcc3e8cda21!8m2!3d23.6234121!4d72.3890749?authuser=0&hl=en&rclk=1,23.6234121,72.3890749,Gujarat,West 2
Sarvice Center,Gym,"At vidi jambudiya, ta, Wankaner, Gujarat 363621, India",https://www.google.co.kr/maps/place/Sarvice+Center/data=!4m5!3m4!1s0x39599c70081cf439:0x2c9887d83fc91a77!8m2!3d22.6213691!4d70.9530477?authuser=0&hl=en&rclk=1,22.6213691,70.9530477,Gujarat,West 2
Songar's Gym,Gym,"Sheetal Varsha Complex, 108 Songars gym, Shivranjani Cross Rd, Ahmedabad, Gujarat 380015, India",https://www.google.co.kr/maps/place/Songar's+Gym/data=!4m5!3m4!1s0x395e84cfb4e54079:0x96da791741fda3dd!8m2!3d23.0253455!4d72.5295982?authuser=0&hl=en&rclk=1,23.0253455,72.5295982,Gujarat,West 2
Modern Gym,Gym,"Surat - Kadodara Rd, Near Sardar Market, Anjana, Sanjay Nagar, Surat, Gujarat 394210, India",https://www.google.co.kr/maps/place/Modern+Gym/data=!4m5!3m4!1s0x3be04e52a6531b87:0x25868a6c4c2fd80e!8m2!3d21.1906073!4d72.8506596?authuser=0&hl=en&rclk=1,21.1906073,72.8506596,Gujarat,West 2
Concept Gym & Fitness,Gym,"949R+8CJ, Karachiya, Gujarat 391346, India",https://www.google.co.kr/maps/place/Concept+Gym+%26+Fitness/data=!4m5!3m4!1s0x395fc9915d6e8afd:0xce885ba11bb89ac6!8m2!3d22.3683451!4d73.1410074?authuser=0&hl=en&rclk=1,22.3683451,73.1410074,Gujarat,West 2
Unity Fitness Zone,Fitness center,"Nr,Main Gate, opp. Bas Stand, Por, Gujarat 391243, India",https://www.google.co.kr/maps/place/Unity+Fitness+Zone/data=!4m5!3m4!1s0x395fc2224000001f:0xc3715a62b4732c28!8m2!3d22.13937!4d73.189537?authuser=0&hl=en&rclk=1,22.13937,73.189537,Gujarat,West 2
Tron Fitness Factory,Gym,"TF 501, Empire Hub, Ghodasar Cross Rd, Ghodasar, Ahmedabad, Gujarat 380050, India",https://www.google.co.kr/maps/place/Tron+Fitness+Factory/data=!4m5!3m4!1s0x395e8ff4d760b063:0x83435bb02b385354!8m2!3d22.9781728!4d72.611251?authuser=0&hl=en&rclk=1,22.9781728,72.611251,Gujarat,West 2
Vyom fitness gym,Gym,"Dev Arcade, 313|/314, Near, Naranpura Railway Crossing Rd, above havmor restaurant, Ahmedabad, Gujarat 380013, India",https://www.google.co.kr/maps/place/Vyom+fitness+gym/data=!4m5!3m4!1s0x395e85251e64eef9:0xed4027d9f34261c!8m2!3d23.0518744!4d72.5622129?authuser=0&hl=en&rclk=1,23.0518744,72.5622129,Gujarat,West 2
Plus Fitness 24/7 Science City,Gym,"Level 2, Sangam Sapphire, Science City Rd, opposite The Capital, Sola, Ahmedabad, Gujarat 380060, India",https://www.google.co.kr/maps/place/Plus+Fitness+24%2F7+Science+City/data=!4m5!3m4!1s0x395e9d744f1040e7:0x22b74a763c2d8fd5!8m2!3d23.0772117!4d72.5054958?authuser=0&hl=en&rclk=1,23.0772117,72.5054958,Gujarat,West 2
Avengers The Gym,Fitness center,"1st-3rd Floor, Vidhi Square, BPC Rd, next to Govardhan Nathji Haveli, Alkapuri, Vadodara, Gujarat 390020, India",https://www.google.co.kr/maps/place/Avengers+The+Gym/data=!4m5!3m4!1s0x395fc9041691da49:0x6d9a265da240ada8!8m2!3d22.3032728!4d73.1733105?authuser=0&hl=en&rclk=1,22.3032728,73.1733105,Gujarat,West 2
Gym Center (Akhada),Gym,"J659+9F2, Sukhniwas Colony, Amreli, Gujarat 365601, India",https://www.google.co.kr/maps/place/Gym+Center+(Akhada)/data=!4m5!3m4!1s0x395880c7d6902d71:0x3362670314241bbb!8m2!3d21.6083932!4d71.2186257?authuser=0&hl=en&rclk=1,21.6083932,71.2186257,Gujarat,West 2
IIT Gandhinagar- Fitness Centre,Gym,"6M7P+M3J, Gandhinagar, Gujarat 382355, India",https://www.google.co.kr/maps/place/IIT+Gandhinagar-+Fitness+Centre/data=!4m5!3m4!1s0x395c2b1fe50997b1:0xa3b6ddc96512ca8f!8m2!3d23.2142028!4d72.6851539?authuser=0&hl=en&rclk=1,23.2142028,72.6851539,Gujarat,West 2
Om Fitness Gym,Gym,"421, Rd Number 6, Gayatrinagar Society, Doubledaker, Sector 27, Gandhinagar, Gujarat 382027, India",https://www.google.co.kr/maps/place/Om+Fitness+Gym/data=!4m5!3m4!1s0x395c2b8e5397798b:0x2711a4875e3cdc6f!8m2!3d23.2463305!4d72.6465983?authuser=0&hl=en&rclk=1,23.2463305,72.6465983,Gujarat,West 2
Government Gym,Gym,"New Commercial Mills Staff Society, Ellisbridge, Ahmedabad, Gujarat 380009, India",https://www.google.co.kr/maps/place/Government+Gym/data=!4m5!3m4!1s0x395e84ee266ebdd1:0x94c7271f8429699a!8m2!3d23.0299655!4d72.5554011?authuser=0&hl=en&rclk=1,23.0299655,72.5554011,Gujarat,West 2
J.K. Fitness (only for ladies),Fitness center,"3rd floor, paridhan complex, Mangnath Rd, Junagadh, Gujarat 362001, India",https://www.google.co.kr/maps/place/J.K.+Fitness+(only+for+ladies)/data=!4m5!3m4!1s0x395801425fa6abe7:0xcca98241467bc74d!8m2!3d21.5175979!4d70.4627776?authuser=0&hl=en&rclk=1,21.5175979,70.4627776,Gujarat,West 2
Kyk gym,Gym,"JC44+XFJ, Mehsana, Gujarat 384001, India",https://www.google.co.kr/maps/place/Kyk+gym/data=!4m5!3m4!1s0x395c4371c022f9e9:0xa037323c815c1d45!8m2!3d23.6074616!4d72.4061418?authuser=0&hl=en&rclk=1,23.6074616,72.4061418,Gujarat,West 2
JM Fitness,Fitness center,"behind gurudwara, West End Park, Thaltej, Ahmedabad, Gujarat 380059, India",https://www.google.co.kr/maps/place/JM+Fitness/data=!4m5!3m4!1s0x395e9bfdf907736b:0x12c7d544b12cd3a5!8m2!3d23.0481731!4d72.5142773?authuser=0&hl=en&rclk=1,23.0481731,72.5142773,Gujarat,West 2
O2 Fitness Gym,Gym,"HX36+Q5M, Gamdi Vad, Sardar Ganj, Anand, Gujarat 388001, India",https://www.google.co.kr/maps/place/O2+Fitness+Gym/data=!4m5!3m4!1s0x395e4f68e55ab433:0xed11bc3ad82b535d!8m2!3d22.554471!4d72.9604264?authuser=0&hl=en&rclk=1,22.554471,72.9604264,Gujarat,West 2
QUANTUM SOLUTIONS INDIA (STEAM BATH EQUIPMENT MFG AHMEDABAD),Gym,"SORAINAGAR VASNA AHMEDABAD RAJYESH RIVERIUM, Ahmedabad, Gujarat 380007, India",https://www.google.co.kr/maps/place/QUANTUM+SOLUTIONS+INDIA+(STEAM+BATH+EQUIPMENT+MFG+AHMEDABAD)/data=!4m5!3m4!1s0x395e85cb4b8c6fed:0x49b905fadc3a226!8m2!3d23.003922!4d72.5460687?authuser=0&hl=en&rclk=1,23.003922,72.5460687,Gujarat,West 2
Maruti Fitness Gym,Gym,"2nd floor, to, Shyamdham Rd, opp. Kashyap jeweller, Nana Varachha, Surat, Gujarat 395006, India",https://www.google.co.kr/maps/place/Maruti+Fitness+Gym/data=!4m5!3m4!1s0x3be04f257a9f2371:0x624dddd48b1a6d20!8m2!3d21.2194703!4d72.8931847?authuser=0&hl=en&rclk=1,21.2194703,72.8931847,Gujarat,West 2
Fitness point the beast gym,Gym,"HX56+3R9, Gamdi Vad, Sardar Ganj, Anand, Gujarat 388001, India",https://www.google.co.kr/maps/place/Fitness+point+the+beast+gym/data=!4m5!3m4!1s0x395e4ff220a12a57:0x11dbe3e7283ae751!8m2!3d22.5576523!4d72.9621178?authuser=0&hl=en&rclk=1,22.5576523,72.9621178,Gujarat,West 2
AIM fitness,Gym,"opp. Ashokvan Society, Ashokvan Society, Shakti Nagar Society, Alka Society, Chhapra, Navsari, Gujarat 396445, India",https://www.google.co.kr/maps/place/AIM+fitness/data=!4m5!3m4!1s0x3be0f745cb7aa769:0xd8ba717002960cd6!8m2!3d20.9395719!4d72.9288427?authuser=0&hl=en&rclk=1,20.9395719,72.9288427,Gujarat,West 2
Modern Gym,Gym,"Katargam Road Kuber Market, Near Katargam Darwaja, Kubernagar, Katargam, Surat, Gujarat 395004, India",https://www.google.co.kr/maps/place/Modern+Gym/data=!4m5!3m4!1s0x3be04e9285359625:0xdb99367113e20ab6!8m2!3d21.2115092!4d72.8256839?authuser=0&hl=en&rclk=1,21.2115092,72.8256839,Gujarat,West 2
muscular body fitness,Gym,"Sanjay Nagar, Bajrang Wadi, Rajkot, Gujarat 360006, India",https://www.google.co.kr/maps/place/muscular+body+fitness/data=!4m5!3m4!1s0x3959c972b5904e31:0xda79ea33c0c39d05!8m2!3d22.3212399!4d70.7796656?authuser=0&hl=en&rclk=1,22.3212399,70.7796656,Gujarat,West 2
Fit First,Fitness center,"150 feet ring road, Nana Mauva Circle, Opp Silver Heights, 360004, Rajkot, Gujarat, India",https://www.google.co.kr/maps/place/Fit+First/data=!4m5!3m4!1s0x3959ca2e7aede3e5:0x7850a22ca6d5f530!8m2!3d22.2901051!4d70.7709785?authuser=0&hl=en&rclk=1,22.2901051,70.7709785,Gujarat,West 2
Bahubali Fitness Gym,Gym,"MXVF+5X4, bhajjuwala society, Bharuch, Gujarat 392001, India",https://www.google.co.kr/maps/place/Bahubali+Fitness+Gym/data=!4m5!3m4!1s0x3be0273c10556cb1:0x340010b4cebbe6bb!8m2!3d21.6928913!4d72.9749406?authuser=0&hl=en&rclk=1,21.6928913,72.9749406,Gujarat,West 2
Taluka Gym Center Jambughoda,Gym,"Unnamed Road, Kaliavav, Gujarat 389390, India",https://www.google.co.kr/maps/place/Taluka+Gym+Center+Jambughoda/data=!4m5!3m4!1s0x3960655456787c67:0x8e3d2ecfa12f502a!8m2!3d22.3679987!4d73.7309262?authuser=0&hl=en&rclk=1,22.3679987,73.7309262,Gujarat,West 2
Infinity Fitness Gym,Gym,"5VVP+XFV, Saroli, Surat, Gujarat 395010, India",https://www.google.co.kr/maps/place/Infinity+Fitness+Gym/data=!4m5!3m4!1s0x3be04f5a9b492181:0xc72cffbce0ab335b!8m2!3d21.1949838!4d72.8861775?authuser=0&hl=en&rclk=1,21.1949838,72.8861775,Gujarat,West 2
YOGATA,Gym,"Satnam Complex, Yogeshwar Nagar, Morbi, Gujarat 363641, India",https://www.google.co.kr/maps/place/YOGATA/data=!4m5!3m4!1s0x39598d768a557f21:0x1ef0a2f00db0c512!8m2!3d22.8033405!4d70.8253818?authuser=0&hl=en&rclk=1,22.8033405,70.8253818,Gujarat,West 2
Dynamo fitness Morbi,Gym,"Dynamo fitness Virpar, Rajkot - Morbi Hwy, Morbi, Gujarat, India",https://www.google.co.kr/maps/place/Dynamo+fitness+Morbi/data=!4m5!3m4!1s0x3959ed1b00383bb5:0xf264e16de81d09f8!8m2!3d22.754466!4d70.7964597?authuser=0&hl=en&rclk=1,22.754466,70.7964597,Gujarat,West 2
Saiyed gym,Gym,"Bus Stop, Jitali, Gujarat 393001, India",https://www.google.co.kr/maps/place/Saiyed+gym/data=!4m5!3m4!1s0x3be0235e9ab9d711:0x623b9aa0de5a9341!8m2!3d21.62014!4d73.063378?authuser=0&hl=en&rclk=1,21.62014,73.063378,Gujarat,West 2
MK26 GYM And Fitness,Fitness center,"GJ SH 65, Gujarat 394110, India",https://www.google.co.kr/maps/place/MK26+GYM+And+Fitness/data=!4m5!3m4!1s0x3be03946cc44f24b:0x7d2d61a261a5bd35!8m2!3d21.4072476!4d72.9083687?authuser=0&hl=en&rclk=1,21.4072476,72.9083687,Gujarat,West 2
Nilambaug Palace Gym,Gym,"Gaurishankar Lake Rd, Devbagh, Bhavnagar, Gujarat 364002, India",https://www.google.co.kr/maps/place/Nilambaug+Palace+Gym/data=!4m5!3m4!1s0x395f5086f843ba45:0x58b7669f1def67de!8m2!3d21.7664198!4d72.1328348?authuser=0&hl=en&rclk=1,21.7664198,72.1328348,Gujarat,West 2
Fit Planet (The Gym),Gym,"Fit Planet The Gym, Om Panchavati Society, Sikka, Gujarat 361140, India",https://www.google.co.kr/maps/place/Fit+Planet+(The+Gym)/data=!4m5!3m4!1s0x395718394480b0cb:0xcc0bce74ee2e3373!8m2!3d22.4265131!4d69.8409509?authuser=0&hl=en&rclk=1,22.4265131,69.8409509,Gujarat,West 2
Veer Maruti Gym,Gym,"2nd floor, champaranya, Nr. circle, Vagheshwari Plot, Porbandar, Gujarat 360575, India",https://www.google.co.kr/maps/place/Veer+Maruti+Gym/data=!4m5!3m4!1s0x3956345b99fa6ac9:0x7e77c52384fb6539!8m2!3d21.6366107!4d69.613223?authuser=0&hl=en&rclk=1,21.6366107,69.613223,Gujarat,West 2
Abc healthcare,Gym,"2/5, Sadhu Vaswani Road, Vishwakarma Society, Hari Nagar, Rajkot, Gujarat 360005, India",https://www.google.co.kr/maps/place/Abc+healthcare/data=!4m5!3m4!1s0x3959cbd3a853f5cd:0xf804080d957b96e9!8m2!3d22.290077!4d70.7612882?authuser=0&hl=en&rclk=1,22.290077,70.7612882,Gujarat,West 2
Fitness_first_gym,Gym,"3725+2GC, Valod, Gujarat 394640, India",https://www.google.co.kr/maps/place/Fitness_first_gym/data=!4m5!3m4!1s0x3be0639251920aa9:0x6b006a7c8a41af9a!8m2!3d21.0500657!4d73.2587574?authuser=0&hl=en&rclk=1,21.0500657,73.2587574,Gujarat,West 2
Health Fats Gym,Boxing gym,"Kherva, Gujarat 391135, India",https://www.google.co.kr/maps/place/Health+Fats+Gym/data=!4m5!3m4!1s0x39606e93c3460bd7:0x1d6c3170697ed236!8m2!3d22.2802243!4d73.7165947?authuser=0&hl=en&rclk=1,22.2802243,73.7165947,Gujarat,West 2
Mission Health,Rehabilitation center,"3rd Floor, The Capital, Science City Rd, opposite Hetarth Party Plot, Ahmedabad, Gujarat 38006, India",https://www.google.co.kr/maps/place/Mission+Health/data=!4m5!3m4!1s0x395e9d1e9a8b342f:0x7e0e37cfd9b464a8!8m2!3d23.0759956!4d72.5093133?authuser=0&hl=en&rclk=1,23.0759956,72.5093133,Gujarat,West 2
Transform The Gymnasium,Gym,"2 nd floor, chaps estate, Karamsad Rd, Anand, India",https://www.google.co.kr/maps/place/Transform+The+Gymnasium/data=!4m5!3m4!1s0x395e4e78c8f27e6d:0x3360931c5ba4b1e1!8m2!3d22.5467757!4d72.9186562?authuser=0&hl=en&rclk=1,22.5467757,72.9186562,Gujarat,West 2
AKSHAR SILVER,Gym,"Unnamed Road, Kanaknagar, Shakti Industrial Zone, Rajkot, Gujarat 360003, India",https://www.google.co.kr/maps/place/AKSHAR+SILVER/data=!4m5!3m4!1s0x3959b5fb1c658847:0xdfbd0d8bc6bccc52!8m2!3d22.297758!4d70.823991?authuser=0&hl=en&rclk=1,22.297758,70.823991,Gujarat,West 2
BEING FIT STUDIO,Gymnasium Cz,"A 202 , S Mall, Motera Stadium Rd, near HP Petrol Pump, Motera, Ahmedabad, Gujarat 380005, India",https://www.google.co.kr/maps/place/BEING+FIT+STUDIO/data=!4m5!3m4!1s0x395e83a974e6caff:0xfae7d2cc74ad5bb8!8m2!3d23.1101906!4d72.6058843?authuser=0&hl=en&rclk=1,23.1101906,72.6058843,Gujarat,West 2
Prashant Faldu,Gym,"Block no.:-63/B, 6, Nana Mava Main Rd, Parnakuti Society, Rajkot, Gujarat 360001, India",https://www.google.co.kr/maps/place/Prashant+Faldu/data=!4m5!3m4!1s0x3959cbf7e8475255:0xefa0b0dbedaacf76!8m2!3d22.2805761!4d70.7824368?authuser=0&hl=en&rclk=1,22.2805761,70.7824368,Gujarat,West 2
YOGA STUDIO,Yoga studio,"109 ANAND SAPPHIRE, Eulogia Hotel Rd, opp. GMART, Gota, Ahmedabad, Gujarat 382481, India",https://www.google.co.kr/maps/place/YOGA+STUDIO/data=!4m5!3m4!1s0x395e85a7c140e4f7:0x431514a45ad153db!8m2!3d23.0285312!4d72.5794816?authuser=0&hl=en&rclk=1,23.0285312,72.5794816,Gujarat,West 2
Life Ashtang Yoga Unit,Yoga studio,"Race Course Rd, Race Course, Sadar, Rajkot, Gujarat 360001, India",https://www.google.co.kr/maps/place/Life+Ashtang+Yoga+Unit/data=!4m5!3m4!1s0x3959c98acf7cdd53:0x5a45bc0159dd0914!8m2!3d22.3032354!4d70.7874812?authuser=0&hl=en&rclk=1,22.3032354,70.7874812,Gujarat,West 2
નાત માટે માન ને દોસ્ત માટે જાન.AK,Gym,"GJ SH 6, Bed, Gujarat 361003, India",https://www.google.co.kr/maps/place/%E0%AA%A8%E0%AA%BE%E0%AA%A4+%E0%AA%AE%E0%AA%BE%E0%AA%9F%E0%AB%87+%E0%AA%AE%E0%AA%BE%E0%AA%A8+%E0%AA%A8%E0%AB%87+%E0%AA%A6%E0%AB%8B%E0%AA%B8%E0%AB%8D%E0%AA%A4+%E0%AA%AE%E0%AA%BE%E0%AA%9F%E0%AB%87+%E0%AA%9C%E0%AA%BE%E0%AA%A8.AK/data=!4m5!3m4!1s0x39571738bf5c9909:0x966dc65d49a0487f!8m2!3d22.4344807!4d69.8983508?authuser=0&hl=en&rclk=1,22.4344807,69.8983508,Gujarat,West 2
TAVISI - The Yoga Studio,Yoga studio,"B-336, Advance Business Park, opp. Swaminarayan Mandir, Shahibag, Ahmedabad, Gujarat 380004, India",https://www.google.co.kr/maps/place/TAVISI+-+The+Yoga+Studio/data=!4m5!3m4!1s0x395e853def13034d:0x4c81bc94f12ea3ef!8m2!3d23.0457001!4d72.589313?authuser=0&hl=en&rclk=1,23.0457001,72.589313,Gujarat,West 2
The Power Fitness Gym💪🏋,Gym,"Sector B, 229, II Floor, Om Sai Multipurpose Complex, behind Union Bank of India, Ward no.-11, Indra, Mandideep, Bhopal, Madhya Pradesh 462046, India",https://www.google.co.kr/maps/place/The+Power+Fitness+Gym%F0%9F%92%AA%F0%9F%8F%8B/data=!4m5!3m4!1s0x397c47cab3d420cf:0xea7bd6aa6c588e94!8m2!3d23.0969469!4d77.5164216?authuser=0&hl=en&rclk=1,23.0969469,77.5164216,Madhya Pradesh,West 2
Shivhare gym,Gym,"3C5Q+WG2, Nowgong, Madhya Pradesh 471201, India",https://www.google.co.kr/maps/place/Shivhare+gym/data=!4m5!3m4!1s0x3982a65ad1fbc5e3:0x4ec82fdd2a26f633!8m2!3d25.0597567!4d79.4387725?authuser=0&hl=en&rclk=1,25.0597567,79.4387725,Madhya Pradesh,West 2
Yoga and Fitness Classes,Fitness center,"Singhpur Rd, ganesh ganj, Shahdol, Madhya Pradesh 484001, India",https://www.google.co.kr/maps/place/Yoga+and+Fitness+Classes/data=!4m5!3m4!1s0x3986fb5f321294db:0x4aaf728230403995!8m2!3d23.2943266!4d81.365205?authuser=0&hl=en&rclk=1,23.2943266,81.365205,Madhya Pradesh,West 2
Pumping Iron Gym,Gym,"Near State Bank Of India, Chetakpuri, Vijaynagar, Gwalior, Madhya Pradesh 474009, India",https://www.google.co.kr/maps/place/Pumping+Iron+Gym/data=!4m5!3m4!1s0x3976c43cc70aca37:0x143fd4c26bd6adfa!8m2!3d26.1997429!4d78.1750589?authuser=0&hl=en&rclk=1,26.1997429,78.1750589,Madhya Pradesh,West 2
"""T3"" - Time To Train Fitness Gym",Gym,"Kulshreshtha Market, 1st floor, Sachin Tendulkar Rd, Above Tandoori Chai, Gwalior, Madhya Pradesh 474011, India",https://www.google.co.kr/maps/place/%22T3%22+-+Time+To+Train+Fitness+Gym/data=!4m5!3m4!1s0x3976c5e2d558a1ed:0xbb9128880708c629!8m2!3d26.205554!4d78.1958677?authuser=0&hl=en&rclk=1,26.205554,78.1958677,Madhya Pradesh,West 2
Dangal Gym - Family Fitness | Aerobic | Cardio | Gym,Gym,"2 B, near bank of india, Awadhpuri, Bhopal, Madhya Pradesh 462022, India",https://www.google.co.kr/maps/place/Dangal+Gym+-+Family+Fitness+%7C+Aerobic+%7C+Cardio+%7C+Gym/data=!4m5!3m4!1s0x397c419145788ce9:0x45f1f6b503db134b!8m2!3d23.2216057!4d77.488607?authuser=0&hl=en&rclk=1,23.2216057,77.488607,Madhya Pradesh,West 2
Mudliar's Fitness Plaza,Gym,"Narmada Rd, beside Central Bank of India, MCI Colony, Gorakhpur, Jabalpur, Madhya Pradesh 482001, India",https://www.google.co.kr/maps/place/Mudliar's+Fitness+Plaza/data=!4m5!3m4!1s0x3981ade4abe227ef:0x37b3ba22095af4c5!8m2!3d23.1477109!4d79.93136?authuser=0&hl=en&rclk=1,23.1477109,79.93136,Madhya Pradesh,West 2
SHAPE UP GYM,Gym,"Ward No. 13, Narsinghpur Rd, near KUNAL MOTORS, Nai Abadi, Chhindwara, Madhya Pradesh 480001, India",https://www.google.co.kr/maps/place/SHAPE+UP+GYM/data=!4m5!3m4!1s0x3bd567a194caaef3:0x440ab18c847870fd!8m2!3d22.0650138!4d78.9541474?authuser=0&hl=en&rclk=1,22.0650138,78.9541474,Madhya Pradesh,West 2
MFC Gym,Gymnasium Cz,"Bittan Market, 10, E-5/10, Link Rd Number 3, Opposite Habibganj Police Station, E-5, Char Imli, Bhopal, Madhya Pradesh 462016, India",https://www.google.co.kr/maps/place/MFC+Gym/data=!4m5!3m4!1s0x397c42565418914f:0xd6d748bbd818ac87!8m2!3d23.2169204!4d77.4271499?authuser=0&hl=en&rclk=1,23.2169204,77.4271499,Madhya Pradesh,West 2
SR Fitness,Gym,"Lakkadpitha Road, Above Axis bank, Laxman Pura, Ratlam, Madhya Pradesh 457001, India",https://www.google.co.kr/maps/place/SR+Fitness/data=!4m5!3m4!1s0x3963ff497c42f2d7:0xb9a0324b0ae178e1!8m2!3d23.3222389!4d75.0303496?authuser=0&hl=en&rclk=1,23.3222389,75.0303496,Madhya Pradesh,West 2
Fitness junction gym,Gym,"Maihar - Rewa Rd, Nehru Nagar, Padmadhar Colony, Madhya Pradesh 486001, India",https://www.google.co.kr/maps/place/Fitness+junction+gym/data=!4m5!3m4!1s0x39845b6abf40260d:0x41751f0f106fc6b6!8m2!3d24.5432686!4d81.2758543?authuser=0&hl=en&rclk=1,24.5432686,81.2758543,Madhya Pradesh,West 2
Xtreme Gym,Gym,"Bhopal Naka, Englishpura, Sehore, Madhya Pradesh 466001, India",https://www.google.co.kr/maps/place/Xtreme+Gym/data=!4m5!3m4!1s0x397cf3f5b0ec4099:0x9d9a22ca0e973815!8m2!3d23.2065615!4d77.0965398?authuser=0&hl=en&rclk=1,23.2065615,77.0965398,Madhya Pradesh,West 2
Sylvester The Fitness Zone Gym,Fitness center,"DK 04/74 First Floor, Danish Kunj Kolar Rd, Bhopal, Madhya Pradesh 462001, India",https://www.google.co.kr/maps/place/Sylvester+The+Fitness+Zone+Gym/data=!4m5!3m4!1s0x3962fd69ed83c315:0x6310677c25a7391!8m2!3d23.1717106!4d77.4294724?authuser=0&hl=en&rclk=1,23.1717106,77.4294724,Madhya Pradesh,West 2
Smart Fitness Gym,Gym,"54RX+J75, Paan Patte Ki Goth, Madhav Ganj, Gwalior, Madhya Pradesh 474001, India",https://www.google.co.kr/maps/place/Smart+Fitness+Gym/data=!4m5!3m4!1s0x3976c5c9db55a6ef:0xe039baf6b30d9d7a!8m2!3d26.1915225!4d78.1482481?authuser=0&hl=en&rclk=1,26.1915225,78.1482481,Madhya Pradesh,West 2
Fit India Gym,Gym,"Pani ki tanki ke samne Budhe balaji Housing board colony, Madhya Pradesh 473001, India",https://www.google.co.kr/maps/place/Fit+India+Gym/data=!4m5!3m4!1s0x397a5dd35e74f89d:0x534fb724700c1d30!8m2!3d24.6562136!4d77.300856?authuser=0&hl=en&rclk=1,24.6562136,77.300856,Madhya Pradesh,West 2
Fitness Lounge Mandsaur,Physical fitness program,"Yash Balaji Choraha, Sanjit Rd, near Indian Gas, Mandsaur, Madhya Pradesh 458001, India",https://www.google.co.kr/maps/place/Fitness+Lounge+Mandsaur/data=!4m5!3m4!1s0x39642dfbc10b5c37:0xe9b0f5a4578565b4!8m2!3d24.0803907!4d75.0648942?authuser=0&hl=en&rclk=1,24.0803907,75.0648942,Madhya Pradesh,West 2
Platinum Fitness Gym,Gym,"Itarsi Rd, Sadar, Badora, Madhya Pradesh 460001, India",https://www.google.co.kr/maps/place/Platinum+Fitness+Gym/data=!4m5!3m4!1s0x3bd609659645e271:0xf2f5ce40d38d3fdb!8m2!3d21.9011379!4d77.8913022?authuser=0&hl=en&rclk=1,21.9011379,77.8913022,Madhya Pradesh,West 2
Fitness Rockers Gym,Gym,"15, Ayodhya Bypass Rd, Murli Nagar, Karond, Bhopal, Madhya Pradesh 462038, India",https://www.google.co.kr/maps/place/Fitness+Rockers+Gym/data=!4m5!3m4!1s0x397c688b28d27b25:0x1fa84ffbfb467061!8m2!3d23.3025633!4d77.40076?authuser=0&hl=en&rclk=1,23.3025633,77.40076,Madhya Pradesh,West 2
Milestone Gym,Gym,"4WR2+RCH, Hill View Colony, Jabalpur, Madhya Pradesh 482001, India",https://www.google.co.kr/maps/place/Milestone+Gym/data=!4m5!3m4!1s0x3981b3ae66143a91:0xb065d6d698440487!8m2!3d23.1420726!4d79.9010972?authuser=0&hl=en&rclk=1,23.1420726,79.9010972,Madhya Pradesh,West 2
BoxRox Fitness,Fitness center,"3 Floor, 43, Indore Road, Mahakal Sindhi Colony, Near, Subhash Nagar, Ujjain, Madhya Pradesh 456010, India",https://www.google.co.kr/maps/place/BoxRox+Fitness/data=!4m5!3m4!1s0x396374669c11cd17:0xdf78ff395e729eb0!8m2!3d23.1677698!4d75.789126?authuser=0&hl=en&rclk=1,23.1677698,75.789126,Madhya Pradesh,West 2
Police line gym,Fitness center,"RQP8+583, Gopal Ganj, Sagar, Madhya Pradesh 470003, India",https://www.google.co.kr/maps/place/Police+line+gym/data=!4m5!3m4!1s0x3978d15cbb8fa3cb:0x1c16c487a69bc2a0!8m2!3d23.8353783!4d78.7658012?authuser=0&hl=en&rclk=1,23.8353783,78.7658012,Madhya Pradesh,West 2
Evolution Gym vidisha,Gym,"Bada bazar, Daulatpur, Vidisha, Madhya Pradesh 464001, India",https://www.google.co.kr/maps/place/Evolution+Gym+vidisha/data=!4m5!3m4!1s0x397c0565da0f7d61:0x9910eaa8ef22f218!8m2!3d23.5246902!4d77.8055121?authuser=0&hl=en&rclk=1,23.5246902,77.8055121,Madhya Pradesh,West 2
Fitness Factory,Gym,"N.H.-7 allahabad, road, Urrahat, Rewa, Madhya Pradesh 486001, India",https://www.google.co.kr/maps/place/Fitness+Factory/data=!4m5!3m4!1s0x39845a3b189ba94b:0xc6628f9ed835f4a8!8m2!3d24.5449682!4d81.3101437?authuser=0&hl=en&rclk=1,24.5449682,81.3101437,Madhya Pradesh,West 2
Vibrance Fitness,Physical fitness program,"Road, near Police Post, Sanichari Hills, Sagar, Madhya Pradesh 470002, India",https://www.google.co.kr/maps/place/Vibrance+Fitness/data=!4m5!3m4!1s0x3978d19e6fa8b847:0xe841822f88b87538!8m2!3d23.8400309!4d78.7476388?authuser=0&hl=en&rclk=1,23.8400309,78.7476388,Madhya Pradesh,West 2
HEALTHY INDIA,Fitness center,"Chhawni Rd, Ushaganj, Murai Mohalla, Indore, Madhya Pradesh 452001, India",https://www.google.co.kr/maps/place/HEALTHY+INDIA/data=!4m5!3m4!1s0x3962fd18bd38ecf1:0xbddc4a8cc629062a!8m2!3d22.7089438!4d75.8758337?authuser=0&hl=en&rclk=1,22.7089438,75.8758337,Madhya Pradesh,West 2
RJ Fitness,Gym,"A-19, Scheme No. 51, Sangam Nagar, Indore, Madhya Pradesh 452006, India",https://www.google.co.kr/maps/place/RJ+Fitness/data=!4m5!3m4!1s0x3962fd8cfae8634b:0xefeb25fa76445a3c!8m2!3d22.7363569!4d75.8324338?authuser=0&hl=en&rclk=1,22.7363569,75.8324338,Madhya Pradesh,West 2
Evolution Fitness Center,Fitness center,"Madhaya Pradesh, G 1/26 2nd floor gulmohar colony near by aura mall Bhopal, Madhya Pradesh 9131112107, Bhopal, Madhya Pradesh 462016, India",https://www.google.co.kr/maps/place/Evolution+Fitness+Center/data=!4m5!3m4!1s0x397c43965a782505:0x575f12225012a59d!8m2!3d23.1829727!4d77.4392842?authuser=0&hl=en&rclk=1,23.1829727,77.4392842,Madhya Pradesh,West 2
Rock Fitness Zym,Gym,"Sector B, 229, II Floor, Om Sai Multipurpose Complex, behind Union Bank of India, Ward no.-11, Indra, Mandideep, Bhopal, Madhya Pradesh 462046, India",https://www.google.co.kr/maps/place/Rock+Fitness+Zym/data=!4m5!3m4!1s0x397c47448d6a4e9f:0xd3e782ed683dc435!8m2!3d23.0969469!4d77.5164216?authuser=0&hl=en&rclk=1,23.0969469,77.5164216,Madhya Pradesh,West 2
Fitness Factory Gym || Gym in Gwalior || Fitness Studio,Fitness center,"Chaturvedi Sadan, 0-4/99 Ground Floor, Phase II, Stabdi Puram, Deen Dayal Nagar, Gwalior, Madhya Pradesh 474005, India",https://www.google.co.kr/maps/place/Fitness+Factory+Gym+%7C%7C+Gym+in+Gwalior+%7C%7C+Fitness+Studio/data=!4m5!3m4!1s0x3976c40e9911651d:0xf79d3f46bea0d048!8m2!3d26.2586959!4d78.2058358?authuser=0&hl=en&rclk=1,26.2586959,78.2058358,Madhya Pradesh,West 2
Hb fitness,Gym,"Veer Durgadas Marg, Kamri Marg, Ujjain, Madhya Pradesh 456006, India",https://www.google.co.kr/maps/place/Hb+fitness/data=!4m5!3m4!1s0x396375253a6dacdd:0xb0811d24ec54400e!8m2!3d23.1914987!4d75.7702062?authuser=0&hl=en&rclk=1,23.1914987,75.7702062,Madhya Pradesh,West 2
SHINE FITNESS,Gym,"1st floor, city center, infront of shyam rao hotel, Mumbai - Agra National Hwy, Sendhwa, Madhya Pradesh 451666, India",https://www.google.co.kr/maps/place/SHINE+FITNESS/data=!4m5!3m4!1s0x3bd8b11a674c0b1b:0xbaec07847eb0e0a6!8m2!3d21.6847499!4d75.0973751?authuser=0&hl=en&rclk=1,21.6847499,75.0973751,Madhya Pradesh,West 2
Rits Fitness Studio- Unisex Gym - Personal Training- Weight Loss- Body weight Training- Kick Boxing,Fitness center,"34/3, Lala Banarasilal Dawar Marg, Janjeerwala Square, New Palasia, Indore, Madhya Pradesh 452001, India",https://www.google.co.kr/maps/place/Rits+Fitness+Studio-+Unisex+Gym+-+Personal+Training-+Weight+Loss-+Body+weight+Training-+Kick+Boxing/data=!4m5!3m4!1s0x3962fd38048a2efb:0xe51065ebf3aab191!8m2!3d22.7282962!4d75.881758?authuser=0&hl=en&rclk=1,22.7282962,75.881758,Madhya Pradesh,West 2
Fitness Zone,Gym,"police line, Bhatnagar, Shahdol, Madhya Pradesh 484001, India",https://www.google.co.kr/maps/place/Fitness+Zone/data=!4m5!3m4!1s0x3986fb6dfd1e458d:0x9eabd41e6bb691b1!8m2!3d23.3079074!4d81.3628877?authuser=0&hl=en&rclk=1,23.3079074,81.3628877,Madhya Pradesh,West 2
Rampure Gym,Gym,"Tamiya Bypass Rd, Junnardeo, Madhya Pradesh 480551, India",https://www.google.co.kr/maps/place/Rampure+Gym/data=!4m5!3m4!1s0x3bd58092d2ed5b65:0x4e839b3ace68169f!8m2!3d22.1938646!4d78.597922?authuser=0&hl=en&rclk=1,22.1938646,78.597922,Madhya Pradesh,West 2
Z Advance Fitness Gym,Gym,"Punjabi Colony, Soni Colony, Guna, Madhya Pradesh 473001, India",https://www.google.co.kr/maps/place/Z+Advance+Fitness+Gym/data=!4m5!3m4!1s0x397a5bbab3ddfd75:0xf11e182d85db60b0!8m2!3d24.6450419!4d77.3066923?authuser=0&hl=en&rclk=1,24.6450419,77.3066923,Madhya Pradesh,West 2
TR9 Gym and fitness centre,Gym,"near Tagore Park, Tagore Park Colony, Khargone, Madhya Pradesh 451001, India",https://www.google.co.kr/maps/place/TR9+Gym+and+fitness+centre/data=!4m5!3m4!1s0x3bd8875591a78029:0xbdc7a7130229b0c3!8m2!3d21.826239!4d75.6216112?authuser=0&hl=en&rclk=1,21.826239,75.6216112,Madhya Pradesh,West 2
City Fitness,Gym,"Bhatrewas, Mandsaur, Madhya Pradesh 458001, India",https://www.google.co.kr/maps/place/City+Fitness/data=!4m5!3m4!1s0x39642c00d58a1211:0x9de64fcbe9915ae7!8m2!3d24.0731636!4d75.0640319?authuser=0&hl=en&rclk=1,24.0731636,75.0640319,Madhya Pradesh,West 2
Madams Fitness,Gym,"448, Varun Nagar, Sector A, Shahpura, Bhopal, Madhya Pradesh 462039, India",https://www.google.co.kr/maps/place/Madams+Fitness/data=!4m5!3m4!1s0x397c4328bd8377c9:0x72f999f70f8e8fb4!8m2!3d23.198746!4d77.427265?authuser=0&hl=en&rclk=1,23.198746,77.427265,Madhya Pradesh,West 2
GYM,Gym,"Q4V6+HFW, Bhitarwar, Madhya Pradesh 475220, India",https://www.google.co.kr/maps/place/GYM/data=!4m5!3m4!1s0x3977258751514005:0x72bbec58b97efac1!8m2!3d25.7939882!4d78.1112121?authuser=0&hl=en&rclk=1,25.7939882,78.1112121,Madhya Pradesh,West 2
Shivaay Fitness Empire,Gym,"Lig 99, Harsh Nagar, Housing Board Colony, Hoshangabad, Madhya Pradesh 461001, India",https://www.google.co.kr/maps/place/Shivaay+Fitness+Empire/data=!4m5!3m4!1s0x397dcf6ad7a5ce09:0x6fb38da63fd5f9!8m2!3d22.7431068!4d77.7335853?authuser=0&hl=en&rclk=1,22.7431068,77.7335853,Madhya Pradesh,West 2
Universal Fitness&gym,Gym,"Behind qureshi marvel, Ravindra Nagar, Tapti Nagar, Adhartal, Jabalpur, Madhya Pradesh 482004, India",https://www.google.co.kr/maps/place/Universal+Fitness%26gym/data=!4m5!3m4!1s0x3981af69a3280bb9:0x81d57ed67c9c0ce3!8m2!3d23.1992129!4d79.9446323?authuser=0&hl=en&rclk=1,23.1992129,79.9446323,Madhya Pradesh,West 2
Bravo Fitness Center,Gym,"997, 9, Near MIG Thana, Nehru Nagar, Indore, Madhya Pradesh 452001, India",https://www.google.co.kr/maps/place/Bravo+Fitness+Center/data=!4m5!3m4!1s0x3962fd44956dcb0d:0x52d2880e61621311!8m2!3d22.736296!4d75.8839795?authuser=0&hl=en&rclk=1,22.736296,75.8839795,Madhya Pradesh,West 2
MP GYM Men's & Women's,Gym,"Maharajpur, Jabalpur, Madhya Pradesh 482004, India",https://www.google.co.kr/maps/place/MP+GYM+Men's+%26+Women's/data=!4m5!3m4!1s0x3981affa22a9a6fb:0xaff9db34ca27618f!8m2!3d23.2241141!4d79.9581215?authuser=0&hl=en&rclk=1,23.2241141,79.9581215,Madhya Pradesh,West 2
Siya fitness centre (Gym),Fitness center,"Maa kela devi Enclave, life insurance corporation 26, Tansen Road opposite Chauhan crane service, near Tansen Nagar, Gwalior, Madhya Pradesh 474002, India",https://www.google.co.kr/maps/place/Siya+fitness+centre+(Gym)/data=!4m5!3m4!1s0x3976c70c4a75852d:0xfba1263e18172098!8m2!3d26.2254526!4d78.1811699?authuser=0&hl=en&rclk=1,26.2254526,78.1811699,Madhya Pradesh,West 2
Dynamix Fitnes,Gym,"Link Rd, Tikari, Agnihotri Colony, Betul, Madhya Pradesh 460001, India",https://www.google.co.kr/maps/place/Dynamix+Fitnes/data=!4m5!3m4!1s0x3bd60997f4522b35:0x200194a20313b703!8m2!3d21.906692!4d77.894089?authuser=0&hl=en&rclk=1,21.906692,77.894089,Madhya Pradesh,West 2
Fitness Icon Gym,Gym,"Mandir Rd, beside Corporation Bank Newri, Jain Nagar, Nayapura, Lalghati, Bhopal, Madhya Pradesh 462030, India",https://www.google.co.kr/maps/place/Fitness+Icon+Gym/data=!4m5!3m4!1s0x397c69dfc56ad103:0xfa388675922a94b5!8m2!3d23.2786893!4d77.3742376?authuser=0&hl=en&rclk=1,23.2786893,77.3742376,Madhya Pradesh,West 2
Fitness fuel gym 2 premium,Gym,"2137, Sudama Nagar Main Rd, Sector D, jhaloriya market, Indore, Madhya Pradesh 452009, India",https://www.google.co.kr/maps/place/Fitness+fuel+gym+2+premium/data=!4m5!3m4!1s0x3962fd5581fc3365:0x66e61f6f96df9702!8m2!3d22.687723!4d75.828995?authuser=0&hl=en&rclk=1,22.687723,75.828995,Madhya Pradesh,West 2
Gym,Gym,"Gwala, Madhya Pradesh 466118, India",https://www.google.co.kr/maps/place/Gym/data=!4m5!3m4!1s0x397cd3ce510d00ab:0x9bed29ce743ffd29!8m2!3d22.9524979!4d76.5334982?authuser=0&hl=en&rclk=1,22.9524979,76.5334982,Madhya Pradesh,West 2
HIMFIT GYM,Gym,"MP SH 19, Phoop, Madhya Pradesh 477555, India",https://www.google.co.kr/maps/place/HIMFIT+GYM/data=!4m5!3m4!1s0x397676d600ad9b6f:0x27a2ceafaa7961d0!8m2!3d26.6478746!4d78.8838959?authuser=0&hl=en&rclk=1,26.6478746,78.8838959,Madhya Pradesh,West 2
Tha pump factory gym,Gym,"7C3M+9Q7, Punjabi Bagh, Apsara Talkies, Behind Petrol Pump, Shanshah Garden, Bhopal, Madhya Pradesh 462023, India",https://www.google.co.kr/maps/place/Tha+pump+factory+gym/data=!4m5!3m4!1s0x397c4326651f6955:0x2a94181fa7432486!8m2!3d23.2534055!4d77.4344207?authuser=0&hl=en&rclk=1,23.2534055,77.4344207,Madhya Pradesh,West 2
Fitness Anytime,Gym,"2nd Floor B.D.S Tower, City Center, Patel Nagar, Gwalior, Madhya Pradesh 474001, India",https://www.google.co.kr/maps/place/Fitness+Anytime/data=!4m5!3m4!1s0x3976c41c9d96294d:0xe3ae8e6315a9a10!8m2!3d26.2090149!4d78.1915939?authuser=0&hl=en&rclk=1,26.2090149,78.1915939,Madhya Pradesh,West 2
KURUKSHETRA GYMNASIUM,Gym,"Main road, Kolar Rd, near Police Station, Bhopal, Madhya Pradesh 462042, India",https://www.google.co.kr/maps/place/KURUKSHETRA+GYMNASIUM/data=!4m5!3m4!1s0x397c436550b1132f:0xfe1ee58ae8eca64e!8m2!3d23.1712488!4d77.4164658?authuser=0&hl=en&rclk=1,23.1712488,77.4164658,Madhya Pradesh,West 2
Syna Fitness Centre,Gym,"Housing Board Colony, Shanti Nagar, madhavnagar Gate, National Highway 44, Jabalpur Rd, Katni, Madhya Pradesh 483504, India",https://www.google.co.kr/maps/place/Syna+Fitness+Centre/data=!4m5!3m4!1s0x398161928af80949:0x5cdd78a3c08aafee!8m2!3d23.8160284!4d80.3782189?authuser=0&hl=en&rclk=1,23.8160284,80.3782189,Madhya Pradesh,West 2
India,Gym,"Karond Chauraha, Karond Chouraha, Murli Nagar, Karond, Bhopal, Madhya Pradesh 462038, India",https://www.google.co.kr/maps/place/India/data=!4m5!3m4!1s0x397c69cb537ea5bb:0x480502e546bc68a7!8m2!3d23.3027707!4d77.4042243?authuser=0&hl=en&rclk=1,23.3027707,77.4042243,Madhya Pradesh,West 2
REBOUND FITNESS,Gym,"1 amrit enclave, Bypass Rd, Sector A, Rajeev Nagar, Ayodhya Bypass, Bhopal, Madhya Pradesh 462022, India",https://www.google.co.kr/maps/place/REBOUND+FITNESS/data=!4m5!3m4!1s0x397c69f6b0e64131:0x6395d1b62a6a2c63!8m2!3d23.2742277!4d77.4651297?authuser=0&hl=en&rclk=1,23.2742277,77.4651297,Madhya Pradesh,West 2
Fitness M5,Fitness center,"near Milan Shadi Hall, NRI Colony, Kohefiza, Bhopal, Madhya Pradesh 462001, India",https://www.google.co.kr/maps/place/Fitness+M5/data=!4m5!3m4!1s0x397c6809c4108f15:0x6151c268859d79f1!8m2!3d23.2691652!4d77.3728881?authuser=0&hl=en&rclk=1,23.2691652,77.3728881,Madhya Pradesh,West 2
MPEB Gym,Gym,"4WR8+3QF, MPSEB Colony, Rampur, Jabalpur, Madhya Pradesh 482008, India",https://www.google.co.kr/maps/place/MPEB+Gym/data=!4m5!3m4!1s0x3981b2085dc3b1fd:0xc4f932292af79f77!8m2!3d23.1401821!4d79.9169094?authuser=0&hl=en&rclk=1,23.1401821,79.9169094,Madhya Pradesh,West 2
NXT LEVEL FITNESS,Gym,"139, near 10. No Stop, E-7, Arera Colony, Bhopal, Madhya Pradesh 462016, India",https://www.google.co.kr/maps/place/NXT+LEVEL+FITNESS/data=!4m5!3m4!1s0x397c43664b04da8b:0xb3c6c15de7e599b!8m2!3d23.2113939!4d77.434847?authuser=0&hl=en&rclk=1,23.2113939,77.434847,Madhya Pradesh,West 2
K7 FITNESS,Gym,"2nd & 3rd floor Meenakshi Road, above Bajaj Finance Office, Anand Nagar, Hoshangabad, Madhya Pradesh 461001, India",https://www.google.co.kr/maps/place/K7+FITNESS/data=!4m5!3m4!1s0x397dcfe948a9ce29:0xa3c0fe1a972c81ed!8m2!3d22.7522079!4d77.7260727?authuser=0&hl=en&rclk=1,22.7522079,77.7260727,Madhya Pradesh,West 2
STORMBREAKER FITNESS,Gym,"61 B, near, St Paul Senior Secondary School, Rajeev Gandhi Nagar, COLONY, Bhopal, Madhya Pradesh 462022, India",https://www.google.co.kr/maps/place/STORMBREAKER+FITNESS/data=!4m5!3m4!1s0x397c41721b30595d:0x6ab6fef13ee20a61!8m2!3d23.2560904!4d77.4815864?authuser=0&hl=en&rclk=1,23.2560904,77.4815864,Madhya Pradesh,West 2
NB Gym,Fitness center,"22, Regency Palace Opposite Hotel marriott, Scheme No: 54, Vijay Nagar, Indore, Madhya Pradesh 452010, India",https://www.google.co.kr/maps/place/NB+Gym/data=!4m5!3m4!1s0x396302a68b3ecac7:0xaf6c10f9b52694e0!8m2!3d22.7536541!4d75.8851071?authuser=0&hl=en&rclk=1,22.7536541,75.8851071,Madhya Pradesh,West 2
Universal Fitness Centre Bhopal,Physical fitness program,"K.J Tower Near Mini Bus Stop jawahar Chowk, Opposite Water Tank, Bhopal, Madhya Pradesh 462003, India",https://www.google.co.kr/maps/place/Universal+Fitness+Centre+Bhopal/data=!4m5!3m4!1s0x397c42b8df8fbca7:0xc10b8be905d4573d!8m2!3d23.2313955!4d77.3942775?authuser=0&hl=en&rclk=1,23.2313955,77.3942775,Madhya Pradesh,West 2
Fuel Fitness Gym,Gym,"38 Juna Tukoganj Opposite Rambagh Petrol Pump, Madhya Pradesh 452001, India",https://www.google.co.kr/maps/place/Fuel+Fitness+Gym/data=!4m5!3m4!1s0x3962fd0b41ed8407:0x4564a37447c21d0c!8m2!3d22.7219029!4d75.8579243?authuser=0&hl=en&rclk=1,22.7219029,75.8579243,Madhya Pradesh,West 2
Red Gym,Gym,"189/27, Ankit Dubey, Aaditya Nagar, Shajapur, Madhya Pradesh 465001, India",https://www.google.co.kr/maps/place/Red+Gym/data=!4m5!3m4!1s0x39635b7fe06fc9b1:0x6eef6f54eb2f9335!8m2!3d23.4127896!4d76.2671121?authuser=0&hl=en&rclk=1,23.4127896,76.2671121,Madhya Pradesh,West 2
German Fitness,Gym,"1/3D, DRM Rd, Saket Nagar, Habib Ganj, Bhopal, Madhya Pradesh 462026, India",https://www.google.co.kr/maps/place/German+Fitness/data=!4m5!3m4!1s0x397c434655c225e7:0x15c0ca15305641f3!8m2!3d23.2172292!4d77.4622433?authuser=0&hl=en&rclk=1,23.2172292,77.4622433,Madhya Pradesh,West 2
Veer Fitness Gym,Gym,"M S Road, Sheopur, Madhya Pradesh 476337, India",https://www.google.co.kr/maps/place/Veer+Fitness+Gym/data=!4m5!3m4!1s0x39703189e24a1e8b:0x7c2522eb944b77da!8m2!3d25.6694554!4d76.6973403?authuser=0&hl=en&rclk=1,25.6694554,76.6973403,Madhya Pradesh,West 2
Latest fitness gym,Gym,"Subhash Colony, Guna, Madhya Pradesh 473001, India",https://www.google.co.kr/maps/place/Latest+fitness+gym/data=!4m5!3m4!1s0x397a5b73288bd8a9:0x7833ce76024b0ed9!8m2!3d24.6471196!4d77.3144063?authuser=0&hl=en&rclk=1,24.6471196,77.3144063,Madhya Pradesh,West 2
O2 Gym,Gym,"main a. b. road in front of bank of india, Rau, 453331, India",https://www.google.co.kr/maps/place/O2+Gym/data=!4m5!3m4!1s0x3962fd3808f0005f:0xb308927efe8de3a7!8m2!3d22.634811!4d75.8092676?authuser=0&hl=en&rclk=1,22.634811,75.8092676,Madhya Pradesh,West 2
Fitness Center,Gym,"6Q46+8FM, Gonsa, Madhya Pradesh 456003, India",https://www.google.co.kr/maps/place/Fitness+Center/data=!4m5!3m4!1s0x3963771ef988392f:0xd1880ff19eadf590!8m2!3d23.2058426!4d75.7611568?authuser=0&hl=en&rclk=1,23.2058426,75.7611568,Madhya Pradesh,West 2
lazar fitness,Gym,"Old seriya bhawan, near mata mandir hospital, nayee colony, Itarsi, Madhya Pradesh 461122, India",https://www.google.co.kr/maps/place/lazar+fitness/data=!4m5!3m4!1s0x397ddd28031b7f83:0x6f4d7945738517e6!8m2!3d22.6186406!4d77.7601016?authuser=0&hl=en&rclk=1,22.6186406,77.7601016,Madhya Pradesh,West 2
True Fitness GYM,Gym,"Parasia naka In front of M.P.E.B office parasia road, Chhindwara, Madhya Pradesh 480001, India",https://www.google.co.kr/maps/place/True+Fitness+GYM/data=!4m5!3m4!1s0x3bd565fc67269b7d:0x7c20aa0b97b8b597!8m2!3d22.06016!4d78.924425?authuser=0&hl=en&rclk=1,22.06016,78.924425,Madhya Pradesh,West 2
Iron Gym,Gym,"5R43+3MV, Mahananda Nagar, Ujjain, Madhya Pradesh 456010, India",https://www.google.co.kr/maps/place/Iron+Gym/data=!4m5!3m4!1s0x396374822c86b059:0x35da85a1dee5ee18!8m2!3d23.1552255!4d75.8041647?authuser=0&hl=en&rclk=1,23.1552255,75.8041647,Madhya Pradesh,West 2
King Gym,Fitness center,"Shop No. 2, Nizamuddin Rd, Narela, Swatoshivahir Colony, Narela Shankri, Ayodhya Bypass, Bhopal, Madhya Pradesh 462022, India",https://www.google.co.kr/maps/place/King+Gym/data=!4m5!3m4!1s0x397c69f83fa7e2e9:0x405ef06ce55430!8m2!3d23.2683348!4d77.468587?authuser=0&hl=en&rclk=1,23.2683348,77.468587,Madhya Pradesh,West 2
FitNit(Fitness with Nitesh),Fitness center,"A new 36 Qtr No. 369, Bairagarh Rd, Sant Hirdaram Nagar, Bhopal, Madhya Pradesh 462030, India",https://www.google.co.kr/maps/place/FitNit(Fitness+with+Nitesh)/data=!4m5!3m4!1s0x397c678e4dbde15f:0xeebe4320de4d3ad4!8m2!3d23.2725289!4d77.3430709?authuser=0&hl=en&rclk=1,23.2725289,77.3430709,Madhya Pradesh,West 2
FITNESS POINT GYM,Gym,"Shamshan Rd, Ashok Colony, Siddhart Nagar, Morar, Gwalior, Madhya Pradesh 474011, India",https://www.google.co.kr/maps/place/FITNESS+POINT+GYM/data=!4m5!3m4!1s0x3976c1d4254965dd:0x6ae19c13ca220a2b!8m2!3d26.2234892!4d78.2148976?authuser=0&hl=en&rclk=1,26.2234892,78.2148976,Madhya Pradesh,West 2
Power House Gym And Fitness Center,Gym,"Near gouri road mata mandir, chungi road, Lahar, Madhya Pradesh, India",https://www.google.co.kr/maps/place/Power+House+Gym+And+Fitness+Center/data=!4m5!3m4!1s0x39767ad896b944e5:0x230a9565388da60b!8m2!3d26.5574644!4d78.7939842?authuser=0&hl=en&rclk=1,26.5574644,78.7939842,Madhya Pradesh,West 2
Body Paradise Unisex Gym,Gym,"4WQG+5QF, Adarsh Nagar, Rampur, Jabalpur, Madhya Pradesh 482008, India",https://www.google.co.kr/maps/place/Body+Paradise+Unisex+Gym/data=!4m5!3m4!1s0x3981ad4ce422af47:0x8b0a85b0bc8615f7!8m2!3d23.1379469!4d79.9269319?authuser=0&hl=en&rclk=1,23.1379469,79.9269319,Madhya Pradesh,West 2
RAGHUVAR kayakalp,Gym,"Naya Mohalla, Chhatarpur, Madhya Pradesh 471001, India",https://www.google.co.kr/maps/place/RAGHUVAR+kayakalp/data=!4m5!3m4!1s0x398297df7ecc6185:0xddfd1561c37fb299!8m2!3d24.9132417!4d79.5839323?authuser=0&hl=en&rclk=1,24.9132417,79.5839323,Madhya Pradesh,West 2
PERFECT FITNESS Gym,Gym,"G7PV+3J4, Narendra Nagar, Amaiya Colony, Rewa, Madhya Pradesh 486001, India",https://www.google.co.kr/maps/place/PERFECT+FITNESS+Gym/data=!4m5!3m4!1s0x39845b6b16707dc3:0x5824318f4f0b52ad!8m2!3d24.5351349!4d81.2940931?authuser=0&hl=en&rclk=1,24.5351349,81.2940931,Madhya Pradesh,West 2
Asia's Fitness - Best Nutrition Hub In Jabalpur,Gym,"4th Bridge Rd, Napier Town, Jabalpur, Madhya Pradesh 482001, India",https://www.google.co.kr/maps/place/Asia's+Fitness+-+Best+Nutrition+Hub+In+Jabalpur/data=!4m5!3m4!1s0x3981ad873d138781:0x7a9a8fe607a09352!8m2!3d23.1612233!4d79.9370237?authuser=0&hl=en&rclk=1,23.1612233,79.9370237,Madhya Pradesh,West 2
Indian fitness academy,Fitness center,"Bajrang Colony, Ashta, Madhya Pradesh 466116, India",https://www.google.co.kr/maps/place/Indian+fitness+academy/data=!4m5!3m4!1s0x397cc5014c55f16d:0xa9ed5f205d6b4f04!8m2!3d23.0217017!4d76.7318883?authuser=0&hl=en&rclk=1,23.0217017,76.7318883,Madhya Pradesh,West 2
Barbarian Power Gym,Gym,"3HR2+V7J, PWD Colony, Barapatthar, Seoni, Madhya Pradesh 480661, India",https://www.google.co.kr/maps/place/Barbarian+Power+Gym/data=!4m5!3m4!1s0x3a2ab002975d9d27:0xf80cd68e26baee64!8m2!3d22.0922197!4d79.5506534?authuser=0&hl=en&rclk=1,22.0922197,79.5506534,Madhya Pradesh,West 2
Shivaay fitness empire,Gym,"PW3M+X42, Babai, Madhya Pradesh 461661, India",https://www.google.co.kr/maps/place/Shivaay+fitness+empire/data=!4m5!3m4!1s0x397e779759f67af5:0xcfaffb48f0db7c3d!8m2!3d22.7048809!4d77.9327675?authuser=0&hl=en&rclk=1,22.7048809,77.9327675,Madhya Pradesh,West 2
Fitness Garage Gym,Gym,"Mahakal Vanijya, Ujjain, Madhya Pradesh 456010, India",https://www.google.co.kr/maps/place/Fitness+Garage+Gym/data=!4m5!3m4!1s0x39637582d9accc77:0x3fbabfca2a8dd5cd!8m2!3d23.1571814!4d75.7920958?authuser=0&hl=en&rclk=1,23.1571814,75.7920958,Madhya Pradesh,West 2
Fitness CULTURE Satna,Gym,"MP Nagar, Satna, Madhya Pradesh 485001, India",https://www.google.co.kr/maps/place/Fitness+CULTURE+Satna/data=!4m5!3m4!1s0x39847f89c5d36f4b:0x3daf98f2a4c3f049!8m2!3d24.574448!4d80.8359545?authuser=0&hl=en&rclk=1,24.574448,80.8359545,Madhya Pradesh,West 2
Fitness Planet,Gym,"INFRONT OF RAJ KAMAL HOTEL, VINDHYA NAGAR, MAIN ROAD, Waidhan, Madhya Pradesh 486886, India",https://www.google.co.kr/maps/place/Fitness+Planet/data=!4m5!3m4!1s0x398f36a683aa5549:0x46cab39e663700a7!8m2!3d24.0675963!4d82.6343872?authuser=0&hl=en&rclk=1,24.0675963,82.6343872,Madhya Pradesh,West 2
Grand Fitness Zone Gym,Gym,"jadiya market , lakshmipura, Bada Bazaar, Sagar, Madhya Pradesh 470002, India",https://www.google.co.kr/maps/place/Grand+Fitness+Zone+Gym/data=!4m5!3m4!1s0x3978d6a5ca038b6b:0x7a0102036aa615e7!8m2!3d23.8317098!4d78.7337486?authuser=0&hl=en&rclk=1,23.8317098,78.7337486,Madhya Pradesh,West 2
Carewell Fitness Station,Gym,"ABR ENVIRO SYSTEMS, 437, Kanadia Main Rd, Alok Nagar, Indore, Madhya Pradesh 452016, India",https://www.google.co.kr/maps/place/Carewell+Fitness+Station/data=!4m5!3m4!1s0x3962e3d226251235:0x89e27be5f4622fb5!8m2!3d22.7228413!4d75.9187898?authuser=0&hl=en&rclk=1,22.7228413,75.9187898,Madhya Pradesh,West 2
Fitness point Gym,Gym,"HRG8+CH7, Panna Naka, Umri, Virat Nagar, Satna, Madhya Pradesh 485001, India",https://www.google.co.kr/maps/place/Fitness+point+Gym/data=!4m5!3m4!1s0x39847f820823b5dd:0x123d20e975211f44!8m2!3d24.5760293!4d80.8164351?authuser=0&hl=en&rclk=1,24.5760293,80.8164351,Madhya Pradesh,West 2
King Fitness,Gym,"Alok Nagar, Tapti Nagar, Adhartal, Jabalpur, Madhya Pradesh 482004, India",https://www.google.co.kr/maps/place/King+Fitness/data=!4m5!3m4!1s0x3981af0889a09a61:0x3286fcae4682a611!8m2!3d23.201089!4d79.9436755?authuser=0&hl=en&rclk=1,23.201089,79.9436755,Madhya Pradesh,West 2
Lakshya Fitness,Gym,"Garha, Jabalpur, Madhya Pradesh 482003, India",https://www.google.co.kr/maps/place/Lakshya+Fitness/data=!4m5!3m4!1s0x3981b1f17311de3d:0xdc6c680582075940!8m2!3d23.1608839!4d79.9037232?authuser=0&hl=en&rclk=1,23.1608839,79.9037232,Madhya Pradesh,West 2
The Iron Man Gym,Gym,"9,Vishal Nagar, near Rajendra Nagar Bridge, Annapurna Rd, Indore, Madhya Pradesh 452012, India",https://www.google.co.kr/maps/place/The+Iron+Man+Gym/data=!4m5!3m4!1s0x3962fdfc8773f26d:0x93047e77bbb6a04b!8m2!3d22.6771907!4d75.8337734?authuser=0&hl=en&rclk=1,22.6771907,75.8337734,Madhya Pradesh,West 2
P5 Fitness Studio Gym,Fitness center,"Main Road opp. to Fortune Plaza City Center, Raksha Vihar, Patel Nagar, Gwalior, Madhya Pradesh 474001, India",https://www.google.co.kr/maps/place/P5+Fitness+Studio+Gym/data=!4m5!3m4!1s0x3976c59c654f1bb7:0xf3b2e1d155db4473!8m2!3d26.2092272!4d78.1875146?authuser=0&hl=en&rclk=1,26.2092272,78.1875146,Madhya Pradesh,West 2
Evolution Gym,Gym,"256, Jabalpur Road Chhota Fuhara, Old Napier Town 1st floor,ganga dal mill parisar, Gopal Bag Rd, behind bsnl exchange, Jabalpur, Madhya Pradesh 482002, India",https://www.google.co.kr/maps/place/Evolution+Gym/data=!4m5!3m4!1s0x3981af57c682f199:0xf6bd0efaf0accc46!8m2!3d23.1831745!4d79.931742?authuser=0&hl=en&rclk=1,23.1831745,79.931742,Madhya Pradesh,West 2
KS Fitness Gym,Gym,"Kanta Shrawan palace, new four lane road opposite bhel gate no 3 narela shankari, Ayodhya Bypass Rd, Bhopal, Madhya Pradesh 462022, India",https://www.google.co.kr/maps/place/KS+Fitness+Gym/data=!4m5!3m4!1s0x397c69477d823e91:0xbbba2cb1ce7a998e!8m2!3d23.265387!4d77.4649882?authuser=0&hl=en&rclk=1,23.265387,77.4649882,Madhya Pradesh,West 2
Body power gym,Gym,"69VV+C73, Rustam Ahaata Khan, Shymala Hills Slums, Shymala Hills, Bhopal, Madhya Pradesh 462002, India",https://www.google.co.kr/maps/place/Body+power+gym/data=!4m5!3m4!1s0x397c43c1bd373d91:0x22911d1eabd792b5!8m2!3d23.243517!4d77.3931784?authuser=0&hl=en&rclk=1,23.243517,77.3931784,Madhya Pradesh,West 2
Bravo2 Gym,Gym,"248, 4, Nehru Nagar, Indore, Madhya Pradesh 452001, India",https://www.google.co.kr/maps/place/Bravo2+Gym/data=!4m5!3m4!1s0x3962fd182660443f:0x858c9e947b9d5e56!8m2!3d22.7379867!4d75.8824541?authuser=0&hl=en&rclk=1,22.7379867,75.8824541,Madhya Pradesh,West 2
Vishal Fitness,Gym,"Link Rd 1, 2nd Stop, STT Nagar, Shivaji Nagar, Bhopal, Madhya Pradesh 462003, India",https://www.google.co.kr/maps/place/Vishal+Fitness/data=!4m5!3m4!1s0x397c4292a448aaa7:0x6119c18808ebf09d!8m2!3d23.231111!4d77.4115183?authuser=0&hl=en&rclk=1,23.231111,77.4115183,Madhya Pradesh,West 2
Iconic Fitness,Gym,"NH43, Shivam Colony, Shahdol, Madhya Pradesh 484001, India",https://www.google.co.kr/maps/place/Iconic+Fitness/data=!4m5!3m4!1s0x3986fb2de654d92d:0xe1e4ddd9d258ac6e!8m2!3d23.3086609!4d81.3703553?authuser=0&hl=en&rclk=1,23.3086609,81.3703553,Madhya Pradesh,West 2
Carewell Fitness Station,Gym,"Scheme 97, Vip Paraspar Nagar, Indore, Madhya Pradesh 452012, India",https://www.google.co.kr/maps/place/Carewell+Fitness+Station/data=!4m5!3m4!1s0x3962fc3e658e861f:0x88fd8dd0209bd2ca!8m2!3d22.676173!4d75.8257624?authuser=0&hl=en&rclk=1,22.676173,75.8257624,Madhya Pradesh,West 2
A-ONE GYM & FITNESS CENTER GIRLS & BOYS,Gym,"3rd floor Lala ji tower c-sector, JK Rd, near Bima Kunj, Kolar Rd, Bhopal, Madhya Pradesh 462042, India",https://www.google.co.kr/maps/place/A-ONE+GYM+%26+FITNESS+CENTER+GIRLS+%26+BOYS/data=!4m5!3m4!1s0x397c439f223287df:0x4147217688f2e021!8m2!3d23.1794826!4d77.4186821?authuser=0&hl=en&rclk=1,23.1794826,77.4186821,Madhya Pradesh,West 2
